~Version Information
 VERS  .     2.00 : LOG ASCII STANDARD -VERSION 2.0
 WRAP  .     NO   : ONE LINE PER DEPTH STEP
 DLM   .    SPACE : DELIMITING CHARACTER BETWEEN DATA COLUMNS
~Well Information Block
#MNEM  .UNIT        Data Type                  Information
#------.------ ----------------------------- : -------------------------
 STRT  .M           770.040                  : 
 STOP  .M           855.000                  : 
 STEP  .M             0.040                  : 
 NULL  .          -999.2500                  : 
 COMP  .      KI EXPLORATION INC.            : COMPANY
 WELL  .      KI RETLAW 15-6-13-18           : WELL
 FLD   .      RETLAW                         : FIELD
 LOC   .      100/15-06-013-18W4/00          : LOCATION
 PROV  .      Alberta                        : PROVINCE
 SRVC  .      Tucker Wireline Services       : SERVICE COMPANY
 DATE  .      OCT 10 2009                    : LOG DATE
 UWI   .      100150601318W400               : UNIQUE WELL ID
 LIC   .      0412565                        : LICENCE
~Curve Information Block
#MNEM  .UNIT        API CODE                   Curve Description
#------.------ ----------------------------- : -------------------------
 DEPT  .M        00 000 01 00                : Measured Depth
 DT    .US/M     60 520 32 00                : Delta Time
 GR    .GAPI     07 310 01 00                : Gamma Ray
 GRX   .GAPI     07 310 01 00                : Gamma Ray (Hires)
 ILD   .OHMM     07 120 45 00                : Deep Induction Resistivity
 ILM   .OHMM     07 120 44 00                : Medium Induction Resistivity
 SFL   .OHMM     07 220 04 00                : Spherically Focused Resistivity
 SP    .MV       07 010 01 00                : Spontaneous Potential
 RHOB  .KG/M3    45 350 02 00                : Bulk Density
 PE    .B/E      45 358 00 00                : Photoelectric Cross Section
~Parameter Information Section
#MNEM  .UNIT        Value                      Description
#------.------ ----------------------------- : -------------------------
 RUN   .            1                        : Run number
 GL    .M           821.809998               : Ground level elevation
 DREF  .            KB                       : Depth reference
 EREF  .M           826.099976               : Elevation of depth reference
 TDL   .M           1157.0                   : Total depth, logger
 TDD   .M           1157.0                   : Total depth, driller
 CSGL  .M           293.0                    : Casing bottom, logger
 CSGD  .M           293.0                    : Casing bottom, driller
 CSGS  .mm          219.10                   : Casing size
 CSGW  .Kg          219.10                   : Casing weight
 BS    .mm          200.00                   : Bit size
 MUD   .            GEL CHEM                 : Mud type
 MUDD  .kg/m3       1230.000                 : Mud density
 MUDV  .sec         81.000                   : Mud viscosity
 FL    .cc          7.500                    : Fluid loss rate
 PH    .            10.000                   : Mud pH
 MUDS  .            FLOW LINE                : Mud source
 RM    .OHMM        2.100                    : Resistivity of mud
 RMT   .C           12.0                     : Temperature of mud
 RMF   .OHMM        2.500                    : Resistivity of mud filtrate
 RMFT  .C           12.0                     : Temperature of mud filtrate
 RMC   .OHMM        1.900                    : Resistivity of mud cake
 RMCT  .C           12.0                     : Temperature of mud cake
 TMAX  .C           32.0                     : Maximum recorded temperature
 TIMC  .DAY/HR      OCT 10 2009 @ 16:00      : Date/Time circulation stopped
 TIMD  .DAY/HR      OCT 10 2009 @ 21:00      : Date/Time logger tagged bottom
 UNIT  .            TRUCK 134                : Logging unit_number
 BASE  .            MEDICINE HAT             : Home base of logging unit
 ENG   .            M. MacNEIL               : Recording Engineer
 WIT   .            R. BABBITT               : Witnessed by
~Other Information Section
#Run number  1
RUN #1: GRT / CNT / LDT / CST / PIT
LOGGER'S COMMENTS:
1) CALIPERS ORIENTED IN X-Y AXIS.
2) SFL IS ENVIRONMENTALLY CORRECTED USING AVCAL. 
3) NEUTRON POROSITY IS CALIPER CORRECTED USING NCAL.
4) CALIPERS READINGS VERIFIED IN CASING.
5) MUD RESISTIVITIES RECORDED AS MEASURED.
6) CENTRALIZERS DEPLOYED ON TOP AND BOTTOM OF CST.
7) CEMENT VOLUME CALCULATED USING 139.7mm PRODUCTION CASING
DATE AND TIME ON BOTTOM: OCT 10 2009 @ 21:00
TUCKER OPERATORS:
1) L. KNAUS
THANK YOU FOR USING TUCKER WIRELINE SERVICES CANADA.
#DEPT     DT       CALN     CALD     GR       GRX      ILD      ILM      LWTKG    NPDL     NPLS     NPSS     DPDL     DPLS     DPSS     SFL      SP       TT1      TT2      TT3      TT4      DRHO     RHOB     PE       
~TOPS_Definition
 TOPN.        :  Top Name     {S} 
 TOPT.M       :  Top Depth    {F} 
~TOPS_Data | TOPS_Definition
 Kcolorado            435.6  
 Kmed_hat             487.0  
 K2nd_ws              695.6  
 K2ws_ss              716.9  
 Kbfs                 795.0  
 Kbi_ss               825.3  
 Kbsl_colo            945.5  
 Kmannvl              953.0  
 Kglauc_ss            1057.7  
 Kmannvl_L            1094.9  
~Ascii         Log         Data
# ...
       830.520         279.17          80.13          73.99           9.95          10.53          10.65        -206.62        2421.08           2.23
       830.560         277.81          81.69          81.29          10.00          10.55          10.68        -206.49        2411.41           2.30
       830.600         276.86          83.15          89.77          10.04          10.56          10.71        -206.38        2405.10           2.35
       830.640         276.27          84.27          94.11          10.08          10.57          10.74        -206.29        2401.91           2.38
       830.680         275.92          84.84          92.26          10.12          10.58          10.77        -206.22        2404.26           2.40
       830.720         275.78          84.84          92.52          10.16          10.60          10.81        -206.16        2410.20           2.32
       830.760         275.78          84.35          89.38          10.20          10.63          10.84        -206.11        2420.09           2.20
       830.800         275.91          83.60          81.90          10.23          10.66          10.87        -206.06        2428.49           2.15
       830.840         276.12          82.91          75.19          10.26          10.70          10.90        -206.01        2424.98           2.17
       830.880         276.31          82.50          72.99          10.29          10.74          10.95        -205.95        2416.02           2.17
       830.920         276.43          82.50          74.92          10.31          10.79          11.00        -205.89        2408.74           2.21
       830.960         276.38          82.91          81.00          10.33          10.85          11.06        -205.82        2423.79           2.23
       831.000         276.11          83.62          86.22          10.34          10.90          11.13        -205.74        2447.18           2.19
       831.040         275.60          84.39          86.53          10.35          10.95          11.22        -205.66        2456.30           2.16
       831.080         274.89          84.98          85.04          10.35          11.00          11.32        -205.58        2453.55           2.12
       831.120         274.04          85.14          88.63          10.34          11.04          11.44        -205.49        2440.74           2.14
       831.160         273.09          84.77          97.48          10.32          11.06          11.57        -205.42        2430.64           2.22
       831.200         272.11          83.79          95.10          10.30          11.07          11.71        -205.35        2427.43           2.25
       831.240         271.10          82.34          81.82          10.28          11.05          11.86        -205.29        2433.20           2.22
       831.280         270.04          80.63          75.65          10.26          11.01          12.01        -205.25        2444.88           2.17
       831.320         268.95          78.91          75.65          10.23          10.95          12.14        -205.26        2444.98           2.22
       831.360         267.86          77.43          76.50          10.19          10.87          12.27        -205.31        2433.35           2.32
       831.400         266.83          76.43          72.02          10.14          10.76          12.36        -205.42        2432.58           2.32
       831.440         265.95          76.01          65.38          10.09          10.63          12.43        -205.58        2431.53           2.36
       831.480         265.28          76.15          66.25          10.02          10.48          12.45        -205.81        2427.37           2.41
       831.520         264.86          76.75          76.47           9.94          10.32          12.45        -206.10        2428.35           2.38
       831.560         264.71          77.63          84.24           9.85          10.14          12.40        -206.45        2436.30           2.29
       831.600         264.86          78.58          82.98           9.74           9.95          12.31        -206.86        2451.57           2.18
       831.640         265.31          79.41          79.68           9.62           9.75          12.19        -207.30        2453.71           2.12
       831.680         266.00          80.01          79.95           9.48           9.55          12.05        -207.77        2444.59           2.21
       831.720         266.78          80.37          84.40           9.34           9.34          11.88        -208.25        2438.86           2.36
       831.760         267.53          80.51          85.58           9.18           9.13          11.69        -208.70        2440.24           2.36
       831.800         268.16          80.54          81.91           9.02           8.91          11.50        -209.09        2430.35           2.28
       831.840         268.70          80.66          76.97           8.85           8.70          11.29        -209.39        2410.72           2.22
       831.880         269.23          80.97          74.06           8.67           8.48          11.06        -209.57        2396.29           2.21
       831.920         269.89          81.62          75.27           8.50           8.26          10.80        -209.60        2396.35           2.19
       831.960         270.78          82.71          81.26           8.32           8.04          10.51        -209.46        2394.93           2.17
       832.000         272.06          84.29          84.86           8.15           7.82          10.19        -209.15        2383.97           2.16
       832.040         273.84          86.33          83.51           7.98           7.60           9.83        -208.66        2381.17           2.18
       832.080         276.25          88.90          85.47           7.81           7.39           9.45        -208.02        2393.47           2.22
       832.120         279.31          91.99          89.92           7.65           7.19           9.05        -207.25        2406.79           2.27
       832.160         282.90          95.63          92.66           7.50           6.99           8.64        -206.38        2415.26           2.29
       832.200         286.78          99.83          93.37           7.37           6.80           8.23        -205.46        2415.12           2.32
       832.240         290.63         104.58          97.29           7.24           6.62           7.83        -204.51        2411.09           2.36
       832.280         294.22         109.80         109.51           7.11           6.45           7.47        -203.58        2419.72           2.42
       832.320         297.42         115.34         117.29           6.99           6.30           7.14        -202.69        2434.95           2.53
       832.360         300.26         121.08         118.30           6.89           6.16           6.85        -201.85        2444.35           2.60
       832.400         302.90         126.75         122.57           6.80           6.03           6.62        -201.10        2438.36           2.59
       832.440         305.50         132.04         136.11           6.71           5.92           6.43        -200.45        2422.15           2.58
       832.480         308.17         136.74         147.41           6.64           5.82           6.29        -199.88        2400.33           2.64
       832.520         310.92         140.54         152.55           6.57           5.74           6.19        -199.41        2388.55           2.71
       832.560         313.67         143.34         150.45           6.50           5.67           6.12        -199.01        2397.17           2.76
       832.600         316.27         145.12         149.06           6.45           5.62           6.08        -198.69        2420.74           2.82
       832.640         318.56         145.93         154.65           6.40           5.57           6.05        -198.44        2438.81           2.84
