~Version Information
 VERS  .     2.00 : LOG ASCII STANDARD -VERSION 2.0
 WRAP  .     NO   : ONE LINE PER DEPTH STEP
 DLM   .    SPACE : DELIMITING CHARACTER BETWEEN DATA COLUMNS
~Well Information Block
#MNEM  .UNIT        Data Type                  Information
#------.------ ----------------------------- : -------------------------
 STRT  .M           770.040                  : 
 STOP  .M           855.000                  : 
 STEP  .M             0.040                  : 
 NULL  .          -999.2500                  : 
 COMP  .      KI EXPLORATION INC.            : COMPANY
 WELL  .      KI RETLAW 15-6-13-18           : WELL
 FLD   .      RETLAW                         : FIELD
 LOC   .      100/15-06-013-18W4/00          : LOCATION
 PROV  .      Alberta                        : PROVINCE
 SRVC  .      Tucker Wireline Services       : SERVICE COMPANY
 DATE  .      OCT 10 2009                    : LOG DATE
 UWI   .      100150601318W400               : UNIQUE WELL ID
 LIC   .      0412565                        : LICENCE
~Curve Information Block
#MNEM  .UNIT        API CODE                   Curve Description
#------.------ ----------------------------- : -------------------------
 DEPT  .M        00 000 01 00                : Measured Depth
 DT    .US/M     60 520 32 00                : Delta Time
 GR    .GAPI     07 310 01 00                : Gamma Ray
 GRX   .GAPI     07 310 01 00                : Gamma Ray (Hires)
 ILD   .OHMM     07 120 45 00                : Deep Induction Resistivity
 ILM   .OHMM     07 120 44 00                : Medium Induction Resistivity
 SFL   .OHMM     07 220 04 00                : Spherically Focused Resistivity
 SP    .MV       07 010 01 00                : Spontaneous Potential
 RHOB  .KG/M3    45 350 02 00                : Bulk Density
 PE    .B/E      45 358 00 00                : Photoelectric Cross Section
~Parameter Information Section
#MNEM  .UNIT        Value                      Description
#------.------ ----------------------------- : -------------------------
 RUN   .            1                        : Run number
 GL    .M           821.809998               : Ground level elevation
 DREF  .            KB                       : Depth reference
 EREF  .M           826.099976               : Elevation of depth reference
 TDL   .M           1157.0                   : Total depth, logger
 TDD   .M           1157.0                   : Total depth, driller
 CSGL  .M           293.0                    : Casing bottom, logger
 CSGD  .M           293.0                    : Casing bottom, driller
 CSGS  .mm          219.10                   : Casing size
 CSGW  .Kg          219.10                   : Casing weight
 BS    .mm          200.00                   : Bit size
 MUD   .            GEL CHEM                 : Mud type
 MUDD  .kg/m3       1230.000                 : Mud density
 MUDV  .sec         81.000                   : Mud viscosity
 FL    .cc          7.500                    : Fluid loss rate
 PH    .            10.000                   : Mud pH
 MUDS  .            FLOW LINE                : Mud source
 RM    .OHMM        2.100                    : Resistivity of mud
 RMT   .C           12.0                     : Temperature of mud
 RMF   .OHMM        2.500                    : Resistivity of mud filtrate
 RMFT  .C           12.0                     : Temperature of mud filtrate
 RMC   .OHMM        1.900                    : Resistivity of mud cake
 RMCT  .C           12.0                     : Temperature of mud cake
 TMAX  .C           32.0                     : Maximum recorded temperature
 TIMC  .DAY/HR      OCT 10 2009 @ 16:00      : Date/Time circulation stopped
 TIMD  .DAY/HR      OCT 10 2009 @ 21:00      : Date/Time logger tagged bottom
 UNIT  .            TRUCK 134                : Logging unit_number
 BASE  .            MEDICINE HAT             : Home base of logging unit
 ENG   .            M. MacNEIL               : Recording Engineer
 WIT   .            R. BABBITT               : Witnessed by
~Other Information Section
#Run number  1
RUN #1: GRT / CNT / LDT / CST / PIT
LOGGER'S COMMENTS:
1) CALIPERS ORIENTED IN X-Y AXIS.
2) SFL IS ENVIRONMENTALLY CORRECTED USING AVCAL. 
3) NEUTRON POROSITY IS CALIPER CORRECTED USING NCAL.
4) CALIPERS READINGS VERIFIED IN CASING.
5) MUD RESISTIVITIES RECORDED AS MEASURED.
6) CENTRALIZERS DEPLOYED ON TOP AND BOTTOM OF CST.
7) CEMENT VOLUME CALCULATED USING 139.7mm PRODUCTION CASING
DATE AND TIME ON BOTTOM: OCT 10 2009 @ 21:00
TUCKER OPERATORS:
1) L. KNAUS
THANK YOU FOR USING TUCKER WIRELINE SERVICES CANADA.
#DEPT     DT       CALN     CALD     GR       GRX      ILD      ILM      LWTKG    NPDL     NPLS     NPSS     DPDL     DPLS     DPSS     SFL      SP       TT1      TT2      TT3      TT4      DRHO     RHOB     PE       
~TOPS_Definition
 TOPN.        :  Top Name     {S} 
 TOPT.M       :  Top Depth    {F} 
~TOPS_Data | TOPS_Definition
 Kcolorado            435.6  
 Kmed_hat             487.0  
 K2nd_ws              695.6  
 K2ws_ss              716.9  
 Kbfs                 795.0  
 Kbi_ss               825.3  
 Kbsl_colo            945.5  
 Kmannvl              953.0  
 Kglauc_ss            1057.7  
 Kmannvl_L            1094.9  
~Ascii         Log         Data
# ...
       819.720         315.42         115.56         118.62           5.90           6.12           7.59        -197.44        2471.36           2.79
       819.760         315.38         114.32         106.71           5.91           6.13           7.61        -197.46        2474.45           2.65
       819.800         315.13         113.01         108.52           5.91           6.14           7.62        -197.48        2455.91           2.70
       819.840         314.67         111.76         112.68           5.91           6.14           7.63        -197.50        2436.38           2.91
       819.880         314.04         110.87         109.45           5.91           6.14           7.63        -197.52        2434.94           3.02
       819.920         313.35         110.29         100.10           5.91           6.13           7.63        -197.55        2449.94           2.97
       819.960         312.73         110.03         106.05           5.91           6.11           7.63        -197.59        2470.04           2.88
       820.000         312.40         110.10         116.51           5.90           6.09           7.62        -197.64        2495.87           2.84
       820.040         312.55         110.40         115.77           5.90           6.07           7.60        -197.68        2503.24           2.89
       820.080         313.26         110.91         106.45           5.89           6.04           7.56        -197.73        2493.85           2.92
       820.120         314.47         111.59         100.04           5.89           6.00           7.51        -197.77        2488.16           2.85
       820.160         315.94         112.25         111.58           5.88           5.96           7.44        -197.79        2488.24           2.82
       820.200         317.40         112.84         123.76           5.87           5.93           7.37        -197.81        2475.35           2.89
       820.240         318.60         113.38         120.05           5.85           5.88           7.28        -197.82        2452.38           2.97
       820.280         319.48         113.66         106.71           5.84           5.84           7.19        -197.81        2425.11           2.98
       820.320         320.08         113.63         110.84           5.82           5.80           7.10        -197.78        2409.29           2.91
       820.360         320.54         113.30         121.55           5.80           5.76           7.01        -197.75        2424.62           2.85
       820.400         320.99         112.71         123.44           5.78           5.73           6.94        -197.71        2454.58           2.95
       820.440         321.52         112.01         113.82           5.76           5.69           6.87        -197.67        2470.57           3.08
       820.480         322.21         111.32          99.92           5.73           5.66           6.82        -197.63        2476.61           3.02
       820.520         323.03         110.76         104.67           5.71           5.63           6.78        -197.59        2477.46           2.90
       820.560         323.92         110.53         114.25           5.68           5.60           6.74        -197.56        2484.20           2.82
       820.600         324.79         110.75         107.80           5.66           5.57           6.72        -197.53        2496.75           2.75
       820.640         325.52         111.32          99.05           5.63           5.55           6.71        -197.52        2497.79           2.71
       820.680         326.04         112.21         108.64           5.60           5.53           6.70        -197.51        2483.13           2.79
       820.720         326.26         113.24         120.60           5.58           5.51           6.69        -197.51        2469.30           2.87
       820.760         326.18         114.30         122.40           5.55           5.48           6.69        -197.53        2470.68           2.90
       820.800         325.86         115.18         114.98           5.53           5.46           6.69        -197.55        2485.83           2.88
       820.840         325.41         115.73         107.91           5.50           5.44           6.68        -197.58        2478.10           2.82
       820.880         324.93         115.90         121.99           5.48           5.42           6.68        -197.62        2444.55           2.81
       820.920         324.49         115.59         129.70           5.46           5.40           6.67        -197.66        2420.92           2.90
       820.960         324.09         114.95         119.84           5.44           5.37           6.66        -197.70        2403.75           3.04
       821.000         323.69         114.11         110.72           5.42           5.35           6.65        -197.74        2384.95           3.10
       821.040         323.27         113.11         107.47           5.41           5.32           6.63        -197.77        2387.96           2.96
       821.080         322.89         112.19         107.64           5.39           5.30           6.61        -197.82        2420.09           2.83
       821.120         322.68         111.50         111.17           5.38           5.27           6.58        -197.85        2463.82           2.85
       821.160         322.70         111.03         110.79           5.36           5.25           6.55        -197.87        2504.27           2.94
       821.200         322.90         110.78         105.06           5.34           5.22           6.51        -197.90        2550.19           2.80
       821.240         323.11         110.73         107.84           5.32           5.19           6.46        -197.93        2574.61           2.67
       821.280         323.15         110.75         115.55           5.29           5.17           6.42        -197.94        2567.08           2.75
       821.320         322.97         110.89         120.56           5.27           5.14           6.37        -197.95        2548.86           2.87
       821.360         322.62         111.14         110.60           5.25           5.12           6.33        -197.97        2543.08           2.86
       821.400         322.28         111.58         101.18           5.22           5.09           6.29        -197.99        2547.95           2.88
       821.440         322.13         112.30         108.06           5.19           5.07           6.26        -198.02        2529.08           2.98
       821.480         322.28         113.26         112.03           5.16           5.05           6.24        -198.05        2494.00           3.10
       821.520         322.74         114.45         110.11           5.12           5.02           6.23        -198.09        2479.86           3.16
       821.560         323.46         115.63         109.84           5.09           5.00           6.22        -198.13        2491.63           3.13
       821.600         324.25         116.46         117.93           5.07           4.98           6.22        -198.17        2493.99           3.03
       821.640         324.93         116.69         130.54           5.04           4.96           6.22        -198.21        2480.77           2.92
       821.680         325.34         116.11         139.52           5.02           4.94           6.23        -198.25        2475.70           2.78
       821.720         325.49         114.79         128.29           5.00           4.92           6.23        -198.29        2481.37           2.74
       821.760         325.50         112.94         107.92           4.98           4.90           6.22        -198.33        2481.94           2.80
       821.800         325.54         110.89         104.00           4.97           4.88           6.21        -198.37        2467.56           2.93
       821.840         325.72         109.21         102.86           4.97           4.86           6.19        -198.42        2444.97           3.07
