~Version Information
 VERS  .     2.00 : LOG ASCII STANDARD -VERSION 2.0
 WRAP  .     NO   : ONE LINE PER DEPTH STEP
 DLM   .    SPACE : DELIMITING CHARACTER BETWEEN DATA COLUMNS
~Well Information Block
#MNEM  .UNIT        Data Type                  Information
#------.------ ----------------------------- : -------------------------
 STRT  .M           770.040                  : 
 STOP  .M           855.000                  : 
 STEP  .M             0.040                  : 
 NULL  .          -999.2500                  : 
 COMP  .      KI EXPLORATION INC.            : COMPANY
 WELL  .      KI RETLAW 15-6-13-18           : WELL
 FLD   .      RETLAW                         : FIELD
 LOC   .      100/15-06-013-18W4/00          : LOCATION
 PROV  .      Alberta                        : PROVINCE
 SRVC  .      Tucker Wireline Services       : SERVICE COMPANY
 DATE  .      OCT 10 2009                    : LOG DATE
 UWI   .      100150601318W400               : UNIQUE WELL ID
 LIC   .      0412565                        : LICENCE
~Curve Information Block
#MNEM  .UNIT        API CODE                   Curve Description
#------.------ ----------------------------- : -------------------------
 DEPT  .M        00 000 01 00                : Measured Depth
 DT    .US/M     60 520 32 00                : Delta Time
 GR    .GAPI     07 310 01 00                : Gamma Ray
 GRX   .GAPI     07 310 01 00                : Gamma Ray (Hires)
 ILD   .OHMM     07 120 45 00                : Deep Induction Resistivity
 ILM   .OHMM     07 120 44 00                : Medium Induction Resistivity
 SFL   .OHMM     07 220 04 00                : Spherically Focused Resistivity
 SP    .MV       07 010 01 00                : Spontaneous Potential
 RHOB  .KG/M3    45 350 02 00                : Bulk Density
 PE    .B/E      45 358 00 00                : Photoelectric Cross Section
~Parameter Information Section
#MNEM  .UNIT        Value                      Description
#------.------ ----------------------------- : -------------------------
 RUN   .            1                        : Run number
 GL    .M           821.809998               : Ground level elevation
 DREF  .            KB                       : Depth reference
 EREF  .M           826.099976               : Elevation of depth reference
 TDL   .M           1157.0                   : Total depth, logger
 TDD   .M           1157.0                   : Total depth, driller
 CSGL  .M           293.0                    : Casing bottom, logger
 CSGD  .M           293.0                    : Casing bottom, driller
 CSGS  .mm          219.10                   : Casing size
 CSGW  .Kg          219.10                   : Casing weight
 BS    .mm          200.00                   : Bit size
 MUD   .            GEL CHEM                 : Mud type
 MUDD  .kg/m3       1230.000                 : Mud density
 MUDV  .sec         81.000                   : Mud viscosity
 FL    .cc          7.500                    : Fluid loss rate
 PH    .            10.000                   : Mud pH
 MUDS  .            FLOW LINE                : Mud source
 RM    .OHMM        2.100                    : Resistivity of mud
 RMT   .C           12.0                     : Temperature of mud
 RMF   .OHMM        2.500                    : Resistivity of mud filtrate
 RMFT  .C           12.0                     : Temperature of mud filtrate
 RMC   .OHMM        1.900                    : Resistivity of mud cake
 RMCT  .C           12.0                     : Temperature of mud cake
 TMAX  .C           32.0                     : Maximum recorded temperature
 TIMC  .DAY/HR      OCT 10 2009 @ 16:00      : Date/Time circulation stopped
 TIMD  .DAY/HR      OCT 10 2009 @ 21:00      : Date/Time logger tagged bottom
 UNIT  .            TRUCK 134                : Logging unit_number
 BASE  .            MEDICINE HAT             : Home base of logging unit
 ENG   .            M. MacNEIL               : Recording Engineer
 WIT   .            R. BABBITT               : Witnessed by
~Other Information Section
#Run number  1
RUN #1: GRT / CNT / LDT / CST / PIT
LOGGER'S COMMENTS:
1) CALIPERS ORIENTED IN X-Y AXIS.
2) SFL IS ENVIRONMENTALLY CORRECTED USING AVCAL. 
3) NEUTRON POROSITY IS CALIPER CORRECTED USING NCAL.
4) CALIPERS READINGS VERIFIED IN CASING.
5) MUD RESISTIVITIES RECORDED AS MEASURED.
6) CENTRALIZERS DEPLOYED ON TOP AND BOTTOM OF CST.
7) CEMENT VOLUME CALCULATED USING 139.7mm PRODUCTION CASING
DATE AND TIME ON BOTTOM: OCT 10 2009 @ 21:00
TUCKER OPERATORS:
1) L. KNAUS
THANK YOU FOR USING TUCKER WIRELINE SERVICES CANADA.
#DEPT     DT       CALN     CALD     GR       GRX      ILD      ILM      LWTKG    NPDL     NPLS     NPSS     DPDL     DPLS     DPSS     SFL      SP       TT1      TT2      TT3      TT4      DRHO     RHOB     PE       
~TOPS_Definition
 TOPN.        :  Top Name     {S} 
 TOPT.M       :  Top Depth    {F} 
~TOPS_Data | TOPS_Definition
 Kcolorado            435.6  
 Kmed_hat             487.0  
 K2nd_ws              695.6  
 K2ws_ss              716.9  
 Kbfs                 795.0  
 Kbi_ss               825.3  
 Kbsl_colo            945.5  
 Kmannvl              953.0  
 Kglauc_ss            1057.7  
 Kmannvl_L            1094.9  
~Ascii         Log         Data
# ...
       798.120         327.25         110.62         108.47           5.43           5.21           6.26        -198.64        2492.81           2.80
       798.160         327.69         110.17          98.82           5.45           5.25           6.30        -198.60        2500.66           2.75
       798.200         327.75         109.95         103.23           5.47           5.29           6.35        -198.55        2490.12           2.84
       798.240         327.48         109.97         109.88           5.50           5.35           6.40        -198.51        2478.08           2.94
       798.280         326.96         110.12         115.47           5.53           5.41           6.46        -198.48        2470.16           2.93
       798.320         326.25         110.30         116.02           5.57           5.47           6.53        -198.45        2470.90           2.87
       798.360         325.43         110.39         108.38           5.61           5.55           6.62        -198.42        2477.01           2.83
       798.400         324.54         110.33         112.66           5.66           5.63           6.72        -198.40        2470.12           2.80
       798.440         323.59         110.14         119.24           5.71           5.72           6.83        -198.38        2474.39           2.78
       798.480         322.57         109.95         107.86           5.77           5.82           6.95        -198.37        2493.34           2.78
       798.520         321.44         109.81          94.29           5.83           5.93           7.09        -198.36        2498.33           2.79
       798.560         320.18         109.67         102.54           5.90           6.04           7.24        -198.36        2505.63           2.67
       798.600         318.80         109.49         117.91           5.96           6.16           7.40        -198.37        2508.92           2.57
       798.640         317.34         109.20         122.20           6.03           6.29           7.57        -198.39        2502.92           2.58
       798.680         315.77         108.69         111.42           6.10           6.42           7.75        -198.41        2515.80           2.58
       798.720         314.09         107.83         101.08           6.16           6.56           7.93        -198.44        2543.12           2.57
       798.760         312.32         106.58         107.01           6.23           6.69           8.13        -198.48        2547.74           2.66
       798.800         310.52         104.99         113.70           6.30           6.83           8.33        -198.52        2531.44           2.79
       798.840         308.72         103.22         111.33           6.36           6.96           8.55        -198.56        2527.51           2.80
       798.880         306.95         101.43         100.65           6.41           7.10           8.77        -198.60        2539.53           2.66
       798.920         305.24          99.77          90.52           6.47           7.22           9.00        -198.64        2534.27           2.62
       798.960         303.54          98.49          92.12           6.52           7.33           9.24        -198.68        2517.09           2.63
       799.000         301.71          97.66          92.97           6.56           7.44           9.49        -198.71        2514.53           2.57
       799.040         299.60          97.31          87.14           6.60           7.52           9.72        -198.75        2513.55           2.59
       799.080         297.14          97.26          90.01           6.63           7.59           9.94        -198.77        2522.20           2.70
       799.120         294.48          97.24         107.04           6.66           7.63          10.14        -198.79        2541.27           2.82
       799.160         292.04          97.17         112.62           6.68           7.65          10.28        -198.81        2548.95           2.93
       799.200         290.36          96.89         105.23           6.70           7.64          10.37        -198.82        2545.06           2.93
       799.240         289.76          96.42          93.94           6.71           7.60          10.39        -198.83        2540.28           2.86
       799.280         290.14          95.96          85.97           6.72           7.55          10.33        -198.83        2538.11           2.74
       799.320         290.98          95.65          91.23           6.71           7.47          10.19        -198.83        2544.57           2.67
       799.360         291.65          95.70          96.87           6.71           7.37           9.98        -198.83        2556.76           2.73
       799.400         291.80          96.36          90.45           6.69           7.25           9.72        -198.82        2556.53           2.87
       799.440         291.57          97.50          82.79           6.67           7.13           9.42        -198.80        2527.71           2.99
       799.480         291.46          99.03          95.55           6.65           7.00           9.10        -198.78        2497.64           3.03
       799.520         292.02         100.82         108.84           6.62           6.87           8.78        -198.77        2492.43           3.01
       799.560         293.59         102.63         111.90           6.59           6.73           8.48        -198.74        2503.44           2.99
       799.600         296.15         104.32         107.70           6.55           6.61           8.19        -198.71        2509.89           3.16
       799.640         299.40         105.70         100.41           6.51           6.48           7.94        -198.69        2496.96           3.30
       799.680         303.01         106.73         106.57           6.46           6.37           7.72        -198.66        2482.78           3.14
       799.720         306.60         107.42         116.09           6.41           6.27           7.54        -198.64        2489.15           2.90
       799.760         309.85         107.77         111.37           6.35           6.17           7.40        -198.62        2488.15           2.78
       799.800         312.43         107.81         102.95           6.29           6.09           7.29        -198.61        2471.33           2.82
       799.840         314.02         107.63         109.29           6.22           6.01           7.22        -198.60        2473.11           2.96
       799.880         314.49         107.36         116.21           6.15           5.95           7.17        -198.60        2492.22           3.04
       799.920         313.99         107.28         110.78           6.08           5.89           7.15        -198.60        2495.45           3.02
       799.960         312.99         107.40          96.13           6.01           5.84           7.14        -198.61        2486.34           2.93
       800.000         312.08         108.00          91.68           5.95           5.79           7.13        -198.62        2479.74           2.87
       800.040         311.74         109.14         106.17           5.88           5.75           7.13        -198.63        2493.99           2.84
       800.080         312.14         110.74         111.39           5.83           5.71           7.11        -198.64        2552.71           2.81
       800.120         313.06         112.79         113.37           5.78           5.67           7.08        -198.64        2600.93           2.92
       800.160         314.11         115.03         117.10           5.73           5.63           7.04        -198.64        2584.95           3.08
       800.200         314.95         117.28         117.37           5.69           5.60           6.98        -198.63        2549.01           3.09
       800.240         315.44         119.32         117.85           5.65           5.57           6.91        -198.62        2558.96           3.00
