~Version Information
 VERS  .     2.00 : LOG ASCII STANDARD -VERSION 2.0
 WRAP  .     NO   : ONE LINE PER DEPTH STEP
 DLM   .    SPACE : DELIMITING CHARACTER BETWEEN DATA COLUMNS
~Well Information Block
#MNEM  .UNIT        Data Type                  Information
#------.------ ----------------------------- : -------------------------
 STRT  .M           770.040                  : 
 STOP  .M           855.000                  : 
 STEP  .M             0.040                  : 
 NULL  .          -999.2500                  : 
 COMP  .      KI EXPLORATION INC.            : COMPANY
 WELL  .      KI RETLAW 15-6-13-18           : WELL
 FLD   .      RETLAW                         : FIELD
 LOC   .      100/15-06-013-18W4/00          : LOCATION
 PROV  .      Alberta                        : PROVINCE
 SRVC  .      Tucker Wireline Services       : SERVICE COMPANY
 DATE  .      OCT 10 2009                    : LOG DATE
 UWI   .      100150601318W400               : UNIQUE WELL ID
 LIC   .      0412565                        : LICENCE
~Curve Information Block
#MNEM  .UNIT        API CODE                   Curve Description
#------.------ ----------------------------- : -------------------------
 DEPT  .M        00 000 01 00                : Measured Depth
 DT    .US/M     60 520 32 00                : Delta Time
 GR    .GAPI     07 310 01 00                : Gamma Ray
 GRX   .GAPI     07 310 01 00                : Gamma Ray (Hires)
 ILD   .OHMM     07 120 45 00                : Deep Induction Resistivity
 ILM   .OHMM     07 120 44 00                : Medium Induction Resistivity
 SFL   .OHMM     07 220 04 00                : Spherically Focused Resistivity
 SP    .MV       07 010 01 00                : Spontaneous Potential
 RHOB  .KG/M3    45 350 02 00                : Bulk Density
 PE    .B/E      45 358 00 00                : Photoelectric Cross Section
~Parameter Information Section
#MNEM  .UNIT        Value                      Description
#------.------ ----------------------------- : -------------------------
 RUN   .            1                        : Run number
 GL    .M           821.809998               : Ground level elevation
 DREF  .            KB                       : Depth reference
 EREF  .M           826.099976               : Elevation of depth reference
 TDL   .M           1157.0                   : Total depth, logger
 TDD   .M           1157.0                   : Total depth, driller
 CSGL  .M           293.0                    : Casing bottom, logger
 CSGD  .M           293.0                    : Casing bottom, driller
 CSGS  .mm          219.10                   : Casing size
 CSGW  .Kg          219.10                   : Casing weight
 BS    .mm          200.00                   : Bit size
 MUD   .            GEL CHEM                 : Mud type
 MUDD  .kg/m3       1230.000                 : Mud density
 MUDV  .sec         81.000                   : Mud viscosity
 FL    .cc          7.500                    : Fluid loss rate
 PH    .            10.000                   : Mud pH
 MUDS  .            FLOW LINE                : Mud source
 RM    .OHMM        2.100                    : Resistivity of mud
 RMT   .C           12.0                     : Temperature of mud
 RMF   .OHMM        2.500                    : Resistivity of mud filtrate
 RMFT  .C           12.0                     : Temperature of mud filtrate
 RMC   .OHMM        1.900                    : Resistivity of mud cake
 RMCT  .C           12.0                     : Temperature of mud cake
 TMAX  .C           32.0                     : Maximum recorded temperature
 TIMC  .DAY/HR      OCT 10 2009 @ 16:00      : Date/Time circulation stopped
 TIMD  .DAY/HR      OCT 10 2009 @ 21:00      : Date/Time logger tagged bottom
 UNIT  .            TRUCK 134                : Logging unit_number
 BASE  .            MEDICINE HAT             : Home base of logging unit
 ENG   .            M. MacNEIL               : Recording Engineer
 WIT   .            R. BABBITT               : Witnessed by
~Other Information Section
#Run number  1
RUN #1: GRT / CNT / LDT / CST / PIT
LOGGER'S COMMENTS:
1) CALIPERS ORIENTED IN X-Y AXIS.
2) SFL IS ENVIRONMENTALLY CORRECTED USING AVCAL. 
3) NEUTRON POROSITY IS CALIPER CORRECTED USING NCAL.
4) CALIPERS READINGS VERIFIED IN CASING.
5) MUD RESISTIVITIES RECORDED AS MEASURED.
6) CENTRALIZERS DEPLOYED ON TOP AND BOTTOM OF CST.
7) CEMENT VOLUME CALCULATED USING 139.7mm PRODUCTION CASING
DATE AND TIME ON BOTTOM: OCT 10 2009 @ 21:00
TUCKER OPERATORS:
1) L. KNAUS
THANK YOU FOR USING TUCKER WIRELINE SERVICES CANADA.
#DEPT     DT       CALN     CALD     GR       GRX      ILD      ILM      LWTKG    NPDL     NPLS     NPSS     DPDL     DPLS     DPSS     SFL      SP       TT1      TT2      TT3      TT4      DRHO     RHOB     PE       
~TOPS_Definition
 TOPN.        :  Top Name     {S} 
 TOPT.M       :  Top Depth    {F} 
~TOPS_Data | TOPS_Definition
 Kcolorado            435.6  
 Kmed_hat             487.0  
 K2nd_ws              695.6  
 K2ws_ss              716.9  
 Kbfs                 795.0  
 Kbi_ss               825.3  
 Kbsl_colo            945.5  
 Kmannvl              953.0  
 Kglauc_ss            1057.7  
 Kmannvl_L            1094.9  
~Ascii         Log         Data
# ...
       813.240         304.03         112.75         117.18           6.10           6.47           8.29        -198.19        2657.69           2.96
       813.280         303.57         114.18         123.99           6.13           6.47           8.19        -198.18        2666.16           3.40
       813.320         303.32         115.84         116.90           6.17           6.47           8.08        -198.16        2667.17           4.21
       813.360         303.25         117.75         107.57           6.20           6.46           7.97        -198.14        2644.99           5.12
       813.400         303.35         119.73         115.36           6.24           6.46           7.86        -198.14        2611.38           5.32
       813.440         303.66         121.77         125.65           6.28           6.45           7.77        -198.12        2569.70           4.58
       813.480         304.36         123.72         125.63           6.32           6.44           7.70        -198.10        2527.17           3.63
       813.520         305.68         125.48         125.22           6.35           6.44           7.66        -198.08        2499.18           3.05
       813.560         307.75         126.82         128.01           6.39           6.45           7.63        -198.07        2488.62           2.81
       813.600         310.52         127.56         132.61           6.43           6.45           7.62        -198.06        2494.23           2.75
       813.640         313.62         127.57         137.93           6.46           6.47           7.63        -198.05        2503.77           2.71
       813.680         316.51         126.83         138.76           6.49           6.49           7.66        -198.04        2509.64           2.74
       813.720         318.69         125.44         131.66           6.52           6.52           7.70        -198.03        2504.20           2.88
       813.760         319.85         123.54         124.48           6.54           6.55           7.74        -198.03        2493.84           2.91
       813.800         319.98         121.53         118.92           6.56           6.59           7.80        -198.03        2484.33           2.82
       813.840         319.26         119.66         111.96           6.57           6.64           7.85        -198.04        2483.36           2.75
       813.880         317.98         118.14         107.07           6.59           6.69           7.92        -198.04        2489.22           2.81
       813.920         316.44         117.11         105.06           6.60           6.74           8.00        -198.04        2502.03           2.89
       813.960         314.96         116.53         116.21           6.60           6.80           8.09        -198.04        2519.22           2.80
       814.000         313.74         116.23         129.13           6.61           6.85           8.20        -198.03        2524.86           2.66
       814.040         312.89         116.11         123.65           6.61           6.90           8.32        -198.01        2516.44           2.62
       814.080         312.30         116.00         108.26           6.61           6.96           8.45        -198.00        2507.50           2.61
       814.120         311.76         115.76         108.84           6.60           7.00           8.59        -197.99        2502.28           2.55
       814.160         311.02         115.28         116.17           6.60           7.04           8.74        -197.99        2498.80           2.53
       814.200         309.87         114.55         122.77           6.59           7.07           8.89        -197.99        2488.12           2.71
       814.240         308.27         113.55         124.84           6.59           7.09           9.03        -198.00        2485.06           2.93
       814.280         306.28         112.35         113.01           6.59           7.10           9.15        -198.01        2490.25           2.93
       814.320         304.12         111.10         106.80           6.58           7.10           9.25        -198.03        2497.60           2.82
       814.360         302.03         109.97         108.51           6.58           7.08           9.32        -198.05        2495.45           2.71
       814.400         300.33         109.31         105.09           6.58           7.05           9.35        -198.06        2492.71           2.64
       814.440         299.27         109.22          98.19           6.58           7.00           9.34        -198.08        2500.00           2.62
       814.480         298.99         109.82          99.99           6.58           6.95           9.28        -198.09        2521.51           2.60
       814.520         299.51         111.13         107.63           6.57           6.88           9.18        -198.10        2551.10           2.53
       814.560         300.62         113.11         114.24           6.57           6.81           9.03        -198.10        2559.10           2.57
       814.600         302.00         115.55         114.51           6.57           6.74           8.84        -198.09        2537.99           2.80
       814.640         303.32         118.32         114.67           6.56           6.66           8.63        -198.08        2515.07           3.03
       814.680         304.37         121.22         123.22           6.55           6.58           8.41        -198.06        2499.78           3.29
       814.720         305.12         124.07         130.46           6.54           6.51           8.20        -198.03        2479.98           3.66
       814.760         305.73         126.81         126.63           6.53           6.44           8.00        -198.01        2453.28           3.65
       814.800         306.48         129.31         124.55           6.51           6.37           7.81        -197.98        2434.96           3.25
       814.840         307.67         131.43         132.89           6.48           6.31           7.66        -197.95        2439.87           2.94
       814.880         309.49         133.08         140.71           6.46           6.26           7.53        -197.92        2465.51           2.82
       814.920         311.93         134.21         144.71           6.42           6.21           7.43        -197.89        2488.75           2.84
       814.960         314.78         134.82         140.18           6.38           6.17           7.37        -197.87        2500.92           2.92
       815.000         317.63         134.92         131.61           6.34           6.14           7.32        -197.83        2511.76           2.85
       815.040         320.02         134.62         133.79           6.30           6.11           7.30        -197.79        2515.96           2.74
       815.080         321.63         134.01         138.09           6.25           6.09           7.30        -197.77        2508.40           2.74
       815.120         322.35         133.22         136.00           6.21           6.07           7.31        -197.74        2509.01           2.78
       815.160         322.36         132.48         130.66           6.16           6.05           7.33        -197.71        2505.69           2.88
       815.200         321.95         131.79         125.72           6.12           6.03           7.35        -197.68        2509.06           2.91
       815.240         321.39         131.27         129.36           6.08           6.01           7.37        -197.66        2520.36           2.86
       815.280         320.88         130.99         133.98           6.04           6.00           7.39        -197.64        2520.70           2.86
       815.320         320.48         130.98         129.37           6.01           5.98           7.40        -197.62        2513.50           2.79
       815.360         320.22         131.18         121.94           5.99           5.96           7.40        -197.63        2496.88           2.70
