~Version Information
 VERS  .     2.00 : LOG ASCII STANDARD -VERSION 2.0
 WRAP  .     NO   : ONE LINE PER DEPTH STEP
 DLM   .    SPACE : DELIMITING CHARACTER BETWEEN DATA COLUMNS
~Well Information Block
#MNEM  .UNIT        Data Type                  Information
#------.------ ----------------------------- : -------------------------
 STRT  .M           770.040                  : 
 STOP  .M           855.000                  : 
 STEP  .M             0.040                  : 
 NULL  .          -999.2500                  : 
 COMP  .      KI EXPLORATION INC.            : COMPANY
 WELL  .      KI RETLAW 15-6-13-18           : WELL
 FLD   .      RETLAW                         : FIELD
 LOC   .      100/15-06-013-18W4/00          : LOCATION
 PROV  .      Alberta                        : PROVINCE
 SRVC  .      Tucker Wireline Services       : SERVICE COMPANY
 DATE  .      OCT 10 2009                    : LOG DATE
 UWI   .      100150601318W400               : UNIQUE WELL ID
 LIC   .      0412565                        : LICENCE
~Curve Information Block
#MNEM  .UNIT        API CODE                   Curve Description
#------.------ ----------------------------- : -------------------------
 DEPT  .M        00 000 01 00                : Measured Depth
 DT    .US/M     60 520 32 00                : Delta Time
 GR    .GAPI     07 310 01 00                : Gamma Ray
 GRX   .GAPI     07 310 01 00                : Gamma Ray (Hires)
 ILD   .OHMM     07 120 45 00                : Deep Induction Resistivity
 ILM   .OHMM     07 120 44 00                : Medium Induction Resistivity
 SFL   .OHMM     07 220 04 00                : Spherically Focused Resistivity
 SP    .MV       07 010 01 00                : Spontaneous Potential
 RHOB  .KG/M3    45 350 02 00                : Bulk Density
 PE    .B/E      45 358 00 00                : Photoelectric Cross Section
~Parameter Information Section
#MNEM  .UNIT        Value                      Description
#------.------ ----------------------------- : -------------------------
 RUN   .            1                        : Run number
 GL    .M           821.809998               : Ground level elevation
 DREF  .            KB                       : Depth reference
 EREF  .M           826.099976               : Elevation of depth reference
 TDL   .M           1157.0                   : Total depth, logger
 TDD   .M           1157.0                   : Total depth, driller
 CSGL  .M           293.0                    : Casing bottom, logger
 CSGD  .M           293.0                    : Casing bottom, driller
 CSGS  .mm          219.10                   : Casing size
 CSGW  .Kg          219.10                   : Casing weight
 BS    .mm          200.00                   : Bit size
 MUD   .            GEL CHEM                 : Mud type
 MUDD  .kg/m3       1230.000                 : Mud density
 MUDV  .sec         81.000                   : Mud viscosity
 FL    .cc          7.500                    : Fluid loss rate
 PH    .            10.000                   : Mud pH
 MUDS  .            FLOW LINE                : Mud source
 RM    .OHMM        2.100                    : Resistivity of mud
 RMT   .C           12.0                     : Temperature of mud
 RMF   .OHMM        2.500                    : Resistivity of mud filtrate
 RMFT  .C           12.0                     : Temperature of mud filtrate
 RMC   .OHMM        1.900                    : Resistivity of mud cake
 RMCT  .C           12.0                     : Temperature of mud cake
 TMAX  .C           32.0                     : Maximum recorded temperature
 TIMC  .DAY/HR      OCT 10 2009 @ 16:00      : Date/Time circulation stopped
 TIMD  .DAY/HR      OCT 10 2009 @ 21:00      : Date/Time logger tagged bottom
 UNIT  .            TRUCK 134                : Logging unit_number
 BASE  .            MEDICINE HAT             : Home base of logging unit
 ENG   .            M. MacNEIL               : Recording Engineer
 WIT   .            R. BABBITT               : Witnessed by
~Other Information Section
#Run number  1
RUN #1: GRT / CNT / LDT / CST / PIT
LOGGER'S COMMENTS:
1) CALIPERS ORIENTED IN X-Y AXIS.
2) SFL IS ENVIRONMENTALLY CORRECTED USING AVCAL. 
3) NEUTRON POROSITY IS CALIPER CORRECTED USING NCAL.
4) CALIPERS READINGS VERIFIED IN CASING.
5) MUD RESISTIVITIES RECORDED AS MEASURED.
6) CENTRALIZERS DEPLOYED ON TOP AND BOTTOM OF CST.
7) CEMENT VOLUME CALCULATED USING 139.7mm PRODUCTION CASING
DATE AND TIME ON BOTTOM: OCT 10 2009 @ 21:00
TUCKER OPERATORS:
1) L. KNAUS
THANK YOU FOR USING TUCKER WIRELINE SERVICES CANADA.
#DEPT     DT       CALN     CALD     GR       GRX      ILD      ILM      LWTKG    NPDL     NPLS     NPSS     DPDL     DPLS     DPSS     SFL      SP       TT1      TT2      TT3      TT4      DRHO     RHOB     PE       
~TOPS_Definition
 TOPN.        :  Top Name     {S} 
 TOPT.M       :  Top Depth    {F} 
~TOPS_Data | TOPS_Definition
 Kcolorado            435.6  
 Kmed_hat             487.0  
 K2nd_ws              695.6  
 K2ws_ss              716.9  
 Kbfs                 795.0  
 Kbi_ss               825.3  
 Kbsl_colo            945.5  
 Kmannvl              953.0  
 Kglauc_ss            1057.7  
 Kmannvl_L            1094.9  
~Ascii         Log         Data
# ...
       824.040         313.15         116.35         121.74           4.07           3.93           4.60        -195.55        2393.86           2.49
       824.080         314.76         116.81         113.73           3.97           3.83           4.51        -195.54        2391.52           2.52
       824.120         316.14         117.77         102.29           3.88           3.72           4.43        -195.55        2390.02           2.57
       824.160         317.45         119.26         111.31           3.80           3.62           4.34        -195.56        2390.42           2.53
       824.200         318.82         121.18         125.63           3.73           3.51           4.26        -195.57        2383.60           2.49
       824.240         320.35         123.53         130.92           3.67           3.42           4.17        -195.59        2368.66           2.57
       824.280         322.09         126.13         127.95           3.62           3.32           4.07        -195.62        2357.60           2.69
       824.320         324.15         128.94         120.70           3.59           3.23           3.96        -195.66        2358.70           2.68
       824.360         326.77         132.03         127.99           3.57           3.15           3.85        -195.70        2365.41           2.62
       824.400         330.34         135.51         139.90           3.56           3.07           3.72        -195.75        2361.00           2.55
       824.440         335.24         139.47         138.34           3.56           3.01           3.59        -195.80        2345.47           2.51
       824.480         341.60         143.89         129.79           3.57           2.96           3.46        -195.86        2333.19           2.55
       824.520         349.17         148.79         141.68           3.59           2.92           3.34        -195.92        2323.65           2.65
       824.560         357.25         154.06         155.97           3.62           2.90           3.23        -195.99        2320.22           2.71
       824.600         364.78         159.50         160.44           3.66           2.89           3.16        -196.06        2313.37           2.67
       824.640         370.65         164.69         163.86           3.70           2.90           3.13        -196.14        2287.52           2.64
       824.680         373.99         169.29         175.11           3.75           2.92           3.17        -196.22        2248.05           2.69
       824.720         374.52         172.79         184.67           3.80           2.97           3.29        -196.31        2221.62           2.67
       824.760         372.59         174.73         185.81           3.85           3.04           3.49        -196.39        2200.76           2.59
       824.800         368.97         174.83         189.32           3.91           3.13           3.79        -196.47        2174.35           2.55
       824.840         364.51         172.78         194.67           3.98           3.25           4.18        -196.54        2156.54           2.52
       824.880         359.75         168.57         190.29           4.05           3.39           4.66        -196.62        2181.09           2.50
       824.920         354.86         162.39         175.75           4.12           3.56           5.22        -196.68        2239.81           2.47
       824.960         349.74         154.82         160.82           4.21           3.77           5.85        -196.74        2291.76           2.45
       825.000         344.17         146.35         145.69           4.29           4.01           6.52        -196.79        2338.85           2.42
       825.040         337.99         137.63         127.70           4.38           4.29           7.19        -196.83        2393.29           2.32
       825.080         331.12         129.39         117.29           4.49           4.60           7.83        -196.86        2441.27           2.21
       825.120         323.51         122.07         112.45           4.61           4.96           8.42        -196.89        2479.59           2.19
       825.160         315.11         115.94         104.60           4.75           5.35           8.93        -196.91        2514.37           2.24
       825.200         305.89         111.09          98.52           4.90           5.77           9.37        -196.93        2526.06           2.26
       825.240         296.06         107.47          99.79           5.08           6.22           9.74        -196.95        2507.45           2.28
       825.280         286.12         104.78         104.45           5.29           6.70          10.05        -196.97        2482.29           2.36
       825.320         276.86         102.72         104.09           5.51           7.19          10.33        -196.99        2470.61           2.39
       825.360         269.15         100.98         101.11           5.75           7.69          10.61        -197.03        2476.53           2.38
       825.400         263.56          99.30         101.59           6.02           8.19          10.90        -197.07        2494.37           2.40
       825.440         260.19          97.48         102.24           6.32           8.68          11.22        -197.12        2497.72           2.45
       825.480         258.53          95.36          97.86           6.65           9.16          11.57        -197.18        2484.58           2.49
       825.520         257.82          92.99          97.09           7.00           9.62          11.96        -197.26        2480.30           2.49
       825.560         257.37          90.35          90.94           7.36          10.04          12.38        -197.35        2491.87           2.47
       825.600         256.82          87.51          83.82           7.73          10.43          12.80        -197.45        2501.84           2.47
       825.640         256.13          84.65          83.39           8.10          10.79          13.20        -197.56        2496.61           2.55
       825.680         255.42          81.89          86.18           8.48          11.10          13.55        -197.68        2477.59           2.67
       825.720         254.83          79.51          82.13           8.85          11.38          13.84        -197.80        2473.43           2.71
       825.760         254.42          77.73          72.19           9.20          11.61          14.04        -197.92        2481.21           2.68
       825.800         254.18          76.76          64.31           9.52          11.79          14.14        -198.03        2484.83           2.56
       825.840         254.07          76.80          62.35           9.80          11.92          14.13        -198.13        2482.27           2.50
       825.880         254.03          77.84          65.06          10.03          12.01          14.03        -198.21        2481.78           2.48
       825.920         253.98          79.69          73.25          10.21          12.06          13.84        -198.27        2490.11           2.35
       825.960         253.86          82.14          83.55          10.35          12.07          13.59        -198.31        2500.75           2.17
       826.000         253.66          84.72          91.82          10.45          12.04          13.32        -198.33        2507.71           2.17
       826.040         253.50          87.16          98.59          10.51          11.99          13.03        -198.35        2503.56           2.28
       826.080         253.63          89.21          98.63          10.52          11.91          12.76        -198.36        2487.00           2.49
       826.120         254.35          90.75          91.09          10.50          11.82          12.51        -198.35        2476.36           2.62
       826.160         255.86          91.80          89.64          10.44          11.71          12.30        -198.33        2488.71           2.55
