~Version Information
 VERS  .     2.00 : LOG ASCII STANDARD -VERSION 2.0
 WRAP  .     NO   : ONE LINE PER DEPTH STEP
 DLM   .    SPACE : DELIMITING CHARACTER BETWEEN DATA COLUMNS
~Well Information Block
#MNEM  .UNIT        Data Type                  Information
#------.------ ----------------------------- : -------------------------
 STRT  .M           770.040                  : 
 STOP  .M           855.000                  : 
 STEP  .M             0.040                  : 
 NULL  .          -999.2500                  : 
 COMP  .      KI EXPLORATION INC.            : COMPANY
 WELL  .      KI RETLAW 15-6-13-18           : WELL
 FLD   .      RETLAW                         : FIELD
 LOC   .      100/15-06-013-18W4/00          : LOCATION
 PROV  .      Alberta                        : PROVINCE
 SRVC  .      Tucker Wireline Services       : SERVICE COMPANY
 DATE  .      OCT 10 2009                    : LOG DATE
 UWI   .      100150601318W400               : UNIQUE WELL ID
 LIC   .      0412565                        : LICENCE
~Curve Information Block
#MNEM  .UNIT        API CODE                   Curve Description
#------.------ ----------------------------- : -------------------------
 DEPT  .M        00 000 01 00                : Measured Depth
 DT    .US/M     60 520 32 00                : Delta Time
 GR    .GAPI     07 310 01 00                : Gamma Ray
 GRX   .GAPI     07 310 01 00                : Gamma Ray (Hires)
 ILD   .OHMM     07 120 45 00                : Deep Induction Resistivity
 ILM   .OHMM     07 120 44 00                : Medium Induction Resistivity
 SFL   .OHMM     07 220 04 00                : Spherically Focused Resistivity
 SP    .MV       07 010 01 00                : Spontaneous Potential
 RHOB  .KG/M3    45 350 02 00                : Bulk Density
 PE    .B/E      45 358 00 00                : Photoelectric Cross Section
~Parameter Information Section
#MNEM  .UNIT        Value                      Description
#------.------ ----------------------------- : -------------------------
 RUN   .            1                        : Run number
 GL    .M           821.809998               : Ground level elevation
 DREF  .            KB                       : Depth reference
 EREF  .M           826.099976               : Elevation of depth reference
 TDL   .M           1157.0                   : Total depth, logger
 TDD   .M           1157.0                   : Total depth, driller
 CSGL  .M           293.0                    : Casing bottom, logger
 CSGD  .M           293.0                    : Casing bottom, driller
 CSGS  .mm          219.10                   : Casing size
 CSGW  .Kg          219.10                   : Casing weight
 BS    .mm          200.00                   : Bit size
 MUD   .            GEL CHEM                 : Mud type
 MUDD  .kg/m3       1230.000                 : Mud density
 MUDV  .sec         81.000                   : Mud viscosity
 FL    .cc          7.500                    : Fluid loss rate
 PH    .            10.000                   : Mud pH
 MUDS  .            FLOW LINE                : Mud source
 RM    .OHMM        2.100                    : Resistivity of mud
 RMT   .C           12.0                     : Temperature of mud
 RMF   .OHMM        2.500                    : Resistivity of mud filtrate
 RMFT  .C           12.0                     : Temperature of mud filtrate
 RMC   .OHMM        1.900                    : Resistivity of mud cake
 RMCT  .C           12.0                     : Temperature of mud cake
 TMAX  .C           32.0                     : Maximum recorded temperature
 TIMC  .DAY/HR      OCT 10 2009 @ 16:00      : Date/Time circulation stopped
 TIMD  .DAY/HR      OCT 10 2009 @ 21:00      : Date/Time logger tagged bottom
 UNIT  .            TRUCK 134                : Logging unit_number
 BASE  .            MEDICINE HAT             : Home base of logging unit
 ENG   .            M. MacNEIL               : Recording Engineer
 WIT   .            R. BABBITT               : Witnessed by
~Other Information Section
#Run number  1
RUN #1: GRT / CNT / LDT / CST / PIT
LOGGER'S COMMENTS:
1) CALIPERS ORIENTED IN X-Y AXIS.
2) SFL IS ENVIRONMENTALLY CORRECTED USING AVCAL. 
3) NEUTRON POROSITY IS CALIPER CORRECTED USING NCAL.
4) CALIPERS READINGS VERIFIED IN CASING.
5) MUD RESISTIVITIES RECORDED AS MEASURED.
6) CENTRALIZERS DEPLOYED ON TOP AND BOTTOM OF CST.
7) CEMENT VOLUME CALCULATED USING 139.7mm PRODUCTION CASING
DATE AND TIME ON BOTTOM: OCT 10 2009 @ 21:00
TUCKER OPERATORS:
1) L. KNAUS
THANK YOU FOR USING TUCKER WIRELINE SERVICES CANADA.
#DEPT     DT       CALN     CALD     GR       GRX      ILD      ILM      LWTKG    NPDL     NPLS     NPSS     DPDL     DPLS     DPSS     SFL      SP       TT1      TT2      TT3      TT4      DRHO     RHOB     PE       
~TOPS_Definition
 TOPN.        :  Top Name     {S} 
 TOPT.M       :  Top Depth    {F} 
~TOPS_Data | TOPS_Definition
 Kcolorado            435.6  
 Kmed_hat             487.0  
 K2nd_ws              695.6  
 K2ws_ss              716.9  
 Kbfs                 795.0  
 Kbi_ss               825.3  
 Kbsl_colo            945.5  
 Kmannvl              953.0  
 Kglauc_ss            1057.7  
 Kmannvl_L            1094.9  
~Ascii         Log         Data
# ...
       791.640         299.58         179.34         173.10          13.42          13.49          21.31        -198.22        2460.32           2.76
       791.680         296.90         174.03         167.34          13.55          14.31          23.01        -198.28        2471.12           2.76
       791.720         294.25         169.57         159.54          13.69          15.22          24.57        -198.34        2496.40           2.84
       791.760         291.42         166.18         151.06          13.85          16.19          25.94        -198.39        2529.69           2.91
       791.800         288.23         163.99         147.64          14.02          17.21          27.09        -198.43        2546.10           2.97
       791.840         284.62         162.83         154.81          14.23          18.25          28.01        -198.46        2524.56           3.03
       791.880         280.72         162.38         166.59          14.45          19.26          28.71        -198.48        2503.07           3.09
       791.920         276.86         162.17         171.20          14.71          20.22          29.23        -198.49        2505.29           3.09
       791.960         273.45         161.93         166.48          14.99          21.07          29.58        -198.51        2512.43           2.99
       792.000         270.87         161.34         167.65          15.29          21.79          29.80        -198.52        2508.28           2.89
       792.040         269.26         160.37         168.38          15.60          22.36          29.93        -198.54        2507.78           2.85
       792.080         268.58         159.23         165.23          15.92          22.78          29.98        -198.58        2521.09           2.77
       792.120         268.60         158.16         154.52          16.24          23.04          29.98        -198.62        2526.90           2.75
       792.160         269.02         157.43         139.88          16.57          23.14          29.90        -198.65        2526.74           2.77
       792.200         269.57         157.21         140.49          16.89          23.11          29.76        -198.68        2525.22           2.85
       792.240         270.09         157.55         153.71          17.19          22.95          29.55        -198.70        2520.77           2.95
       792.280         270.52         158.43         163.75          17.45          22.70          29.24        -198.72        2519.71           2.95
       792.320         270.87         159.50         161.97          17.66          22.36          28.83        -198.73        2517.44           2.95
       792.360         271.24         160.61         164.78          17.84          21.98          28.30        -198.72        2521.05           2.94
       792.400         271.67         161.59         173.32          17.97          21.55          27.67        -198.71        2531.10           2.81
       792.440         272.16         162.37         167.15          18.04          21.11          26.95        -198.68        2531.36           2.75
       792.480         272.71         163.02         151.85          18.06          20.65          26.16        -198.64        2518.99           2.81
       792.520         273.33         163.60         150.77          18.04          20.21          25.33        -198.59        2509.00           2.81
       792.560         274.03         164.07         169.07          17.99          19.77          24.48        -198.53        2504.10           2.78
       792.600         274.88         164.38         175.46          17.89          19.36          23.64        -198.47        2507.65           2.84
       792.640         275.93         164.68         165.03          17.77          18.99          22.83        -198.41        2515.89           2.99
       792.680         277.21         164.72         160.70          17.63          18.65          22.10        -198.35        2512.99           3.13
       792.720         278.69         164.54         169.59          17.46          18.37          21.45        -198.29        2507.45           3.18
       792.760         280.27         164.14         170.34          17.26          18.13          20.92        -198.24        2515.54           3.14
       792.800         281.80         163.67         166.55          17.05          17.95          20.53        -198.19        2526.51           2.98
       792.840         283.10         163.28         156.85          16.85          17.81          20.28        -198.15        2534.66           2.82
       792.880         284.02         163.01         150.08          16.65          17.73          20.20        -198.11        2532.39           2.78
       792.920         284.55         162.89         163.45          16.44          17.69          20.27        -198.07        2526.89           2.81
       792.960         284.70         162.99         172.59          16.25          17.70          20.48        -198.04        2528.92           2.76
       793.000         284.53         163.21         159.66          16.08          17.74          20.81        -198.00        2523.03           2.73
       793.040         284.11         163.44         151.57          15.92          17.82          21.22        -197.97        2512.20           2.83
       793.080         283.51         163.53         169.09          15.80          17.92          21.68        -197.95        2508.28           2.97
       793.120         282.83         163.51         180.28          15.69          18.03          22.15        -197.92        2513.39           2.99
       793.160         282.21         163.33         172.35          15.59          18.16          22.58        -197.90        2516.96           3.01
       793.200         281.73         163.07         152.80          15.50          18.28          22.93        -197.88        2515.45           3.06
       793.240         281.42         162.87         144.37          15.43          18.41          23.20        -197.86        2510.63           3.08
       793.280         281.22         162.63         159.65          15.38          18.52          23.35        -197.85        2500.00           3.20
       793.320         281.05         162.49         175.26          15.34          18.62          23.40        -197.83        2496.46           3.30
       793.360         280.83         162.42         172.29          15.29          18.71          23.37        -197.82        2503.44           3.15
       793.400         280.58         162.47         160.90          15.25          18.78          23.30        -197.81        2505.51           2.97
       793.440         280.32         162.67         153.80          15.22          18.84          23.20        -197.80        2493.50           3.04
       793.480         280.09         163.17         160.62          15.18          18.87          23.12        -197.80        2479.72           3.22
       793.520         279.86         163.97         163.67          15.14          18.90          23.08        -197.79        2478.70           3.17
       793.560         279.61         165.05         156.14          15.11          18.91          23.09        -197.78        2473.26           3.08
       793.600         279.33         166.25         150.21          15.07          18.90          23.17        -197.77        2466.95           3.06
       793.640         279.06         167.18         170.83          15.02          18.88          23.30        -197.77        2472.19           3.05
       793.680         278.91         167.66         192.29          14.95          18.84          23.48        -197.77        2476.45           3.18
       793.720         278.91         167.45         193.41          14.88          18.78          23.68        -197.77        2473.17           3.27
       793.760         279.07         166.66         175.59          14.81          18.70          23.88        -197.78        2482.52           3.20
