~Version Information
 VERS  .     2.00 : LOG ASCII STANDARD -VERSION 2.0
 WRAP  .     NO   : ONE LINE PER DEPTH STEP
 DLM   .    SPACE : DELIMITING CHARACTER BETWEEN DATA COLUMNS
~Well Information Block
#MNEM  .UNIT        Data Type                  Information
#------.------ ----------------------------- : -------------------------
 STRT  .M           770.040                  : 
 STOP  .M           855.000                  : 
 STEP  .M             0.040                  : 
 NULL  .          -999.2500                  : 
 COMP  .      KI EXPLORATION INC.            : COMPANY
 WELL  .      KI RETLAW 15-6-13-18           : WELL
 FLD   .      RETLAW                         : FIELD
 LOC   .      100/15-06-013-18W4/00          : LOCATION
 PROV  .      Alberta                        : PROVINCE
 SRVC  .      Tucker Wireline Services       : SERVICE COMPANY
 DATE  .      OCT 10 2009                    : LOG DATE
 UWI   .      100150601318W400               : UNIQUE WELL ID
 LIC   .      0412565                        : LICENCE
~Curve Information Block
#MNEM  .UNIT        API CODE                   Curve Description
#------.------ ----------------------------- : -------------------------
 DEPT  .M        00 000 01 00                : Measured Depth
 DT    .US/M     60 520 32 00                : Delta Time
 GR    .GAPI     07 310 01 00                : Gamma Ray
 GRX   .GAPI     07 310 01 00                : Gamma Ray (Hires)
 ILD   .OHMM     07 120 45 00                : Deep Induction Resistivity
 ILM   .OHMM     07 120 44 00                : Medium Induction Resistivity
 SFL   .OHMM     07 220 04 00                : Spherically Focused Resistivity
 SP    .MV       07 010 01 00                : Spontaneous Potential
 RHOB  .KG/M3    45 350 02 00                : Bulk Density
 PE    .B/E      45 358 00 00                : Photoelectric Cross Section
~Parameter Information Section
#MNEM  .UNIT        Value                      Description
#------.------ ----------------------------- : -------------------------
 RUN   .            1                        : Run number
 GL    .M           821.809998               : Ground level elevation
 DREF  .            KB                       : Depth reference
 EREF  .M           826.099976               : Elevation of depth reference
 TDL   .M           1157.0                   : Total depth, logger
 TDD   .M           1157.0                   : Total depth, driller
 CSGL  .M           293.0                    : Casing bottom, logger
 CSGD  .M           293.0                    : Casing bottom, driller
 CSGS  .mm          219.10                   : Casing size
 CSGW  .Kg          219.10                   : Casing weight
 BS    .mm          200.00                   : Bit size
 MUD   .            GEL CHEM                 : Mud type
 MUDD  .kg/m3       1230.000                 : Mud density
 MUDV  .sec         81.000                   : Mud viscosity
 FL    .cc          7.500                    : Fluid loss rate
 PH    .            10.000                   : Mud pH
 MUDS  .            FLOW LINE                : Mud source
 RM    .OHMM        2.100                    : Resistivity of mud
 RMT   .C           12.0                     : Temperature of mud
 RMF   .OHMM        2.500                    : Resistivity of mud filtrate
 RMFT  .C           12.0                     : Temperature of mud filtrate
 RMC   .OHMM        1.900                    : Resistivity of mud cake
 RMCT  .C           12.0                     : Temperature of mud cake
 TMAX  .C           32.0                     : Maximum recorded temperature
 TIMC  .DAY/HR      OCT 10 2009 @ 16:00      : Date/Time circulation stopped
 TIMD  .DAY/HR      OCT 10 2009 @ 21:00      : Date/Time logger tagged bottom
 UNIT  .            TRUCK 134                : Logging unit_number
 BASE  .            MEDICINE HAT             : Home base of logging unit
 ENG   .            M. MacNEIL               : Recording Engineer
 WIT   .            R. BABBITT               : Witnessed by
~Other Information Section
#Run number  1
RUN #1: GRT / CNT / LDT / CST / PIT
LOGGER'S COMMENTS:
1) CALIPERS ORIENTED IN X-Y AXIS.
2) SFL IS ENVIRONMENTALLY CORRECTED USING AVCAL. 
3) NEUTRON POROSITY IS CALIPER CORRECTED USING NCAL.
4) CALIPERS READINGS VERIFIED IN CASING.
5) MUD RESISTIVITIES RECORDED AS MEASURED.
6) CENTRALIZERS DEPLOYED ON TOP AND BOTTOM OF CST.
7) CEMENT VOLUME CALCULATED USING 139.7mm PRODUCTION CASING
DATE AND TIME ON BOTTOM: OCT 10 2009 @ 21:00
TUCKER OPERATORS:
1) L. KNAUS
THANK YOU FOR USING TUCKER WIRELINE SERVICES CANADA.
#DEPT     DT       CALN     CALD     GR       GRX      ILD      ILM      LWTKG    NPDL     NPLS     NPSS     DPDL     DPLS     DPSS     SFL      SP       TT1      TT2      TT3      TT4      DRHO     RHOB     PE       
~TOPS_Definition
 TOPN.        :  Top Name     {S} 
 TOPT.M       :  Top Depth    {F} 
~TOPS_Data | TOPS_Definition
 Kcolorado            435.6  
 Kmed_hat             487.0  
 K2nd_ws              695.6  
 K2ws_ss              716.9  
 Kbfs                 795.0  
 Kbi_ss               825.3  
 Kbsl_colo            945.5  
 Kmannvl              953.0  
 Kglauc_ss            1057.7  
 Kmannvl_L            1094.9  
~Ascii         Log         Data
# ...
       841.320         286.77          78.11          66.79           9.95          10.92          13.04        -215.78        2396.11           2.37
       841.360         286.02          78.25          71.72           9.95          10.95          13.15        -215.63        2406.50           2.37
       841.400         285.36          78.51          85.13           9.93          10.96          13.26        -215.55        2402.78           2.48
       841.440         284.78          78.87          86.70           9.90          10.96          13.36        -215.54        2397.28           2.62
       841.480         284.22          79.27          80.71           9.86          10.94          13.44        -215.59        2404.25           2.70
       841.520         283.65          79.71          75.05           9.81          10.90          13.51        -215.73        2404.68           2.70
       841.560         283.06          80.10          74.74           9.74          10.83          13.57        -215.96        2395.63           2.57
       841.600         282.48          80.45          82.74           9.67          10.74          13.59        -216.29        2389.89           2.49
       841.640         281.90          80.76          86.15           9.60          10.63          13.59        -216.70        2386.64           2.55
       841.680         281.30          80.97          79.81           9.52          10.49          13.55        -217.22        2381.47           2.59
       841.720         280.69          80.97          75.28           9.43          10.34          13.48        -217.83        2384.81           2.60
       841.760         280.12          80.68          82.47           9.33          10.16          13.37        -218.55        2395.66           2.58
       841.800         279.70          80.06          92.80           9.24           9.97          13.23        -219.39        2402.60           2.49
       841.840         279.56          79.04          89.22           9.14           9.76          13.05        -220.35        2403.09           2.43
       841.880         279.77          77.59          74.72           9.05           9.55          12.86        -221.41        2413.50           2.43
       841.920         280.29          75.80          66.59           8.96           9.33          12.65        -222.58        2419.75           2.60
       841.960         281.03          73.66          73.50           8.87           9.11          12.45        -223.81        2401.56           3.00
       842.000         281.84          71.22          79.69           8.78           8.90          12.25        -225.07        2372.67           3.43
       842.040         282.58          68.55          76.55           8.69           8.70          12.08        -226.32        2352.83           3.34
       842.080         283.24          65.74          67.61           8.59           8.52          11.93        -227.50        2335.31           2.85
       842.120         283.82          62.97          59.18           8.50           8.34          11.82        -228.61        2310.65           2.49
       842.160         284.42          60.39          56.49           8.41           8.18          11.74        -229.61        2297.49           2.34
       842.200         285.09          58.22          53.48           8.32           8.04          11.70        -230.50        2291.64           2.30
       842.240         285.85          56.60          48.38           8.23           7.91          11.68        -231.28        2288.86           2.19
       842.280         286.65          55.53          45.99           8.14           7.80          11.68        -231.94        2291.65           2.09
       842.320         287.41          54.94          50.63           8.05           7.70          11.70        -232.50        2296.55           2.07
       842.360         288.03          54.67          58.49           7.97           7.62          11.73        -232.97        2308.67           2.08
       842.400         288.46          54.52          63.42           7.89           7.55          11.75        -233.37        2328.22           2.08
       842.440         288.69          54.32          57.66           7.82           7.50          11.77        -233.72        2340.17           2.06
       842.480         288.75          53.94          49.40           7.75           7.45          11.78        -234.03        2348.77           2.05
       842.520         288.65          53.31          53.70           7.69           7.42          11.78        -234.31        2349.73           2.09
       842.560         288.46          52.50          59.97           7.64           7.40          11.77        -234.60        2346.50           2.09
       842.600         288.22          51.55          55.60           7.61           7.38          11.74        -234.87        2347.17           2.01
       842.640         288.02          50.60          44.59           7.58           7.37          11.72        -235.14        2351.66           1.97
       842.680         287.89          49.73          42.31           7.56           7.37          11.69        -235.39        2349.12           2.04
       842.720         287.86          49.03          48.46           7.54           7.38          11.66        -235.61        2337.43           2.11
       842.760         287.90          48.54          52.86           7.54           7.39          11.64        -235.81        2321.91           2.09
       842.800         287.99          48.27          46.85           7.54           7.40          11.62        -235.97        2313.21           2.07
       842.840         288.10          48.17          39.44           7.56           7.42          11.61        -236.08        2313.11           2.08
       842.880         288.22          48.14          46.19           7.58           7.44          11.62        -236.17        2317.19           2.06
       842.920         288.34          48.14          55.03           7.60           7.47          11.64        -236.21        2317.99           2.05
       842.960         288.41          48.08          55.05           7.63           7.50          11.67        -236.22        2311.45           2.03
       843.000         288.40          47.94          48.83           7.67           7.54          11.72        -236.20        2314.35           1.98
       843.040         288.30          47.70          42.01           7.71           7.58          11.77        -236.14        2321.70           2.00
       843.080         288.12          47.39          45.03           7.75           7.63          11.83        -236.04        2319.70           2.10
       843.120         287.92          47.12          50.68           7.80           7.68          11.90        -235.90        2312.71           2.10
       843.160         287.70          46.90          49.45           7.86           7.74          11.97        -235.73        2304.85           2.03
       843.200         287.46          46.81          43.27           7.91           7.81          12.05        -235.51        2292.86           2.00
       843.240         287.20          46.86          42.63           7.96           7.88          12.12        -235.26        2280.87           2.06
       843.280         286.88          47.05          44.74           8.02           7.96          12.20        -234.98        2288.37           2.09
       843.320         286.50          47.38          47.57           8.07           8.05          12.28        -234.66        2317.15           2.08
       843.360         286.06          47.77          48.58           8.13           8.14          12.37        -234.31        2335.64           2.03
       843.400         285.66          48.17          48.35           8.19           8.24          12.46        -233.92        2339.65           2.06
       843.440         285.38          48.55          51.87           8.24           8.36          12.57        -233.51        2343.43           2.14
