~Version Information
 VERS  .     2.00 : LOG ASCII STANDARD -VERSION 2.0
 WRAP  .     NO   : ONE LINE PER DEPTH STEP
 DLM   .    SPACE : DELIMITING CHARACTER BETWEEN DATA COLUMNS
~Well Information Block
#MNEM  .UNIT        Data Type                  Information
#------.------ ----------------------------- : -------------------------
 STRT  .M           770.040                  : 
 STOP  .M           855.000                  : 
 STEP  .M             0.040                  : 
 NULL  .          -999.2500                  : 
 COMP  .      KI EXPLORATION INC.            : COMPANY
 WELL  .      KI RETLAW 15-6-13-18           : WELL
 FLD   .      RETLAW                         : FIELD
 LOC   .      100/15-06-013-18W4/00          : LOCATION
 PROV  .      Alberta                        : PROVINCE
 SRVC  .      Tucker Wireline Services       : SERVICE COMPANY
 DATE  .      OCT 10 2009                    : LOG DATE
 UWI   .      100150601318W400               : UNIQUE WELL ID
 LIC   .      0412565                        : LICENCE
~Curve Information Block
#MNEM  .UNIT        API CODE                   Curve Description
#------.------ ----------------------------- : -------------------------
 DEPT  .M        00 000 01 00                : Measured Depth
 DT    .US/M     60 520 32 00                : Delta Time
 GR    .GAPI     07 310 01 00                : Gamma Ray
 GRX   .GAPI     07 310 01 00                : Gamma Ray (Hires)
 ILD   .OHMM     07 120 45 00                : Deep Induction Resistivity
 ILM   .OHMM     07 120 44 00                : Medium Induction Resistivity
 SFL   .OHMM     07 220 04 00                : Spherically Focused Resistivity
 SP    .MV       07 010 01 00                : Spontaneous Potential
 RHOB  .KG/M3    45 350 02 00                : Bulk Density
 PE    .B/E      45 358 00 00                : Photoelectric Cross Section
~Parameter Information Section
#MNEM  .UNIT        Value                      Description
#------.------ ----------------------------- : -------------------------
 RUN   .            1                        : Run number
 GL    .M           821.809998               : Ground level elevation
 DREF  .            KB                       : Depth reference
 EREF  .M           826.099976               : Elevation of depth reference
 TDL   .M           1157.0                   : Total depth, logger
 TDD   .M           1157.0                   : Total depth, driller
 CSGL  .M           293.0                    : Casing bottom, logger
 CSGD  .M           293.0                    : Casing bottom, driller
 CSGS  .mm          219.10                   : Casing size
 CSGW  .Kg          219.10                   : Casing weight
 BS    .mm          200.00                   : Bit size
 MUD   .            GEL CHEM                 : Mud type
 MUDD  .kg/m3       1230.000                 : Mud density
 MUDV  .sec         81.000                   : Mud viscosity
 FL    .cc          7.500                    : Fluid loss rate
 PH    .            10.000                   : Mud pH
 MUDS  .            FLOW LINE                : Mud source
 RM    .OHMM        2.100                    : Resistivity of mud
 RMT   .C           12.0                     : Temperature of mud
 RMF   .OHMM        2.500                    : Resistivity of mud filtrate
 RMFT  .C           12.0                     : Temperature of mud filtrate
 RMC   .OHMM        1.900                    : Resistivity of mud cake
 RMCT  .C           12.0                     : Temperature of mud cake
 TMAX  .C           32.0                     : Maximum recorded temperature
 TIMC  .DAY/HR      OCT 10 2009 @ 16:00      : Date/Time circulation stopped
 TIMD  .DAY/HR      OCT 10 2009 @ 21:00      : Date/Time logger tagged bottom
 UNIT  .            TRUCK 134                : Logging unit_number
 BASE  .            MEDICINE HAT             : Home base of logging unit
 ENG   .            M. MacNEIL               : Recording Engineer
 WIT   .            R. BABBITT               : Witnessed by
~Other Information Section
#Run number  1
RUN #1: GRT / CNT / LDT / CST / PIT
LOGGER'S COMMENTS:
1) CALIPERS ORIENTED IN X-Y AXIS.
2) SFL IS ENVIRONMENTALLY CORRECTED USING AVCAL. 
3) NEUTRON POROSITY IS CALIPER CORRECTED USING NCAL.
4) CALIPERS READINGS VERIFIED IN CASING.
5) MUD RESISTIVITIES RECORDED AS MEASURED.
6) CENTRALIZERS DEPLOYED ON TOP AND BOTTOM OF CST.
7) CEMENT VOLUME CALCULATED USING 139.7mm PRODUCTION CASING
DATE AND TIME ON BOTTOM: OCT 10 2009 @ 21:00
TUCKER OPERATORS:
1) L. KNAUS
THANK YOU FOR USING TUCKER WIRELINE SERVICES CANADA.
#DEPT     DT       CALN     CALD     GR       GRX      ILD      ILM      LWTKG    NPDL     NPLS     NPSS     DPDL     DPLS     DPSS     SFL      SP       TT1      TT2      TT3      TT4      DRHO     RHOB     PE       
~TOPS_Definition
 TOPN.        :  Top Name     {S} 
 TOPT.M       :  Top Depth    {F} 
~TOPS_Data | TOPS_Definition
 Kcolorado            435.6  
 Kmed_hat             487.0  
 K2nd_ws              695.6  
 K2ws_ss              716.9  
 Kbfs                 795.0  
 Kbi_ss               825.3  
 Kbsl_colo            945.5  
 Kmannvl              953.0  
 Kglauc_ss            1057.7  
 Kmannvl_L            1094.9  
~Ascii         Log         Data
# ...
       834.840         233.90          81.67          82.19          12.26          17.66          23.90        -201.46        2585.98           2.81
       834.880         230.56          80.31          77.26          12.27          17.69          23.64        -201.49        2601.51           2.94
       834.920         227.92          79.69          69.19          12.28          17.59          23.09        -201.54        2607.35           3.06
       834.960         226.16          79.75          63.95          12.27          17.37          22.32        -201.62        2607.76           3.06
       835.000         225.40          80.41          71.48          12.26          17.05          21.41        -201.73        2592.05           3.04
       835.040         225.60          81.35          83.80          12.23          16.64          20.40        -201.86        2566.68           3.08
       835.080         226.66          82.28          93.48          12.19          16.16          19.36        -202.00        2546.44           3.22
       835.120         228.42          82.80          94.38          12.14          15.64          18.35        -202.15        2535.49           3.30
       835.160         230.78          82.80          91.80          12.08          15.11          17.40        -202.32        2521.60           3.19
       835.200         233.61          82.23          90.84          12.00          14.57          16.55        -202.49        2513.98           2.96
       835.240         236.91          81.25          83.11          11.92          14.03          15.80        -202.65        2504.33           2.87
       835.280         240.61          80.19          70.92          11.82          13.52          15.16        -202.80        2479.13           2.97
       835.320         244.61          79.33          66.79          11.69          13.04          14.62        -202.93        2462.43           3.03
       835.360         248.74          78.90          73.29          11.55          12.58          14.17        -203.05        2449.69           2.99
       835.400         252.73          78.95          76.88          11.39          12.16          13.79        -203.14        2427.64           2.89
       835.440         256.35          79.51          76.79          11.21          11.77          13.47        -203.20        2404.81           2.73
       835.480         259.40          80.41          78.29          11.03          11.41          13.18        -203.23        2387.49           2.64
       835.520         261.84          81.55          83.98          10.84          11.08          12.91        -203.21        2382.80           2.62
       835.560         263.78          82.88          91.44          10.65          10.78          12.65        -203.15        2381.33           2.62
       835.600         265.45          84.51          90.79          10.47          10.50          12.39        -203.04        2382.70           2.57
       835.640         267.11          86.57          80.68          10.28          10.25          12.12        -202.88        2378.46           2.48
       835.680         269.01          89.37          72.78          10.10          10.02          11.85        -202.67        2366.29           2.42
       835.720         271.31          93.08          75.40           9.92           9.81          11.55        -202.41        2360.11           2.38
       835.760         273.95          97.72          89.28           9.74           9.61          11.24        -202.12        2370.37           2.28
       835.800         276.77         103.22         102.34           9.57           9.42          10.92        -201.80        2381.21           2.29
       835.840         279.48         109.27         108.75           9.41           9.24          10.60        -201.46        2381.05           2.47
       835.880         281.88         115.53         116.60           9.26           9.08          10.28        -201.11        2392.25           2.54
       835.920         283.87         121.59         126.84           9.11           8.92           9.98        -200.75        2417.33           2.47
       835.960         285.45         127.05         137.42           8.97           8.77           9.69        -200.41        2430.22           2.47
       836.000         286.75         131.84         146.62           8.83           8.62           9.43        -200.07        2440.60           2.54
       836.040         287.93         135.89         142.97           8.71           8.48           9.20        -199.76        2463.95           2.58
       836.080         289.08         139.29         133.39           8.59           8.34           9.00        -199.48        2491.95           2.56
       836.120         290.26         142.20         139.84           8.47           8.21           8.82        -199.21        2498.55           2.57
       836.160         291.43         144.74         148.78           8.35           8.08           8.67        -198.97        2492.20           2.66
       836.200         292.46         147.05         145.26           8.24           7.95           8.53        -198.76        2496.15           2.69
       836.240         293.25         149.05         140.70           8.13           7.83           8.41        -198.57        2502.87           2.66
       836.280         293.72         150.61         151.87           8.03           7.71           8.30        -198.40        2502.49           2.67
       836.320         293.85         151.69         169.83           7.93           7.59           8.19        -198.25        2499.06           2.78
       836.360         293.66         152.10         171.75           7.83           7.47           8.09        -198.13        2501.92           2.85
       836.400         293.21         151.94         151.80           7.73           7.36           8.00        -198.02        2503.42           2.83
       836.440         292.60         151.26         137.89           7.64           7.25           7.90        -197.93        2495.15           2.82
       836.480         291.99         150.19         145.36           7.55           7.14           7.80        -197.86        2493.45           2.84
       836.520         291.57         148.90         158.66           7.46           7.04           7.70        -197.81        2505.08           2.84
       836.560         291.46         147.57         155.70           7.37           6.94           7.59        -197.77        2507.92           2.89
       836.600         291.69         146.36         142.22           7.29           6.84           7.48        -197.74        2495.66           2.89
       836.640         292.22         145.31         135.82           7.21           6.74           7.36        -197.73        2492.49           2.73
       836.680         292.97         144.53         138.86           7.14           6.65           7.23        -197.71        2489.93           2.59
       836.720         293.92         144.06         144.40           7.07           6.55           7.09        -197.71        2470.23           2.68
       836.760         295.12         143.90         146.20           7.02           6.47           6.94        -197.71        2462.77           2.79
       836.800         296.64         143.89         139.38           6.97           6.39           6.80        -197.71        2479.91           2.69
       836.840         298.45         143.86         140.10           6.93           6.31           6.66        -197.71        2490.66           2.56
       836.880         300.45         143.73         147.83           6.89           6.25           6.52        -197.72        2486.58           2.59
       836.920         302.48         143.35         154.43           6.86           6.19           6.40        -197.72        2480.42           2.74
       836.960         304.34         142.74         148.46           6.84           6.15           6.30        -197.72        2476.99           2.80
