~Version Information
 VERS  .     2.00 : LOG ASCII STANDARD -VERSION 2.0
 WRAP  .     NO   : ONE LINE PER DEPTH STEP
 DLM   .    SPACE : DELIMITING CHARACTER BETWEEN DATA COLUMNS
~Well Information Block
#MNEM  .UNIT        Data Type                  Information
#------.------ ----------------------------- : -------------------------
 STRT  .M           770.040                  : 
 STOP  .M           855.000                  : 
 STEP  .M             0.040                  : 
 NULL  .          -999.2500                  : 
 COMP  .      KI EXPLORATION INC.            : COMPANY
 WELL  .      KI RETLAW 15-6-13-18           : WELL
 FLD   .      RETLAW                         : FIELD
 LOC   .      100/15-06-013-18W4/00          : LOCATION
 PROV  .      Alberta                        : PROVINCE
 SRVC  .      Tucker Wireline Services       : SERVICE COMPANY
 DATE  .      OCT 10 2009                    : LOG DATE
 UWI   .      100150601318W400               : UNIQUE WELL ID
 LIC   .      0412565                        : LICENCE
~Curve Information Block
#MNEM  .UNIT        API CODE                   Curve Description
#------.------ ----------------------------- : -------------------------
 DEPT  .M        00 000 01 00                : Measured Depth
 DT    .US/M     60 520 32 00                : Delta Time
 GR    .GAPI     07 310 01 00                : Gamma Ray
 GRX   .GAPI     07 310 01 00                : Gamma Ray (Hires)
 ILD   .OHMM     07 120 45 00                : Deep Induction Resistivity
 ILM   .OHMM     07 120 44 00                : Medium Induction Resistivity
 SFL   .OHMM     07 220 04 00                : Spherically Focused Resistivity
 SP    .MV       07 010 01 00                : Spontaneous Potential
 RHOB  .KG/M3    45 350 02 00                : Bulk Density
 PE    .B/E      45 358 00 00                : Photoelectric Cross Section
~Parameter Information Section
#MNEM  .UNIT        Value                      Description
#------.------ ----------------------------- : -------------------------
 RUN   .            1                        : Run number
 GL    .M           821.809998               : Ground level elevation
 DREF  .            KB                       : Depth reference
 EREF  .M           826.099976               : Elevation of depth reference
 TDL   .M           1157.0                   : Total depth, logger
 TDD   .M           1157.0                   : Total depth, driller
 CSGL  .M           293.0                    : Casing bottom, logger
 CSGD  .M           293.0                    : Casing bottom, driller
 CSGS  .mm          219.10                   : Casing size
 CSGW  .Kg          219.10                   : Casing weight
 BS    .mm          200.00                   : Bit size
 MUD   .            GEL CHEM                 : Mud type
 MUDD  .kg/m3       1230.000                 : Mud density
 MUDV  .sec         81.000                   : Mud viscosity
 FL    .cc          7.500                    : Fluid loss rate
 PH    .            10.000                   : Mud pH
 MUDS  .            FLOW LINE                : Mud source
 RM    .OHMM        2.100                    : Resistivity of mud
 RMT   .C           12.0                     : Temperature of mud
 RMF   .OHMM        2.500                    : Resistivity of mud filtrate
 RMFT  .C           12.0                     : Temperature of mud filtrate
 RMC   .OHMM        1.900                    : Resistivity of mud cake
 RMCT  .C           12.0                     : Temperature of mud cake
 TMAX  .C           32.0                     : Maximum recorded temperature
 TIMC  .DAY/HR      OCT 10 2009 @ 16:00      : Date/Time circulation stopped
 TIMD  .DAY/HR      OCT 10 2009 @ 21:00      : Date/Time logger tagged bottom
 UNIT  .            TRUCK 134                : Logging unit_number
 BASE  .            MEDICINE HAT             : Home base of logging unit
 ENG   .            M. MacNEIL               : Recording Engineer
 WIT   .            R. BABBITT               : Witnessed by
~Other Information Section
#Run number  1
RUN #1: GRT / CNT / LDT / CST / PIT
LOGGER'S COMMENTS:
1) CALIPERS ORIENTED IN X-Y AXIS.
2) SFL IS ENVIRONMENTALLY CORRECTED USING AVCAL. 
3) NEUTRON POROSITY IS CALIPER CORRECTED USING NCAL.
4) CALIPERS READINGS VERIFIED IN CASING.
5) MUD RESISTIVITIES RECORDED AS MEASURED.
6) CENTRALIZERS DEPLOYED ON TOP AND BOTTOM OF CST.
7) CEMENT VOLUME CALCULATED USING 139.7mm PRODUCTION CASING
DATE AND TIME ON BOTTOM: OCT 10 2009 @ 21:00
TUCKER OPERATORS:
1) L. KNAUS
THANK YOU FOR USING TUCKER WIRELINE SERVICES CANADA.
#DEPT     DT       CALN     CALD     GR       GRX      ILD      ILM      LWTKG    NPDL     NPLS     NPSS     DPDL     DPLS     DPSS     SFL      SP       TT1      TT2      TT3      TT4      DRHO     RHOB     PE       
~TOPS_Definition
 TOPN.        :  Top Name     {S} 
 TOPT.M       :  Top Depth    {F} 
~TOPS_Data | TOPS_Definition
 Kcolorado            435.6  
 Kmed_hat             487.0  
 K2nd_ws              695.6  
 K2ws_ss              716.9  
 Kbfs                 795.0  
 Kbi_ss               825.3  
 Kbsl_colo            945.5  
 Kmannvl              953.0  
 Kglauc_ss            1057.7  
 Kmannvl_L            1094.9  
~Ascii         Log         Data
       770.040        -999.25         147.14         137.15          11.99          12.07          14.92        -198.67        2503.52           2.90
       770.080        -999.25         148.22         157.19          11.97          12.05          14.84        -198.68        2504.82           2.88
       770.120        -999.25         148.87         165.40          11.95          12.02          14.77        -198.68        2491.34           2.98
       770.160        -999.25         149.15         153.60          11.93          12.00          14.71        -198.67        2478.86           3.16
       770.200        -999.25         148.94         145.19          11.91          11.98          14.67        -198.67        2473.61           3.22
       770.240        -999.25         148.42         152.35          11.89          11.96          14.64        -198.67        2473.23           3.23
       770.280        -999.25         147.66         156.61          11.87          11.94          14.63        -198.67        2474.73           3.20
       770.320        -999.25         146.97         141.34          11.85          11.92          14.64        -198.67        2484.64           3.13
       770.360        -999.25         146.40         130.57          11.83          11.90          14.67        -198.67        2490.26           3.08
       770.400        -999.25         146.12         141.58          11.81          11.88          14.72        -198.67        2477.68           3.03
       770.440        -999.25         146.17         151.72          11.78          11.85          14.78        -198.68        2452.78           3.08
       770.480        -999.25         146.48         151.78          11.76          11.83          14.84        -198.68        2444.96           3.09
       770.520        -999.25         147.14         142.03          11.73          11.80          14.91        -198.69        2460.67           3.07
       770.560        -999.25         147.94         139.12          11.70          11.77          14.97        -198.70        2473.64           3.08
       770.600        -999.25         148.75         151.31          11.68          11.73          15.02        -198.71        2476.27           3.03
       770.640        -999.25         149.56         157.06          11.67          11.70          15.05        -198.72        2475.41           2.97
       770.680        -999.25         150.28         151.64          11.65          11.67          15.08        -198.73        2473.10           2.94
       770.720        -999.25         150.85         146.07          11.64          11.63          15.08        -198.73        2476.71           2.88
       770.760        -999.25         151.14         153.79          11.63          11.60          15.08        -198.73        2485.31           2.88
       770.800        -999.25         151.22         157.85          11.63          11.58          15.05        -198.73        2489.31           2.94
       770.840        -999.25         151.09         157.01          11.64          11.56          14.99        -198.73        2489.33           3.01
       770.880         309.20         150.73         147.28          11.65          11.54          14.93        -198.74        2492.25           3.06
       770.920         310.10         150.24         138.68          11.67          11.54          14.85        -198.74        2505.41           3.04
       770.960         311.16         149.58         152.41          11.68          11.55          14.77        -198.74        2513.46           3.02
       771.000         312.28         148.86         163.85          11.71          11.58          14.70        -198.73        2509.35           3.09
       771.040         313.31         148.17         154.08          11.73          11.61          14.65        -198.73        2499.67           3.23
       771.080         314.15         147.63         137.13          11.75          11.65          14.62        -198.72        2496.65           3.34
       771.120         314.74         147.29         132.28          11.78          11.70          14.62        -198.71        2501.31           3.47
       771.160         315.12         147.21         144.56          11.82          11.75          14.66        -198.70        2502.09           3.62
       771.200         315.36         147.42         154.07          11.85          11.81          14.73        -198.69        2493.44           3.69
       771.240         315.58         147.76         148.38          11.88          11.88          14.83        -198.69        2491.38           3.52
       771.280         315.81         148.17         141.92          11.91          11.95          14.96        -198.68        2498.73           3.23
       771.320         316.09         148.40         150.15          11.95          12.01          15.11        -198.67        2510.66           3.14
       771.360         316.37         148.37         160.86          11.98          12.08          15.26        -198.66        2514.11           3.18
       771.400         316.58         148.12         158.48          12.02          12.14          15.40        -198.65        2499.17           3.20
       771.440         316.63         147.70         143.31          12.06          12.20          15.53        -198.65        2489.43           3.22
       771.480         316.48         147.23         135.70          12.10          12.26          15.64        -198.65        2497.64           3.27
       771.520         316.14         146.83         146.57          12.15          12.32          15.73        -198.65        2502.83           3.26
       771.560         315.67         146.66         151.27          12.19          12.37          15.79        -198.65        2504.67           3.06
       771.600         315.15         146.88         141.81          12.24          12.42          15.84        -198.66        2509.67           2.94
       771.640         314.59         147.26         133.60          12.29          12.47          15.87        -198.66        2506.37           3.09
       771.680         313.93         147.79         145.20          12.33          12.51          15.89        -198.67        2499.82           3.34
       771.720         313.15         148.29         160.61          12.37          12.56          15.90        -198.67        2497.52           3.29
       771.760         312.27         148.58         162.70          12.42          12.60          15.92        -198.68        2489.75           3.10
       771.800         311.40         148.67         149.17          12.46          12.64          15.95        -198.69        2488.07           3.04
       771.840         310.65         148.52         139.01          12.50          12.68          15.98        -198.70        2492.11           3.10
       771.880         310.13         148.19         150.51          12.53          12.73          16.02        -198.71        2486.50           3.22
       771.920         309.86         147.78         155.93          12.55          12.77          16.08        -198.73        2479.11           3.20
       771.960         309.82         147.54         141.54          12.57          12.80          16.14        -198.74        2485.39           3.09
       772.000         309.94         147.37         133.67          12.57          12.84          16.21        -198.76        2493.29           3.09
       772.040         310.16         147.27         144.11          12.57          12.87          16.28        -198.77        2492.31           3.21
       772.080         310.42         147.26         155.30          12.56          12.89          16.36        -198.79        2475.19           3.51
       772.120         310.67         147.23         163.63          12.54          12.90          16.44        -198.80        2470.13           3.66
       772.160         310.82         147.23         149.79          12.50          12.91          16.51        -198.81        2486.36           3.49
