~Version Information
 VERS  .     2.00 : LOG ASCII STANDARD -VERSION 2.0
 WRAP  .     NO   : ONE LINE PER DEPTH STEP
 DLM   .    SPACE : DELIMITING CHARACTER BETWEEN DATA COLUMNS
~Well Information Block
#MNEM  .UNIT        Data Type                  Information
#------.------ ----------------------------- : -------------------------
 STRT  .M           770.040                  : 
 STOP  .M           855.000                  : 
 STEP  .M             0.040                  : 
 NULL  .          -999.2500                  : 
 COMP  .      KI EXPLORATION INC.            : COMPANY
 WELL  .      KI RETLAW 15-6-13-18           : WELL
 FLD   .      RETLAW                         : FIELD
 LOC   .      100/15-06-013-18W4/00          : LOCATION
 PROV  .      Alberta                        : PROVINCE
 SRVC  .      Tucker Wireline Services       : SERVICE COMPANY
 DATE  .      OCT 10 2009                    : LOG DATE
 UWI   .      100150601318W400               : UNIQUE WELL ID
 LIC   .      0412565                        : LICENCE
~Curve Information Block
#MNEM  .UNIT        API CODE                   Curve Description
#------.------ ----------------------------- : -------------------------
 DEPT  .M        00 000 01 00                : Measured Depth
 DT    .US/M     60 520 32 00                : Delta Time
 GR    .GAPI     07 310 01 00                : Gamma Ray
 GRX   .GAPI     07 310 01 00                : Gamma Ray (Hires)
 ILD   .OHMM     07 120 45 00                : Deep Induction Resistivity
 ILM   .OHMM     07 120 44 00                : Medium Induction Resistivity
 SFL   .OHMM     07 220 04 00                : Spherically Focused Resistivity
 SP    .MV       07 010 01 00                : Spontaneous Potential
 RHOB  .KG/M3    45 350 02 00                : Bulk Density
 PE    .B/E      45 358 00 00                : Photoelectric Cross Section
~Parameter Information Section
#MNEM  .UNIT        Value                      Description
#------.------ ----------------------------- : -------------------------
 RUN   .            1                        : Run number
 GL    .M           821.809998               : Ground level elevation
 DREF  .            KB                       : Depth reference
 EREF  .M           826.099976               : Elevation of depth reference
 TDL   .M           1157.0                   : Total depth, logger
 TDD   .M           1157.0                   : Total depth, driller
 CSGL  .M           293.0                    : Casing bottom, logger
 CSGD  .M           293.0                    : Casing bottom, driller
 CSGS  .mm          219.10                   : Casing size
 CSGW  .Kg          219.10                   : Casing weight
 BS    .mm          200.00                   : Bit size
 MUD   .            GEL CHEM                 : Mud type
 MUDD  .kg/m3       1230.000                 : Mud density
 MUDV  .sec         81.000                   : Mud viscosity
 FL    .cc          7.500                    : Fluid loss rate
 PH    .            10.000                   : Mud pH
 MUDS  .            FLOW LINE                : Mud source
 RM    .OHMM        2.100                    : Resistivity of mud
 RMT   .C           12.0                     : Temperature of mud
 RMF   .OHMM        2.500                    : Resistivity of mud filtrate
 RMFT  .C           12.0                     : Temperature of mud filtrate
 RMC   .OHMM        1.900                    : Resistivity of mud cake
 RMCT  .C           12.0                     : Temperature of mud cake
 TMAX  .C           32.0                     : Maximum recorded temperature
 TIMC  .DAY/HR      OCT 10 2009 @ 16:00      : Date/Time circulation stopped
 TIMD  .DAY/HR      OCT 10 2009 @ 21:00      : Date/Time logger tagged bottom
 UNIT  .            TRUCK 134                : Logging unit_number
 BASE  .            MEDICINE HAT             : Home base of logging unit
 ENG   .            M. MacNEIL               : Recording Engineer
 WIT   .            R. BABBITT               : Witnessed by
~Other Information Section
#Run number  1
RUN #1: GRT / CNT / LDT / CST / PIT
LOGGER'S COMMENTS:
1) CALIPERS ORIENTED IN X-Y AXIS.
2) SFL IS ENVIRONMENTALLY CORRECTED USING AVCAL. 
3) NEUTRON POROSITY IS CALIPER CORRECTED USING NCAL.
4) CALIPERS READINGS VERIFIED IN CASING.
5) MUD RESISTIVITIES RECORDED AS MEASURED.
6) CENTRALIZERS DEPLOYED ON TOP AND BOTTOM OF CST.
7) CEMENT VOLUME CALCULATED USING 139.7mm PRODUCTION CASING
DATE AND TIME ON BOTTOM: OCT 10 2009 @ 21:00
TUCKER OPERATORS:
1) L. KNAUS
THANK YOU FOR USING TUCKER WIRELINE SERVICES CANADA.
#DEPT     DT       CALN     CALD     GR       GRX      ILD      ILM      LWTKG    NPDL     NPLS     NPSS     DPDL     DPLS     DPSS     SFL      SP       TT1      TT2      TT3      TT4      DRHO     RHOB     PE       
~TOPS_Definition
 TOPN.        :  Top Name     {S} 
 TOPT.M       :  Top Depth    {F} 
~TOPS_Data | TOPS_Definition
 Kcolorado            435.6  
 Kmed_hat             487.0  
 K2nd_ws              695.6  
 K2ws_ss              716.9  
 Kbfs                 795.0  
 Kbi_ss               825.3  
 Kbsl_colo            945.5  
 Kmannvl              953.0  
 Kglauc_ss            1057.7  
 Kmannvl_L            1094.9  
~Ascii         Log         Data
# ...
       787.320         290.62         146.04         138.28           8.51          11.14          21.46        -197.81        2552.27           2.60
       787.360         285.31         144.36         125.79           8.78          11.98          21.74        -197.85        2545.84           2.55
       787.400         280.89         144.08         124.38           9.10          12.80          21.80        -197.90        2538.73           2.55
       787.440         277.79         145.24         133.88           9.46          13.57          21.69        -197.94        2525.47           2.61
       787.480         276.16         147.68         142.90           9.87          14.27          21.48        -197.97        2503.13           2.73
       787.520         275.87         151.10         147.26          10.32          14.88          21.25        -198.00        2484.75           2.86
       787.560         276.62         155.11         150.66          10.80          15.38          21.04        -198.02        2475.20           2.83
       787.600         278.05         159.10         163.49          11.30          15.78          20.89        -198.03        2465.30           2.80
       787.640         279.82         162.62         177.06          11.84          16.07          20.82        -198.03        2459.19           2.82
       787.680         281.63         165.30         181.47          12.41          16.28          20.85        -198.03        2470.29           2.79
       787.720         283.23         166.87         173.40          12.98          16.42          20.98        -198.02        2487.32           2.78
       787.760         284.38         167.34         168.10          13.56          16.50          21.18        -198.02        2494.17           2.93
       787.800         284.91         166.72         175.36          14.10          16.54          21.45        -198.04        2507.14           3.03
       787.840         284.74         165.37         177.62          14.59          16.54          21.74        -198.06        2525.70           3.12
       787.880         283.86         163.57         165.86          15.01          16.52          22.01        -198.09        2533.90           3.15
       787.920         282.43         161.71         150.28          15.34          16.48          22.24        -198.13        2529.27           3.03
       787.960         280.73         160.13         146.19          15.58          16.43          22.39        -198.18        2530.69           2.92
       788.000         279.08         159.08         157.12          15.76          16.38          22.45        -198.23        2551.98           2.81
       788.040         277.84         158.60         158.20          15.85          16.32          22.40        -198.28        2555.87           2.84
       788.080         277.25         158.69         149.13          15.86          16.25          22.24        -198.34        2543.52           2.99
       788.120         277.48         159.11         149.97          15.81          16.18          21.97        -198.38        2536.93           3.04
       788.160         278.59         159.59         166.89          15.71          16.10          21.61        -198.41        2535.37           2.99
       788.200         280.51         159.98         176.85          15.57          16.03          21.20        -198.44        2540.32           2.99
       788.240         283.01         160.07         169.07          15.40          15.96          20.76        -198.45        2538.78           2.99
       788.280         285.81         159.92         159.37          15.21          15.90          20.31        -198.44        2528.75           2.93
       788.320         288.57         159.57         151.00          15.02          15.84          19.89        -198.43        2519.81           2.81
       788.360         290.98         159.11         151.10          14.85          15.79          19.53        -198.41        2516.02           2.75
       788.400         292.89         158.62         158.48          14.69          15.74          19.24        -198.38        2514.71           2.80
       788.440         294.22         158.27         162.48          14.54          15.71          19.04        -198.35        2502.05           2.93
       788.480         295.00         157.89         158.60          14.41          15.69          18.92        -198.32        2481.05           2.93
       788.520         295.29         157.54         160.21          14.31          15.67          18.89        -198.29        2467.51           2.96
       788.560         295.23         157.26         159.77          14.25          15.66          18.92        -198.26        2462.45           3.06
       788.600         294.95         157.18         158.55          14.21          15.65          19.00        -198.23        2462.15           3.09
       788.640         294.53         157.38         151.31          14.19          15.65          19.10        -198.20        2470.36           3.05
       788.680         293.96         157.97         144.79          14.17          15.64          19.21        -198.18        2495.07           2.91
       788.720         293.23         159.06         155.62          14.13          15.63          19.31        -198.16        2518.17           2.89
       788.760         292.29         160.59         164.08          14.07          15.61          19.40        -198.14        2532.26           2.97
       788.800         291.16         162.38         157.18          14.02          15.58          19.46        -198.13        2534.99           3.11
       788.840         289.85         164.18         154.02          13.97          15.54          19.52        -198.12        2531.05           3.26
       788.880         288.42         165.68         172.93          13.94          15.49          19.58        -198.12        2536.37           3.31
       788.920         286.97         166.62         188.51          13.90          15.41          19.63        -198.11        2542.50           3.38
       788.960         285.65         166.90         183.68          13.86          15.32          19.67        -198.10        2544.06           3.39
       789.000         284.63         166.49         165.96          13.80          15.21          19.71        -198.09        2536.72           3.45
       789.040         284.09         165.61         156.92          13.74          15.08          19.75        -198.09        2519.74           3.38
       789.080         284.09         164.42         161.42          13.68          14.94          19.77        -198.08        2501.17           3.24
       789.120         284.53         163.38         163.98          13.62          14.77          19.76        -198.07        2497.58           3.12
       789.160         285.17         162.69         161.18          13.56          14.59          19.71        -198.06        2503.18           2.95
       789.200         285.68         162.55         158.12          13.51          14.40          19.60        -198.06        2498.49           2.92
       789.240         285.85         163.11         153.00          13.48          14.20          19.42        -198.04        2482.81           3.05
       789.280         285.71         164.29         153.49          13.44          14.00          19.16        -198.04        2465.39           3.13
       789.320         285.54         166.07         160.28          13.42          13.80          18.82        -198.03        2459.59           3.09
       789.360         285.71         168.24         170.13          13.40          13.62          18.42        -198.02        2478.86           3.01
       789.400         286.52         170.61         179.16          13.39          13.45          17.96        -198.00        2506.12           3.04
       789.440         287.96         173.03         185.05          13.38          13.30          17.50        -197.98        2519.25           3.10
