~Version Information
 VERS  .     2.00 : LOG ASCII STANDARD -VERSION 2.0
 WRAP  .     NO   : ONE LINE PER DEPTH STEP
 DLM   .    SPACE : DELIMITING CHARACTER BETWEEN DATA COLUMNS
~Well Information Block
#MNEM  .UNIT        Data Type                  Information
#------.------ ----------------------------- : -------------------------
 STRT  .M           770.040                  : 
 STOP  .M           855.000                  : 
 STEP  .M             0.040                  : 
 NULL  .          -999.2500                  : 
 COMP  .      KI EXPLORATION INC.            : COMPANY
 WELL  .      KI RETLAW 15-6-13-18           : WELL
 FLD   .      RETLAW                         : FIELD
 LOC   .      100/15-06-013-18W4/00          : LOCATION
 PROV  .      Alberta                        : PROVINCE
 SRVC  .      Tucker Wireline Services       : SERVICE COMPANY
 DATE  .      OCT 10 2009                    : LOG DATE
 UWI   .      100150601318W400               : UNIQUE WELL ID
 LIC   .      0412565                        : LICENCE
~Curve Information Block
#MNEM  .UNIT        API CODE                   Curve Description
#------.------ ----------------------------- : -------------------------
 DEPT  .M        00 000 01 00                : Measured Depth
 DT    .US/M     60 520 32 00                : Delta Time
 GR    .GAPI     07 310 01 00                : Gamma Ray
 GRX   .GAPI     07 310 01 00                : Gamma Ray (Hires)
 ILD   .OHMM     07 120 45 00                : Deep Induction Resistivity
 ILM   .OHMM     07 120 44 00                : Medium Induction Resistivity
 SFL   .OHMM     07 220 04 00                : Spherically Focused Resistivity
 SP    .MV       07 010 01 00                : Spontaneous Potential
 RHOB  .KG/M3    45 350 02 00                : Bulk Density
 PE    .B/E      45 358 00 00                : Photoelectric Cross Section
~Parameter Information Section
#MNEM  .UNIT        Value                      Description
#------.------ ----------------------------- : -------------------------
 RUN   .            1                        : Run number
 GL    .M           821.809998               : Ground level elevation
 DREF  .            KB                       : Depth reference
 EREF  .M           826.099976               : Elevation of depth reference
 TDL   .M           1157.0                   : Total depth, logger
 TDD   .M           1157.0                   : Total depth, driller
 CSGL  .M           293.0                    : Casing bottom, logger
 CSGD  .M           293.0                    : Casing bottom, driller
 CSGS  .mm          219.10                   : Casing size
 CSGW  .Kg          219.10                   : Casing weight
 BS    .mm          200.00                   : Bit size
 MUD   .            GEL CHEM                 : Mud type
 MUDD  .kg/m3       1230.000                 : Mud density
 MUDV  .sec         81.000                   : Mud viscosity
 FL    .cc          7.500                    : Fluid loss rate
 PH    .            10.000                   : Mud pH
 MUDS  .            FLOW LINE                : Mud source
 RM    .OHMM        2.100                    : Resistivity of mud
 RMT   .C           12.0                     : Temperature of mud
 RMF   .OHMM        2.500                    : Resistivity of mud filtrate
 RMFT  .C           12.0                     : Temperature of mud filtrate
 RMC   .OHMM        1.900                    : Resistivity of mud cake
 RMCT  .C           12.0                     : Temperature of mud cake
 TMAX  .C           32.0                     : Maximum recorded temperature
 TIMC  .DAY/HR      OCT 10 2009 @ 16:00      : Date/Time circulation stopped
 TIMD  .DAY/HR      OCT 10 2009 @ 21:00      : Date/Time logger tagged bottom
 UNIT  .            TRUCK 134                : Logging unit_number
 BASE  .            MEDICINE HAT             : Home base of logging unit
 ENG   .            M. MacNEIL               : Recording Engineer
 WIT   .            R. BABBITT               : Witnessed by
~Other Information Section
#Run number  1
RUN #1: GRT / CNT / LDT / CST / PIT
LOGGER'S COMMENTS:
1) CALIPERS ORIENTED IN X-Y AXIS.
2) SFL IS ENVIRONMENTALLY CORRECTED USING AVCAL. 
3) NEUTRON POROSITY IS CALIPER CORRECTED USING NCAL.
4) CALIPERS READINGS VERIFIED IN CASING.
5) MUD RESISTIVITIES RECORDED AS MEASURED.
6) CENTRALIZERS DEPLOYED ON TOP AND BOTTOM OF CST.
7) CEMENT VOLUME CALCULATED USING 139.7mm PRODUCTION CASING
DATE AND TIME ON BOTTOM: OCT 10 2009 @ 21:00
TUCKER OPERATORS:
1) L. KNAUS
THANK YOU FOR USING TUCKER WIRELINE SERVICES CANADA.
#DEPT     DT       CALN     CALD     GR       GRX      ILD      ILM      LWTKG    NPDL     NPLS     NPSS     DPDL     DPLS     DPSS     SFL      SP       TT1      TT2      TT3      TT4      DRHO     RHOB     PE       
~TOPS_Definition
 TOPN.        :  Top Name     {S} 
 TOPT.M       :  Top Depth    {F} 
~TOPS_Data | TOPS_Definition
 Kcolorado            435.6  
 Kmed_hat             487.0  
 K2nd_ws              695.6  
 K2ws_ss              716.9  
 Kbfs                 795.0  
 Kbi_ss               825.3  
 Kbsl_colo            945.5  
 Kmannvl              953.0  
 Kglauc_ss            1057.7  
 Kmannvl_L            1094.9  
~Ascii         Log         Data
# ...
       780.840         278.52         136.64         133.48          10.85          11.42          13.72        -197.99        2535.77           2.89
       780.880         279.10         137.96         136.70          10.55          11.18          13.50        -197.98        2542.70           2.89
       780.920         279.87         139.19         140.28          10.21          10.90          13.27        -197.95        2537.24           2.95
       780.960         280.64         140.31         141.48           9.85          10.60          13.05        -197.94        2534.94           2.91
       781.000         281.24         141.21         143.01           9.46          10.26          12.81        -197.93        2539.49           2.82
       781.040         281.50         141.74         145.71           9.09           9.90          12.57        -197.92        2539.13           2.84
       781.080         281.33         141.88         148.37           8.72           9.51          12.31        -197.92        2526.12           2.96
       781.120         280.78         141.59         145.34           8.36           9.09          12.05        -197.91        2509.71           3.08
       781.160         280.05         140.87         141.56           8.04           8.66          11.76        -197.91        2502.48           3.04
       781.200         279.50         139.85         137.82           7.74           8.23          11.45        -197.91        2502.92           2.88
       781.240         279.45         138.58         139.13           7.47           7.79          11.10        -197.91        2507.16           2.82
       781.280         280.09         137.24         144.45           7.23           7.36          10.72        -197.91        2511.82           2.87
       781.320         281.38         136.16         138.59           7.02           6.95          10.31        -197.92        2500.11           3.01
       781.360         283.12         135.60         128.15           6.85           6.57           9.86        -197.92        2475.71           3.14
       781.400         285.09         135.84         124.36           6.71           6.20           9.37        -197.92        2472.95           3.02
       781.440         287.26         137.20         123.68           6.60           5.88           8.85        -197.93        2486.23           2.84
       781.480         289.85         139.84         126.57           6.52           5.58           8.31        -197.94        2504.04           2.75
       781.520         293.27         143.82         134.49           6.46           5.33           7.75        -197.95        2505.85           2.77
       781.560         297.93         148.92         142.77           6.43           5.12           7.21        -197.95        2486.57           2.84
       781.600         304.02         155.07         153.23           6.42           4.94           6.68        -197.96        2464.62           2.87
       781.640         311.30         161.78         165.19           6.43           4.81           6.22        -197.97        2456.84           2.79
       781.680         319.11         168.83         168.76           6.44           4.71           5.84        -197.98        2440.35           2.79
       781.720         326.41         175.61         168.35           6.47           4.66           5.59        -197.99        2392.42           2.91
       781.760         332.24         181.60         183.42           6.51           4.65           5.50        -197.98        2324.19           3.03
       781.800         335.98         186.28         202.12           6.55           4.67           5.57        -197.98        2258.71           3.09
       781.840         337.46         189.06         209.58           6.60           4.75           5.84        -197.97        2228.16           3.02
       781.880         337.04         189.57         213.71           6.65           4.87           6.31        -197.95        2245.04           2.90
       781.920         335.33         187.66         216.16           6.70           5.03           6.98        -197.94        2286.97           2.79
       781.960         333.01         183.46         204.92           6.76           5.25           7.84        -197.94        2334.63           2.63
       782.000         330.55         177.36         181.89           6.82           5.53           8.88        -197.93        2384.73           2.43
       782.040         328.10         170.04         161.74           6.89           5.86          10.05        -197.94        2428.84           2.27
       782.080         325.46         162.08         149.93           6.96           6.26          11.32        -197.96        2458.35           2.22
       782.120         322.17         154.03         148.25           7.04           6.73          12.63        -197.98        2498.41           2.32
       782.160         317.71         146.31         145.21           7.13           7.27          13.94        -198.02        2542.05           2.58
       782.200         311.75         139.23         140.87           7.24           7.87          15.17        -198.06        2548.46           2.82
       782.240         304.27         132.98         131.01           7.37           8.54          16.31        -198.11        2532.95           2.99
       782.280         295.72         127.63         118.87           7.52           9.28          17.33        -198.16        2531.50           2.98
       782.320         286.96         123.45         113.04           7.70          10.05          18.20        -198.21        2541.42           2.86
       782.360         278.91         120.49         110.75           7.92          10.83          18.92        -198.26        2539.96           2.81
       782.400         272.45         118.76         106.80           8.17          11.61          19.49        -198.30        2526.64           2.87
       782.440         268.04         118.13         106.97           8.47          12.36          19.91        -198.34        2516.92           2.93
       782.480         265.60         118.45         113.50           8.81          13.04          20.19        -198.38        2515.41           3.03
       782.520         264.71         119.40         120.14           9.19          13.64          20.33        -198.40        2516.90           3.12
       782.560         264.76         120.65         127.96           9.60          14.13          20.34        -198.41        2517.59           3.14
       782.600         265.24         121.90         129.02          10.04          14.51          20.23        -198.41        2524.03           3.00
       782.640         265.84         123.09         125.62          10.48          14.78          20.01        -198.41        2534.98           2.79
       782.680         266.45         124.12         125.50          10.93          14.94          19.71        -198.40        2538.18           2.66
       782.720         267.10         125.11         121.10          11.38          15.00          19.35        -198.38        2527.49           2.72
       782.760         267.88         126.22         121.51          11.83          14.98          18.94        -198.37        2517.51           2.80
       782.800         268.86         127.51         127.14          12.24          14.90          18.50        -198.35        2520.85           2.82
       782.840         270.11         129.09         127.30          12.61          14.78          18.04        -198.33        2534.18           2.89
       782.880         271.65         131.01         121.60          12.92          14.62          17.57        -198.31        2533.11           3.00
       782.920         273.53         133.13         129.65          13.17          14.44          17.11        -198.29        2515.94           3.10
       782.960         275.71         135.34         143.22          13.35          14.25          16.67        -198.27        2506.95           3.07
