~Version Information
 VERS  .     2.00 : LOG ASCII STANDARD -VERSION 2.0
 WRAP  .     NO   : ONE LINE PER DEPTH STEP
 DLM   .    SPACE : DELIMITING CHARACTER BETWEEN DATA COLUMNS
~Well Information Block
#MNEM  .UNIT        Data Type                  Information
#------.------ ----------------------------- : -------------------------
 STRT  .M           770.040                  : 
 STOP  .M           855.000                  : 
 STEP  .M             0.040                  : 
 NULL  .          -999.2500                  : 
 COMP  .      KI EXPLORATION INC.            : COMPANY
 WELL  .      KI RETLAW 15-6-13-18           : WELL
 FLD   .      RETLAW                         : FIELD
 LOC   .      100/15-06-013-18W4/00          : LOCATION
 PROV  .      Alberta                        : PROVINCE
 SRVC  .      Tucker Wireline Services       : SERVICE COMPANY
 DATE  .      OCT 10 2009                    : LOG DATE
 UWI   .      100150601318W400               : UNIQUE WELL ID
 LIC   .      0412565                        : LICENCE
~Curve Information Block
#MNEM  .UNIT        API CODE                   Curve Description
#------.------ ----------------------------- : -------------------------
 DEPT  .M        00 000 01 00                : Measured Depth
 DT    .US/M     60 520 32 00                : Delta Time
 GR    .GAPI     07 310 01 00                : Gamma Ray
 GRX   .GAPI     07 310 01 00                : Gamma Ray (Hires)
 ILD   .OHMM     07 120 45 00                : Deep Induction Resistivity
 ILM   .OHMM     07 120 44 00                : Medium Induction Resistivity
 SFL   .OHMM     07 220 04 00                : Spherically Focused Resistivity
 SP    .MV       07 010 01 00                : Spontaneous Potential
 RHOB  .KG/M3    45 350 02 00                : Bulk Density
 PE    .B/E      45 358 00 00                : Photoelectric Cross Section
~Parameter Information Section
#MNEM  .UNIT        Value                      Description
#------.------ ----------------------------- : -------------------------
 RUN   .            1                        : Run number
 GL    .M           821.809998               : Ground level elevation
 DREF  .            KB                       : Depth reference
 EREF  .M           826.099976               : Elevation of depth reference
 TDL   .M           1157.0                   : Total depth, logger
 TDD   .M           1157.0                   : Total depth, driller
 CSGL  .M           293.0                    : Casing bottom, logger
 CSGD  .M           293.0                    : Casing bottom, driller
 CSGS  .mm          219.10                   : Casing size
 CSGW  .Kg          219.10                   : Casing weight
 BS    .mm          200.00                   : Bit size
 MUD   .            GEL CHEM                 : Mud type
 MUDD  .kg/m3       1230.000                 : Mud density
 MUDV  .sec         81.000                   : Mud viscosity
 FL    .cc          7.500                    : Fluid loss rate
 PH    .            10.000                   : Mud pH
 MUDS  .            FLOW LINE                : Mud source
 RM    .OHMM        2.100                    : Resistivity of mud
 RMT   .C           12.0                     : Temperature of mud
 RMF   .OHMM        2.500                    : Resistivity of mud filtrate
 RMFT  .C           12.0                     : Temperature of mud filtrate
 RMC   .OHMM        1.900                    : Resistivity of mud cake
 RMCT  .C           12.0                     : Temperature of mud cake
 TMAX  .C           32.0                     : Maximum recorded temperature
 TIMC  .DAY/HR      OCT 10 2009 @ 16:00      : Date/Time circulation stopped
 TIMD  .DAY/HR      OCT 10 2009 @ 21:00      : Date/Time logger tagged bottom
 UNIT  .            TRUCK 134                : Logging unit_number
 BASE  .            MEDICINE HAT             : Home base of logging unit
 ENG   .            M. MacNEIL               : Recording Engineer
 WIT   .            R. BABBITT               : Witnessed by
~Other Information Section
#Run number  1
RUN #1: GRT / CNT / LDT / CST / PIT
LOGGER'S COMMENTS:
1) CALIPERS ORIENTED IN X-Y AXIS.
2) SFL IS ENVIRONMENTALLY CORRECTED USING AVCAL. 
3) NEUTRON POROSITY IS CALIPER CORRECTED USING NCAL.
4) CALIPERS READINGS VERIFIED IN CASING.
5) MUD RESISTIVITIES RECORDED AS MEASURED.
6) CENTRALIZERS DEPLOYED ON TOP AND BOTTOM OF CST.
7) CEMENT VOLUME CALCULATED USING 139.7mm PRODUCTION CASING
DATE AND TIME ON BOTTOM: OCT 10 2009 @ 21:00
TUCKER OPERATORS:
1) L. KNAUS
THANK YOU FOR USING TUCKER WIRELINE SERVICES CANADA.
#DEPT     DT       CALN     CALD     GR       GRX      ILD      ILM      LWTKG    NPDL     NPLS     NPSS     DPDL     DPLS     DPSS     SFL      SP       TT1      TT2      TT3      TT4      DRHO     RHOB     PE       
~TOPS_Definition
 TOPN.        :  Top Name     {S} 
 TOPT.M       :  Top Depth    {F} 
~TOPS_Data | TOPS_Definition
 Kcolorado            435.6  
 Kmed_hat             487.0  
 K2nd_ws              695.6  
 K2ws_ss              716.9  
 Kbfs                 795.0  
 Kbi_ss               825.3  
 Kbsl_colo            945.5  
 Kmannvl              953.0  
 Kglauc_ss            1057.7  
 Kmannvl_L            1094.9  
~Ascii         Log         Data
# ...
       776.520         294.37         143.72         148.41          12.90          13.21          16.11        -198.53        2513.54           3.26
       776.560         294.19         143.01         142.66          12.90          13.12          16.04        -198.49        2514.31           3.33
       776.600         293.57         142.17         133.91          12.85          13.04          15.97        -198.46        2524.17           3.22
       776.640         292.62         141.16         140.46          12.76          12.95          15.89        -198.43        2533.75           2.97
       776.680         291.52         140.03         149.67          12.62          12.85          15.81        -198.40        2534.05           2.84
       776.720         290.46         138.67         143.67          12.43          12.75          15.71        -198.37        2533.35           2.82
       776.760         289.58         137.03         129.88          12.20          12.62          15.61        -198.36        2534.86           2.84
       776.800         288.88         135.08         135.40          11.92          12.48          15.49        -198.36        2533.16           2.86
       776.840         288.33         133.00         146.59          11.61          12.31          15.36        -198.35        2519.34           2.95
       776.880         287.86         130.88         141.02          11.28          12.10          15.21        -198.36        2505.98           3.04
       776.920         287.45         129.09         120.11          10.93          11.86          15.05        -198.37        2512.06           3.04
       776.960         287.15         127.83         103.94          10.56          11.58          14.86        -198.37        2520.77           2.97
       777.000         287.04         127.30         116.29          10.20          11.25          14.64        -198.37        2522.03           2.87
       777.040         287.17         127.57         131.65           9.82          10.89          14.40        -198.37        2522.52           2.85
       777.080         287.50         128.72         126.04           9.43          10.48          14.12        -198.37        2519.77           2.98
       777.120         287.91         130.48         119.15           9.06          10.04          13.82        -198.36        2509.70           3.12
       777.160         288.25         132.63         132.00           8.70           9.57          13.48        -198.34        2505.71           3.08
       777.200         288.44         134.96         145.00           8.36           9.07          13.11        -198.33        2503.24           3.06
       777.240         288.44         137.35         146.07           8.04           8.57          12.71        -198.31        2499.03           3.08
       777.280         288.25         139.65         137.13           7.75           8.07          12.28        -198.28        2494.85           3.11
       777.320         287.91         141.83         130.28           7.49           7.58          11.81        -198.26        2492.08           3.12
       777.360         287.49         143.78         145.89           7.26           7.12          11.30        -198.23        2496.40           3.09
       777.400         287.18         145.63         155.63           7.05           6.68          10.75        -198.21        2505.50           2.99
       777.440         287.38         147.34         150.30           6.88           6.28          10.15        -198.19        2495.35           3.03
       777.480         288.65         149.10         143.97           6.73           5.92           9.53        -198.18        2480.89           3.17
       777.520         291.62         150.87         151.29           6.60           5.59           8.88        -198.18        2478.95           3.08
       777.560         296.80         152.92         156.52           6.49           5.31           8.23        -198.18        2476.40           2.97
       777.600         304.24         155.32         151.74           6.38           5.07           7.60        -198.18        2466.30           2.99
       777.640         313.34         158.12         142.82           6.29           4.87           7.01        -198.20        2440.43           3.02
       777.680         323.03         161.23         143.16           6.21           4.70           6.48        -198.22        2403.88           3.05
       777.720         331.87         164.26         168.08           6.14           4.57           6.02        -198.24        2371.27           3.07
       777.760         338.60         166.93         189.07           6.08           4.48           5.67        -198.27        2329.38           3.06
       777.800         342.61         168.76         187.44           6.02           4.43           5.42        -198.30        2242.99           3.06
       777.840         344.02         169.36         173.87           5.97           4.40           5.30        -198.32        2140.90           3.07
       777.880         343.58         168.46         164.71           5.93           4.41           5.27        -198.33        2094.35           2.92
       777.920         342.27         165.96         181.18           5.90           4.44           5.35        -198.33        2128.17           2.65
       777.960         340.95         161.99         190.39           5.87           4.51           5.50        -198.32        2196.40           2.48
       778.000         340.19         156.94         172.15           5.85           4.60           5.71        -198.30        2255.82           2.42
       778.040         340.24         151.25         140.92           5.85           4.72           5.95        -198.27        2300.05           2.37
       778.080         341.00         145.49         131.03           5.85           4.86           6.20        -198.24        2346.71           2.30
       778.120         341.96         140.30         128.88           5.87           5.03           6.44        -198.21        2406.66           2.24
       778.160         342.28         136.12         125.21           5.90           5.21           6.68        -198.18        2471.76           2.31
       778.200         341.03         133.14         122.50           5.95           5.42           6.90        -198.15        2519.17           2.52
       778.240         337.52         131.39         117.23           6.01           5.65           7.12        -198.12        2494.77           2.73
       778.280         331.75         130.72         128.46           6.09           5.90           7.35        -198.10        2438.92           2.79
       778.320         324.50         130.68         138.11           6.20           6.17           7.60        -198.08        2423.77           2.78
       778.360         317.06         131.17         131.08           6.33           6.46           7.91        -198.07        2457.61           2.82
       778.400         310.75         131.60         123.38           6.49           6.76           8.28        -198.05        2495.55           2.98
       778.440         306.37         131.78         138.11           6.66           7.08           8.73        -198.04        2510.46           2.98
       778.480         304.04         131.48         147.35           6.86           7.41           9.26        -198.02        2491.64           2.87
       778.520         303.26         130.84         141.89           7.08           7.77           9.85        -198.00        2460.17           2.84
       778.560         303.24         129.74         129.18           7.33           8.15          10.51        -197.99        2452.42           2.82
       778.600         303.26         128.43         116.11           7.60           8.54          11.21        -197.98        2470.99           2.88
       778.640         302.83         127.08         120.19           7.89           8.95          11.92        -197.98        2504.06           2.99
