~Version Information
 VERS  .     2.00 : LOG ASCII STANDARD -VERSION 2.0
 WRAP  .     NO   : ONE LINE PER DEPTH STEP
 DLM   .    SPACE : DELIMITING CHARACTER BETWEEN DATA COLUMNS
~Well Information Block
#MNEM  .UNIT        Data Type                  Information
#------.------ ----------------------------- : -------------------------
 STRT  .M           770.040                  : 
 STOP  .M           855.000                  : 
 STEP  .M             0.040                  : 
 NULL  .          -999.2500                  : 
 COMP  .      KI EXPLORATION INC.            : COMPANY
 WELL  .      KI RETLAW 15-6-13-18           : WELL
 FLD   .      RETLAW                         : FIELD
 LOC   .      100/15-06-013-18W4/00          : LOCATION
 PROV  .      Alberta                        : PROVINCE
 SRVC  .      Tucker Wireline Services       : SERVICE COMPANY
 DATE  .      OCT 10 2009                    : LOG DATE
 UWI   .      100150601318W400               : UNIQUE WELL ID
 LIC   .      0412565                        : LICENCE
~Curve Information Block
#MNEM  .UNIT        API CODE                   Curve Description
#------.------ ----------------------------- : -------------------------
 DEPT  .M        00 000 01 00                : Measured Depth
 DT    .US/M     60 520 32 00                : Delta Time
 GR    .GAPI     07 310 01 00                : Gamma Ray
 GRX   .GAPI     07 310 01 00                : Gamma Ray (Hires)
 ILD   .OHMM     07 120 45 00                : Deep Induction Resistivity
 ILM   .OHMM     07 120 44 00                : Medium Induction Resistivity
 SFL   .OHMM     07 220 04 00                : Spherically Focused Resistivity
 SP    .MV       07 010 01 00                : Spontaneous Potential
 RHOB  .KG/M3    45 350 02 00                : Bulk Density
 PE    .B/E      45 358 00 00                : Photoelectric Cross Section
~Parameter Information Section
#MNEM  .UNIT        Value                      Description
#------.------ ----------------------------- : -------------------------
 RUN   .            1                        : Run number
 GL    .M           821.809998               : Ground level elevation
 DREF  .            KB                       : Depth reference
 EREF  .M           826.099976               : Elevation of depth reference
 TDL   .M           1157.0                   : Total depth, logger
 TDD   .M           1157.0                   : Total depth, driller
 CSGL  .M           293.0                    : Casing bottom, logger
 CSGD  .M           293.0                    : Casing bottom, driller
 CSGS  .mm          219.10                   : Casing size
 CSGW  .Kg          219.10                   : Casing weight
 BS    .mm          200.00                   : Bit size
 MUD   .            GEL CHEM                 : Mud type
 MUDD  .kg/m3       1230.000                 : Mud density
 MUDV  .sec         81.000                   : Mud viscosity
 FL    .cc          7.500                    : Fluid loss rate
 PH    .            10.000                   : Mud pH
 MUDS  .            FLOW LINE                : Mud source
 RM    .OHMM        2.100                    : Resistivity of mud
 RMT   .C           12.0                     : Temperature of mud
 RMF   .OHMM        2.500                    : Resistivity of mud filtrate
 RMFT  .C           12.0                     : Temperature of mud filtrate
 RMC   .OHMM        1.900                    : Resistivity of mud cake
 RMCT  .C           12.0                     : Temperature of mud cake
 TMAX  .C           32.0                     : Maximum recorded temperature
 TIMC  .DAY/HR      OCT 10 2009 @ 16:00      : Date/Time circulation stopped
 TIMD  .DAY/HR      OCT 10 2009 @ 21:00      : Date/Time logger tagged bottom
 UNIT  .            TRUCK 134                : Logging unit_number
 BASE  .            MEDICINE HAT             : Home base of logging unit
 ENG   .            M. MacNEIL               : Recording Engineer
 WIT   .            R. BABBITT               : Witnessed by
~Other Information Section
#Run number  1
RUN #1: GRT / CNT / LDT / CST / PIT
LOGGER'S COMMENTS:
1) CALIPERS ORIENTED IN X-Y AXIS.
2) SFL IS ENVIRONMENTALLY CORRECTED USING AVCAL. 
3) NEUTRON POROSITY IS CALIPER CORRECTED USING NCAL.
4) CALIPERS READINGS VERIFIED IN CASING.
5) MUD RESISTIVITIES RECORDED AS MEASURED.
6) CENTRALIZERS DEPLOYED ON TOP AND BOTTOM OF CST.
7) CEMENT VOLUME CALCULATED USING 139.7mm PRODUCTION CASING
DATE AND TIME ON BOTTOM: OCT 10 2009 @ 21:00
TUCKER OPERATORS:
1) L. KNAUS
THANK YOU FOR USING TUCKER WIRELINE SERVICES CANADA.
#DEPT     DT       CALN     CALD     GR       GRX      ILD      ILM      LWTKG    NPDL     NPLS     NPSS     DPDL     DPLS     DPSS     SFL      SP       TT1      TT2      TT3      TT4      DRHO     RHOB     PE       
~TOPS_Definition
 TOPN.        :  Top Name     {S} 
 TOPT.M       :  Top Depth    {F} 
~TOPS_Data | TOPS_Definition
 Kcolorado            435.6  
 Kmed_hat             487.0  
 K2nd_ws              695.6  
 K2ws_ss              716.9  
 Kbfs                 795.0  
 Kbi_ss               825.3  
 Kbsl_colo            945.5  
 Kmannvl              953.0  
 Kglauc_ss            1057.7  
 Kmannvl_L            1094.9  
~Ascii         Log         Data
# ...
       808.920         313.51         127.47         115.49           5.96           6.18           8.01        -198.47        2488.19           2.80
       808.960         314.24         128.17         121.94           5.95           6.11           7.87        -198.50        2516.25           2.67
       809.000         314.77         128.75         130.36           5.93           6.04           7.74        -198.54        2515.42           2.60
       809.040         315.18         129.00         143.99           5.92           5.97           7.62        -198.57        2494.91           2.71
       809.080         315.62         128.75         152.66           5.90           5.91           7.51        -198.60        2491.88           2.94
       809.120         316.45         128.00         137.84           5.89           5.84           7.40        -198.62        2538.27           3.08
       809.160         317.91         126.91         117.80           5.87           5.78           7.30        -198.63        2597.72           3.18
       809.200         320.01         125.75         111.39           5.86           5.73           7.22        -198.65        2615.80           3.23
       809.240         322.50         124.86         114.18           5.85           5.68           7.14        -198.65        2595.39           3.07
       809.280         324.83         124.48         123.13           5.83           5.63           7.06        -198.65        2575.48           2.84
       809.320         326.60         124.68         124.01           5.82           5.59           6.98        -198.65        2591.73           2.92
       809.360         327.64         125.46         122.21           5.80           5.56           6.91        -198.65        2611.05           3.50
       809.400         328.12         126.79         125.65           5.78           5.53           6.84        -198.65        2574.03           4.09
       809.440         328.44         128.34         126.20           5.76           5.51           6.79        -198.65        2509.64           3.79
       809.480         328.93         130.16         126.72           5.74           5.49           6.75        -198.64        2475.45           3.21
       809.520         329.72         132.00         134.13           5.72           5.48           6.73        -198.65        2474.20           2.93
       809.560         330.71         133.71         142.13           5.70           5.47           6.72        -198.65        2483.34           2.79
       809.600         331.70         135.23         136.82           5.68           5.47           6.73        -198.65        2486.64           2.68
       809.640         332.51         136.48         131.20           5.66           5.47           6.75        -198.65        2466.50           2.73
       809.680         332.99         137.30         137.88           5.64           5.48           6.78        -198.65        2434.70           2.92
       809.720         333.11         137.69         145.39           5.61           5.48           6.82        -198.63        2420.39           2.94
       809.760         332.80         137.54         145.00           5.59           5.49           6.87        -198.62        2435.46           2.80
       809.800         331.98         136.95         144.79           5.56           5.50           6.92        -198.60        2464.53           2.76
       809.840         330.51         136.07         138.97           5.54           5.51           6.97        -198.58        2479.86           2.88
       809.880         328.40         134.93         127.91           5.51           5.51           7.02        -198.55        2477.94           3.10
       809.920         325.85         133.75         127.37           5.49           5.51           7.05        -198.53        2468.99           3.16
       809.960         323.26         132.59         130.55           5.47           5.51           7.08        -198.53        2451.75           3.02
       810.000         321.00         131.54         132.29           5.44           5.50           7.10        -198.52        2437.96           2.96
       810.040         319.25         130.48         131.07           5.42           5.49           7.10        -198.52        2445.01           2.97
       810.080         318.03         129.37         132.88           5.40           5.47           7.09        -198.54        2456.23           2.97
       810.120         317.17         128.18         132.24           5.38           5.44           7.06        -198.55        2461.19           2.90
       810.160         316.50         126.82         128.42           5.36           5.41           7.02        -198.57        2460.93           2.74
       810.200         315.94         125.35         124.07           5.34           5.37           6.96        -198.59        2454.56           2.58
       810.240         315.53         123.90         122.66           5.32           5.33           6.90        -198.62        2454.06           2.56
       810.280         315.38         122.54         124.87           5.30           5.28           6.82        -198.64        2464.26           2.67
       810.320         315.62         121.41         120.76           5.28           5.23           6.74        -198.67        2478.32           2.84
       810.360         316.40         120.68         112.10           5.26           5.18           6.65        -198.69        2496.01           2.99
       810.400         317.77         120.36         108.05           5.24           5.12           6.56        -198.72        2525.36           3.02
       810.440         319.64         120.47         119.47           5.22           5.07           6.46        -198.75        2544.17           2.82
       810.480         321.84         120.94         128.75           5.20           5.01           6.36        -198.77        2531.86           2.73
       810.520         324.06         121.75         124.63           5.18           4.96           6.27        -198.80        2517.82           2.79
       810.560         326.13         122.79         117.10           5.17           4.91           6.17        -198.82        2523.42           2.89
       810.600         327.98         123.92         115.93           5.15           4.87           6.08        -198.85        2534.06           3.19
       810.640         329.68         125.05         123.92           5.13           4.83           6.00        -198.87        2516.06           3.72
       810.680         331.30         126.10         132.47           5.11           4.79           5.94        -198.88        2469.83           3.69
       810.720         332.80         126.87         135.02           5.10           4.76           5.88        -198.88        2446.96           3.17
       810.760         334.04         127.37         130.35           5.08           4.74           5.84        -198.87        2449.10           2.87
       810.800         334.93         127.56         128.32           5.07           4.72           5.81        -198.84        2447.73           2.87
       810.840         335.45         127.45         129.93           5.06           4.71           5.79        -198.80        2436.47           2.94
       810.880         335.76         127.24         128.32           5.05           4.71           5.79        -198.74        2423.06           2.94
       810.920         335.98         127.01         122.42           5.04           4.71           5.80        -198.67        2421.64           2.91
       810.960         336.23         126.84         121.85           5.03           4.71           5.81        -198.60        2441.81           2.90
       811.000         336.56         126.76         126.01           5.02           4.73           5.84        -198.53        2472.45           2.87
       811.040         336.92         126.76         124.84           5.02           4.74           5.87        -198.46        2489.43           2.81
