~Version Information
 VERS  .     2.00 : LOG ASCII STANDARD -VERSION 2.0
 WRAP  .     NO   : ONE LINE PER DEPTH STEP
 DLM   .    SPACE : DELIMITING CHARACTER BETWEEN DATA COLUMNS
~Well Information Block
#MNEM  .UNIT        Data Type                  Information
#------.------ ----------------------------- : -------------------------
 STRT  .M           770.040                  : 
 STOP  .M           855.000                  : 
 STEP  .M             0.040                  : 
 NULL  .          -999.2500                  : 
 COMP  .      KI EXPLORATION INC.            : COMPANY
 WELL  .      KI RETLAW 15-6-13-18           : WELL
 FLD   .      RETLAW                         : FIELD
 LOC   .      100/15-06-013-18W4/00          : LOCATION
 PROV  .      Alberta                        : PROVINCE
 SRVC  .      Tucker Wireline Services       : SERVICE COMPANY
 DATE  .      OCT 10 2009                    : LOG DATE
 UWI   .      100150601318W400               : UNIQUE WELL ID
 LIC   .      0412565                        : LICENCE
~Curve Information Block
#MNEM  .UNIT        API CODE                   Curve Description
#------.------ ----------------------------- : -------------------------
 DEPT  .M        00 000 01 00                : Measured Depth
 DT    .US/M     60 520 32 00                : Delta Time
 GR    .GAPI     07 310 01 00                : Gamma Ray
 GRX   .GAPI     07 310 01 00                : Gamma Ray (Hires)
 ILD   .OHMM     07 120 45 00                : Deep Induction Resistivity
 ILM   .OHMM     07 120 44 00                : Medium Induction Resistivity
 SFL   .OHMM     07 220 04 00                : Spherically Focused Resistivity
 SP    .MV       07 010 01 00                : Spontaneous Potential
 RHOB  .KG/M3    45 350 02 00                : Bulk Density
 PE    .B/E      45 358 00 00                : Photoelectric Cross Section
~Parameter Information Section
#MNEM  .UNIT        Value                      Description
#------.------ ----------------------------- : -------------------------
 RUN   .            1                        : Run number
 GL    .M           821.809998               : Ground level elevation
 DREF  .            KB                       : Depth reference
 EREF  .M           826.099976               : Elevation of depth reference
 TDL   .M           1157.0                   : Total depth, logger
 TDD   .M           1157.0                   : Total depth, driller
 CSGL  .M           293.0                    : Casing bottom, logger
 CSGD  .M           293.0                    : Casing bottom, driller
 CSGS  .mm          219.10                   : Casing size
 CSGW  .Kg          219.10                   : Casing weight
 BS    .mm          200.00                   : Bit size
 MUD   .            GEL CHEM                 : Mud type
 MUDD  .kg/m3       1230.000                 : Mud density
 MUDV  .sec         81.000                   : Mud viscosity
 FL    .cc          7.500                    : Fluid loss rate
 PH    .            10.000                   : Mud pH
 MUDS  .            FLOW LINE                : Mud source
 RM    .OHMM        2.100                    : Resistivity of mud
 RMT   .C           12.0                     : Temperature of mud
 RMF   .OHMM        2.500                    : Resistivity of mud filtrate
 RMFT  .C           12.0                     : Temperature of mud filtrate
 RMC   .OHMM        1.900                    : Resistivity of mud cake
 RMCT  .C           12.0                     : Temperature of mud cake
 TMAX  .C           32.0                     : Maximum recorded temperature
 TIMC  .DAY/HR      OCT 10 2009 @ 16:00      : Date/Time circulation stopped
 TIMD  .DAY/HR      OCT 10 2009 @ 21:00      : Date/Time logger tagged bottom
 UNIT  .            TRUCK 134                : Logging unit_number
 BASE  .            MEDICINE HAT             : Home base of logging unit
 ENG   .            M. MacNEIL               : Recording Engineer
 WIT   .            R. BABBITT               : Witnessed by
~Other Information Section
#Run number  1
RUN #1: GRT / CNT / LDT / CST / PIT
LOGGER'S COMMENTS:
1) CALIPERS ORIENTED IN X-Y AXIS.
2) SFL IS ENVIRONMENTALLY CORRECTED USING AVCAL. 
3) NEUTRON POROSITY IS CALIPER CORRECTED USING NCAL.
4) CALIPERS READINGS VERIFIED IN CASING.
5) MUD RESISTIVITIES RECORDED AS MEASURED.
6) CENTRALIZERS DEPLOYED ON TOP AND BOTTOM OF CST.
7) CEMENT VOLUME CALCULATED USING 139.7mm PRODUCTION CASING
DATE AND TIME ON BOTTOM: OCT 10 2009 @ 21:00
TUCKER OPERATORS:
1) L. KNAUS
THANK YOU FOR USING TUCKER WIRELINE SERVICES CANADA.
#DEPT     DT       CALN     CALD     GR       GRX      ILD      ILM      LWTKG    NPDL     NPLS     NPSS     DPDL     DPLS     DPSS     SFL      SP       TT1      TT2      TT3      TT4      DRHO     RHOB     PE       
~TOPS_Definition
 TOPN.        :  Top Name     {S} 
 TOPT.M       :  Top Depth    {F} 
~TOPS_Data | TOPS_Definition
 Kcolorado            435.6  
 Kmed_hat             487.0  
 K2nd_ws              695.6  
 K2ws_ss              716.9  
 Kbfs                 795.0  
 Kbi_ss               825.3  
 Kbsl_colo            945.5  
 Kmannvl              953.0  
 Kglauc_ss            1057.7  
 Kmannvl_L            1094.9  
~Ascii         Log         Data
# ...
       852.120         264.22          94.63          84.86           8.28           8.42           8.87        -197.40        2447.35           2.71
       852.160         264.56          94.38          86.35           8.21           8.33           8.77        -197.36        2451.36           2.57
       852.200         265.06          94.51          89.87           8.14           8.25           8.68        -197.33        2453.96           2.57
       852.240         265.74          95.03          90.33           8.07           8.16           8.60        -197.31        2449.57           2.79
       852.280         266.53          95.87          92.51           8.00           8.07           8.54        -197.30        2439.87           2.98
       852.320         267.30          96.86          98.08           7.92           7.98           8.49        -197.30        2440.16           2.92
       852.360         267.88          97.82         108.41           7.85           7.90           8.46        -197.31        2446.34           2.86
       852.400         268.11          98.73         108.54           7.77           7.81           8.43        -197.33        2455.77           2.80
       852.440         267.95          99.43          97.52           7.70           7.72           8.42        -197.35        2463.54           2.73
       852.480         267.49         100.09          91.66           7.62           7.63           8.41        -197.39        2460.33           2.74
       852.520         266.92         100.73          95.70           7.55           7.53           8.40        -197.44        2442.54           2.76
       852.560         266.45         101.45         103.01           7.48           7.43           8.39        -197.49        2428.90           2.66
       852.600         266.26         102.44         105.42           7.41           7.33           8.36        -197.54        2430.43           2.58
       852.640         266.49         103.64         104.05           7.35           7.23           8.31        -197.61        2433.21           2.63
       852.680         267.29         105.16         102.16           7.30           7.13           8.22        -197.68        2431.00           2.72
       852.720         268.83         107.01         101.18           7.24           7.03           8.11        -197.75        2419.44           2.75
       852.760         271.19         109.06          99.91           7.20           6.93           7.97        -197.81        2403.61           2.78
       852.800         274.31         111.25         108.17           7.16           6.84           7.79        -197.87        2403.61           2.83
       852.840         277.97         113.32         119.69           7.13           6.75           7.60        -197.92        2413.16           2.81
       852.880         281.81         115.13         125.63           7.10           6.68           7.40        -197.96        2415.57           2.72
       852.920         285.41         116.54         128.28           7.07           6.61           7.21        -197.99        2398.09           2.73
       852.960         288.38         117.51         120.81           7.05           6.55           7.04        -198.01        2378.20           2.73
       853.000         290.56         118.11         112.68           7.02           6.51           6.90        -198.02        2369.40           2.70
       853.040         291.99         118.38         114.01           7.00           6.48           6.80        -198.02        2370.47           2.72
       853.080         292.91         118.55         117.59           6.98           6.47           6.76        -198.03        2374.33           2.74
       853.120         293.62         118.70         121.64           6.96           6.46           6.76        -198.03        2378.25           2.71
       853.160         294.36         118.93         122.49           6.94           6.47           6.81        -198.04        2397.06           2.65
       853.200         295.25         119.31         118.18           6.92           6.50           6.91        -198.05        2440.77           2.59
       853.240         296.21         119.93         114.32           6.90           6.53           7.04        -198.08        2485.04           2.57
       853.280         297.07         120.79         115.69           6.88           6.57           7.18        -198.10        2499.66           2.57
       853.320         297.57         121.86         118.79           6.86           6.62           7.33        -198.11        2497.05           2.63
       853.360         297.47         123.11         121.80           6.84           6.67           7.48        -198.12        2498.36           2.72
       853.400         296.61         124.34         127.25           6.82           6.72           7.60        -198.12        2512.71           2.81
       853.440         295.00         125.42         130.36           6.80           6.77           7.71        -198.11        2533.33           2.78
       853.480         292.83         126.24         128.51           6.79           6.81           7.79        -198.08        2525.19           2.76
       853.520         290.45         126.60         130.24           6.78           6.85           7.85        -198.04        2503.85           2.82
       853.560         288.27         126.53         130.92           6.77           6.88           7.88        -198.00        2494.22           2.72
       853.600         286.68         125.98         130.42           6.77           6.90           7.89        -197.96        2490.40           2.56
       853.640         285.90         125.09         128.94           6.78           6.92           7.89        -197.92        2491.26           2.59
       853.680         285.88         123.98         123.44           6.79           6.93           7.88        -197.89        2500.86           2.73
       853.720         286.43         122.83         119.40           6.80           6.93           7.86        -197.87        2504.09           2.80
       853.760         287.28         121.81         117.46           6.81           6.93           7.85        -197.85        2497.32           2.77
       853.800         288.26         121.03         118.36           6.83           6.93           7.83        -197.85        2496.65           2.70
       853.840         289.31         120.61         119.16           6.85           6.92           7.81        -197.85        2504.21           2.67
       853.880         290.42         120.54         117.46           6.88           6.91           7.80        -197.85        2509.89           2.61
       853.920         291.59         120.79         117.35           6.91           6.89           7.79        -197.86        2504.22           2.60
       853.960         292.77         121.33         119.68           6.93           6.88           7.78        -197.87        2488.43           2.72
       854.000         293.88         121.93         122.40           6.96           6.87           7.78        -197.88        2463.89           2.80
       854.040         294.88         122.57         123.62           6.98           6.86           7.78        -197.88        2443.27           2.67
       854.080         295.76         123.06         126.89           6.99           6.85           7.77        -197.88        2437.86           2.56
       854.120         296.53         123.31         126.66           7.01           6.85           7.77        -197.87        2449.25           2.58
       854.160         297.22         123.29         124.78           7.02           6.84           7.76        -197.86        2478.98           2.62
       854.200         297.82         122.96         126.39           7.02           6.84           7.76        -197.83        2527.38           2.68
       854.240        -999.25         122.47         126.26           7.02           6.84           7.76        -197.81        2550.56           2.72
