~Version Information
 VERS  .     2.00 : LOG ASCII STANDARD -VERSION 2.0
 WRAP  .     NO   : ONE LINE PER DEPTH STEP
 DLM   .    SPACE : DELIMITING CHARACTER BETWEEN DATA COLUMNS
~Well Information Block
#MNEM  .UNIT        Data Type                  Information
#------.------ ----------------------------- : -------------------------
 STRT  .M           770.040                  : 
 STOP  .M           855.000                  : 
 STEP  .M             0.040                  : 
 NULL  .          -999.2500                  : 
 COMP  .      KI EXPLORATION INC.            : COMPANY
 WELL  .      KI RETLAW 15-6-13-18           : WELL
 FLD   .      RETLAW                         : FIELD
 LOC   .      100/15-06-013-18W4/00          : LOCATION
 PROV  .      Alberta                        : PROVINCE
 SRVC  .      Tucker Wireline Services       : SERVICE COMPANY
 DATE  .      OCT 10 2009                    : LOG DATE
 UWI   .      100150601318W400               : UNIQUE WELL ID
 LIC   .      0412565                        : LICENCE
~Curve Information Block
#MNEM  .UNIT        API CODE                   Curve Description
#------.------ ----------------------------- : -------------------------
 DEPT  .M        00 000 01 00                : Measured Depth
 DT    .US/M     60 520 32 00                : Delta Time
 GR    .GAPI     07 310 01 00                : Gamma Ray
 GRX   .GAPI     07 310 01 00                : Gamma Ray (Hires)
 ILD   .OHMM     07 120 45 00                : Deep Induction Resistivity
 ILM   .OHMM     07 120 44 00                : Medium Induction Resistivity
 SFL   .OHMM     07 220 04 00                : Spherically Focused Resistivity
 SP    .MV       07 010 01 00                : Spontaneous Potential
 RHOB  .KG/M3    45 350 02 00                : Bulk Density
 PE    .B/E      45 358 00 00                : Photoelectric Cross Section
~Parameter Information Section
#MNEM  .UNIT        Value                      Description
#------.------ ----------------------------- : -------------------------
 RUN   .            1                        : Run number
 GL    .M           821.809998               : Ground level elevation
 DREF  .            KB                       : Depth reference
 EREF  .M           826.099976               : Elevation of depth reference
 TDL   .M           1157.0                   : Total depth, logger
 TDD   .M           1157.0                   : Total depth, driller
 CSGL  .M           293.0                    : Casing bottom, logger
 CSGD  .M           293.0                    : Casing bottom, driller
 CSGS  .mm          219.10                   : Casing size
 CSGW  .Kg          219.10                   : Casing weight
 BS    .mm          200.00                   : Bit size
 MUD   .            GEL CHEM                 : Mud type
 MUDD  .kg/m3       1230.000                 : Mud density
 MUDV  .sec         81.000                   : Mud viscosity
 FL    .cc          7.500                    : Fluid loss rate
 PH    .            10.000                   : Mud pH
 MUDS  .            FLOW LINE                : Mud source
 RM    .OHMM        2.100                    : Resistivity of mud
 RMT   .C           12.0                     : Temperature of mud
 RMF   .OHMM        2.500                    : Resistivity of mud filtrate
 RMFT  .C           12.0                     : Temperature of mud filtrate
 RMC   .OHMM        1.900                    : Resistivity of mud cake
 RMCT  .C           12.0                     : Temperature of mud cake
 TMAX  .C           32.0                     : Maximum recorded temperature
 TIMC  .DAY/HR      OCT 10 2009 @ 16:00      : Date/Time circulation stopped
 TIMD  .DAY/HR      OCT 10 2009 @ 21:00      : Date/Time logger tagged bottom
 UNIT  .            TRUCK 134                : Logging unit_number
 BASE  .            MEDICINE HAT             : Home base of logging unit
 ENG   .            M. MacNEIL               : Recording Engineer
 WIT   .            R. BABBITT               : Witnessed by
~Other Information Section
#Run number  1
RUN #1: GRT / CNT / LDT / CST / PIT
LOGGER'S COMMENTS:
1) CALIPERS ORIENTED IN X-Y AXIS.
2) SFL IS ENVIRONMENTALLY CORRECTED USING AVCAL. 
3) NEUTRON POROSITY IS CALIPER CORRECTED USING NCAL.
4) CALIPERS READINGS VERIFIED IN CASING.
5) MUD RESISTIVITIES RECORDED AS MEASURED.
6) CENTRALIZERS DEPLOYED ON TOP AND BOTTOM OF CST.
7) CEMENT VOLUME CALCULATED USING 139.7mm PRODUCTION CASING
DATE AND TIME ON BOTTOM: OCT 10 2009 @ 21:00
TUCKER OPERATORS:
1) L. KNAUS
THANK YOU FOR USING TUCKER WIRELINE SERVICES CANADA.
#DEPT     DT       CALN     CALD     GR       GRX      ILD      ILM      LWTKG    NPDL     NPLS     NPSS     DPDL     DPLS     DPSS     SFL      SP       TT1      TT2      TT3      TT4      DRHO     RHOB     PE       
~TOPS_Definition
 TOPN.        :  Top Name     {S} 
 TOPT.M       :  Top Depth    {F} 
~TOPS_Data | TOPS_Definition
 Kcolorado            435.6  
 Kmed_hat             487.0  
 K2nd_ws              695.6  
 K2ws_ss              716.9  
 Kbfs                 795.0  
 Kbi_ss               825.3  
 Kbsl_colo            945.5  
 Kmannvl              953.0  
 Kglauc_ss            1057.7  
 Kmannvl_L            1094.9  
~Ascii         Log         Data
# ...
       845.640         185.28          39.90          44.35          21.15          57.16         742.68        -215.90        2643.00           4.26
       845.680         185.37          41.12          39.15          20.56          50.99         617.08        -215.49        2652.71           4.16
       845.720         186.09          42.42          37.82          19.92          45.43         500.98        -215.08        2668.45           3.87
       845.760         187.59          43.84          44.29          19.25          40.52         395.94        -214.67        2668.87           3.79
       845.800         189.87          45.47          46.05          18.60          36.25         305.24        -214.26        2660.58           3.99
       845.840         192.86          47.38          44.66          17.98          32.53         231.12        -213.84        2648.72           4.07
       845.880         196.42          49.50          44.73          17.38          29.33         170.71        -213.44        2633.68           3.97
       845.920         200.38          51.86          49.39          16.81          26.58         123.64        -213.04        2620.49           3.81
       845.960         204.69          54.36          52.77          16.28          24.21          87.98        -212.67        2595.52           3.67
       846.000         209.22          56.89          56.61          15.80          22.17          62.21        -212.33        2560.94           3.73
       846.040         213.99          59.33          63.10          15.35          20.42          44.61        -212.02        2525.54           3.85
       846.080         218.97          61.57          69.79          14.95          18.88          33.73        -211.75        2486.08           3.83
       846.120         224.23          63.50          68.29          14.58          17.55          27.43        -211.52        2451.38           3.53
       846.160         229.79          65.13          63.68          14.23          16.40          23.51        -211.33        2431.33           3.13
       846.200         235.53          66.54          60.65          13.89          15.41          20.92        -211.17        2424.14           2.84
       846.240         241.20          67.65          67.41          13.56          14.56          19.15        -211.04        2413.62           2.68
       846.280         246.49          68.56          77.28          13.24          13.82          17.92        -210.93        2400.83           2.59
       846.320         251.10          69.29          75.35          12.91          13.18          17.04        -210.81        2401.65           2.53
       846.360         254.97          69.84          66.95          12.56          12.62          16.35        -210.69        2405.18           2.55
       846.400         258.22          70.26          63.64          12.20          12.13          15.79        -210.55        2394.33           2.59
       846.440         261.05          70.50          67.90          11.85          11.69          15.31        -210.37        2395.08           2.50
       846.480         263.66          70.57          75.85          11.49          11.31          14.88        -210.14        2397.32           2.42
       846.520         266.12          70.44          81.05          11.12          10.96          14.48        -209.88        2390.13           2.44
       846.560         268.36          70.11          72.42          10.76          10.63          14.12        -209.58        2384.27           2.49
       846.600         270.32          69.70          63.68          10.40          10.33          13.77        -209.24        2372.67           2.45
       846.640         271.93          69.24          67.57          10.03          10.04          13.44        -208.88        2363.47           2.36
       846.680         273.24          68.96          70.78           9.66           9.75          13.12        -208.51        2364.62           2.32
       846.720         274.32          68.99          68.40           9.30           9.46          12.82        -208.13        2367.07           2.36
       846.760         275.26          69.56          64.31           8.95           9.16          12.52        -207.74        2370.58           2.38
       846.800         276.07          70.79          60.80           8.62           8.86          12.21        -207.37        2375.52           2.29
       846.840         276.76          72.75          64.41           8.31           8.55          11.88        -206.97        2376.64           2.19
       846.880         277.34          75.32          69.63           8.01           8.23          11.52        -206.56        2386.31           2.13
       846.920         277.87          78.47          75.98           7.74           7.91          11.12        -206.14        2395.92           2.10
       846.960         278.44          82.01          80.57           7.49           7.59          10.68        -205.67        2391.93           2.17
       847.000         279.16          85.62          89.70           7.26           7.27          10.19        -205.16        2387.11           2.30
       847.040         280.18          89.26         100.76           7.06           6.96           9.67        -204.61        2394.85           2.32
       847.080         281.65          92.84         101.41           6.87           6.66           9.12        -204.03        2406.28           2.29
       847.120         283.69          96.36          88.15           6.70           6.37           8.56        -203.43        2401.37           2.33
       847.160         286.39          99.83          81.86           6.56           6.10           8.00        -202.83        2381.86           2.35
       847.200         289.69         103.23         100.25           6.43           5.85           7.46        -202.25        2371.99           2.36
       847.240         293.49         106.39         120.91           6.31           5.63           6.96        -201.70        2382.56           2.39
       847.280         297.65         109.30         120.52           6.22           5.43           6.49        -201.19        2392.05           2.50
       847.320         302.06         111.69         108.57           6.14           5.26           6.07        -200.72        2385.74           2.65
       847.360         306.65         113.50         114.44           6.07           5.11           5.72        -200.31        2381.53           2.79
       847.400         311.39         114.66         125.81           6.02           4.99           5.42        -199.95        2384.46           2.83
       847.440         316.23         115.23         125.34           5.97           4.89           5.18        -199.64        2387.00           2.81
       847.480         320.97         115.42         115.20           5.94           4.81           5.00        -199.38        2390.67           2.82
       847.520         325.31         115.40         106.83           5.92           4.76           4.87        -199.15        2410.31           2.87
       847.560         328.87         115.27         112.05           5.90           4.73           4.80        -198.96        2426.95           2.76
       847.600         331.34         115.18         116.58           5.89           4.73           4.78        -198.78        2408.97           2.63
       847.640         332.61         115.30         113.75           5.88           4.75           4.80        -198.62        2392.27           2.58
       847.680         332.82         115.40         108.20           5.89           4.79           4.86        -198.47        2415.16           2.50
       847.720         332.22         115.39         115.07           5.90           4.86           4.96        -198.33        2462.50           2.48
       847.760         331.08         115.17         126.52           5.92           4.95           5.11        -198.19        2498.68           2.55
