~Version Information
 VERS  .     2.00 : LOG ASCII STANDARD -VERSION 2.0
 WRAP  .     NO   : ONE LINE PER DEPTH STEP
 DLM   .    SPACE : DELIMITING CHARACTER BETWEEN DATA COLUMNS
~Well Information Block
#MNEM  .UNIT        Data Type                  Information
#------.------ ----------------------------- : -------------------------
 STRT  .M           770.040                  : 
 STOP  .M           855.000                  : 
 STEP  .M             0.040                  : 
 NULL  .          -999.2500                  : 
 COMP  .      KI EXPLORATION INC.            : COMPANY
 WELL  .      KI RETLAW 15-6-13-18           : WELL
 FLD   .      RETLAW                         : FIELD
 LOC   .      100/15-06-013-18W4/00          : LOCATION
 PROV  .      Alberta                        : PROVINCE
 SRVC  .      Tucker Wireline Services       : SERVICE COMPANY
 DATE  .      OCT 10 2009                    : LOG DATE
 UWI   .      100150601318W400               : UNIQUE WELL ID
 LIC   .      0412565                        : LICENCE
~Curve Information Block
#MNEM  .UNIT        API CODE                   Curve Description
#------.------ ----------------------------- : -------------------------
 DEPT  .M        00 000 01 00                : Measured Depth
 DT    .US/M     60 520 32 00                : Delta Time
 GR    .GAPI     07 310 01 00                : Gamma Ray
 GRX   .GAPI     07 310 01 00                : Gamma Ray (Hires)
 ILD   .OHMM     07 120 45 00                : Deep Induction Resistivity
 ILM   .OHMM     07 120 44 00                : Medium Induction Resistivity
 SFL   .OHMM     07 220 04 00                : Spherically Focused Resistivity
 SP    .MV       07 010 01 00                : Spontaneous Potential
 RHOB  .KG/M3    45 350 02 00                : Bulk Density
 PE    .B/E      45 358 00 00                : Photoelectric Cross Section
~Parameter Information Section
#MNEM  .UNIT        Value                      Description
#------.------ ----------------------------- : -------------------------
 RUN   .            1                        : Run number
 GL    .M           821.809998               : Ground level elevation
 DREF  .            KB                       : Depth reference
 EREF  .M           826.099976               : Elevation of depth reference
 TDL   .M           1157.0                   : Total depth, logger
 TDD   .M           1157.0                   : Total depth, driller
 CSGL  .M           293.0                    : Casing bottom, logger
 CSGD  .M           293.0                    : Casing bottom, driller
 CSGS  .mm          219.10                   : Casing size
 CSGW  .Kg          219.10                   : Casing weight
 BS    .mm          200.00                   : Bit size
 MUD   .            GEL CHEM                 : Mud type
 MUDD  .kg/m3       1230.000                 : Mud density
 MUDV  .sec         81.000                   : Mud viscosity
 FL    .cc          7.500                    : Fluid loss rate
 PH    .            10.000                   : Mud pH
 MUDS  .            FLOW LINE                : Mud source
 RM    .OHMM        2.100                    : Resistivity of mud
 RMT   .C           12.0                     : Temperature of mud
 RMF   .OHMM        2.500                    : Resistivity of mud filtrate
 RMFT  .C           12.0                     : Temperature of mud filtrate
 RMC   .OHMM        1.900                    : Resistivity of mud cake
 RMCT  .C           12.0                     : Temperature of mud cake
 TMAX  .C           32.0                     : Maximum recorded temperature
 TIMC  .DAY/HR      OCT 10 2009 @ 16:00      : Date/Time circulation stopped
 TIMD  .DAY/HR      OCT 10 2009 @ 21:00      : Date/Time logger tagged bottom
 UNIT  .            TRUCK 134                : Logging unit_number
 BASE  .            MEDICINE HAT             : Home base of logging unit
 ENG   .            M. MacNEIL               : Recording Engineer
 WIT   .            R. BABBITT               : Witnessed by
~Other Information Section
#Run number  1
RUN #1: GRT / CNT / LDT / CST / PIT
LOGGER'S COMMENTS:
1) CALIPERS ORIENTED IN X-Y AXIS.
2) SFL IS ENVIRONMENTALLY CORRECTED USING AVCAL. 
3) NEUTRON POROSITY IS CALIPER CORRECTED USING NCAL.
4) CALIPERS READINGS VERIFIED IN CASING.
5) MUD RESISTIVITIES RECORDED AS MEASURED.
6) CENTRALIZERS DEPLOYED ON TOP AND BOTTOM OF CST.
7) CEMENT VOLUME CALCULATED USING 139.7mm PRODUCTION CASING
DATE AND TIME ON BOTTOM: OCT 10 2009 @ 21:00
TUCKER OPERATORS:
1) L. KNAUS
THANK YOU FOR USING TUCKER WIRELINE SERVICES CANADA.
#DEPT     DT       CALN     CALD     GR       GRX      ILD      ILM      LWTKG    NPDL     NPLS     NPSS     DPDL     DPLS     DPSS     SFL      SP       TT1      TT2      TT3      TT4      DRHO     RHOB     PE       
~TOPS_Definition
 TOPN.        :  Top Name     {S} 
 TOPT.M       :  Top Depth    {F} 
~TOPS_Data | TOPS_Definition
 Kcolorado            435.6  
 Kmed_hat             487.0  
 K2nd_ws              695.6  
 K2ws_ss              716.9  
 Kbfs                 795.0  
 Kbi_ss               825.3  
 Kbsl_colo            945.5  
 Kmannvl              953.0  
 Kglauc_ss            1057.7  
 Kmannvl_L            1094.9  
~Ascii         Log         Data
# ...
       802.440         311.42         108.17         109.90           5.97           6.07           7.58        -198.95        2445.11           3.12
       802.480         311.16         108.18         116.66           6.02           6.08           7.56        -198.93        2434.03           2.87
       802.520         311.41         108.27         104.94           6.07           6.10           7.55        -198.90        2453.64           2.73
       802.560         312.36         108.36          98.61           6.11           6.12           7.54        -198.87        2481.74           2.74
       802.600         313.94         108.29         112.05           6.16           6.14           7.55        -198.82        2488.79           2.85
       802.640         315.80         108.09         120.27           6.21           6.18           7.56        -198.78        2494.01           2.86
       802.680         317.53         107.73         115.05           6.25           6.21           7.60        -198.73        2494.99           2.82
       802.720         318.75         107.16         101.34           6.30           6.26           7.65        -198.68        2485.97           2.85
       802.760         319.31         106.47          93.25           6.34           6.31           7.72        -198.64        2483.97           2.93
       802.800         319.19         105.58         107.04           6.37           6.37           7.81        -198.60        2509.54           3.02
       802.840         318.57         104.57         120.92           6.39           6.43           7.92        -198.56        2545.35           3.05
       802.880         317.57         103.66         108.66           6.41           6.50           8.05        -198.52        2563.44           3.00
       802.920         316.35         102.75          91.40           6.42           6.57           8.20        -198.49        2556.64           2.90
       802.960         314.97         102.00          96.41           6.42           6.64           8.36        -198.46        2528.42           2.84
       803.000         313.54         101.63         103.83           6.41           6.70           8.52        -198.43        2501.73           2.80
       803.040         312.13         101.68          99.50           6.40           6.76           8.69        -198.41        2494.38           2.70
       803.080         310.72         102.07          89.40           6.38           6.81           8.85        -198.38        2512.43           2.61
       803.120         309.16         102.81          93.10           6.35           6.85           9.00        -198.36        2525.63           2.62
       803.160         307.17         103.67         113.86           6.32           6.87           9.13        -198.35        2515.10           2.68
       803.200         304.49         104.53         118.73           6.28           6.88           9.25        -198.35        2503.11           2.72
       803.240         301.11         105.22         105.58           6.24           6.86           9.33        -198.36        2500.11           2.68
       803.280         297.37         105.65          98.02           6.20           6.83           9.37        -198.38        2499.38           2.67
       803.320         293.85         105.72         108.57           6.16           6.77           9.37        -198.42        2520.94           2.71
       803.360         291.19         105.58         111.56           6.12           6.69           9.32        -198.46        2568.12           2.73
       803.400         289.75         105.41         108.45           6.09           6.60           9.22        -198.50        2634.68           2.73
       803.440         289.52         105.24         107.15           6.05           6.49           9.06        -198.56        2694.88           2.79
       803.480         290.23         105.36         100.05           6.02           6.37           8.86        -198.60        2693.14           2.87
       803.520         291.51         105.93          95.02           5.99           6.24           8.61        -198.65        2643.49           2.95
       803.560         293.10         107.01          96.52           5.96           6.11           8.33        -198.69        2626.81           3.07
       803.600         294.80         108.63         103.41           5.94           5.98           8.05        -198.74        2648.10           3.35
       803.640         296.58         110.56         112.32           5.92           5.85           7.76        -198.77        2667.68           3.86
       803.680         298.46         112.60         117.40           5.90           5.73           7.49        -198.80        2650.38           4.52
       803.720         300.56         114.52         120.00           5.87           5.63           7.24        -198.82        2596.85           4.65
       803.760         303.04         116.15         119.68           5.85           5.53           7.02        -198.85        2528.35           3.91
       803.800         306.04         117.22         123.13           5.83           5.45           6.84        -198.86        2474.49           3.20
       803.840         309.54         117.86         123.89           5.81           5.39           6.69        -198.88        2460.12           2.94
       803.880         313.42         118.11         117.66           5.79           5.34           6.59        -198.89        2470.39           2.89
       803.920         317.30         118.10         116.84           5.78           5.30           6.53        -198.89        2470.56           2.89
       803.960         320.79         118.06         120.48           5.76           5.28           6.50        -198.88        2451.35           2.99
       804.000         323.57         118.12         114.53           5.74           5.28           6.51        -198.86        2433.37           3.07
       804.040         325.46         118.39         109.25           5.72           5.30           6.55        -198.84        2434.96           3.06
       804.080         326.43         118.92         112.60           5.71           5.33           6.62        -198.80        2457.21           3.06
       804.120         326.61         119.54         120.56           5.69           5.37           6.71        -198.75        2481.19           3.07
       804.160         326.19         120.24         127.27           5.69           5.43           6.82        -198.70        2500.40           2.94
       804.200         325.38         120.82         127.18           5.69           5.49           6.93        -198.66        2503.78           2.83
       804.240         324.41         121.21         123.12           5.69           5.57           7.06        -198.62        2489.17           2.87
       804.280         323.47         121.38         120.68           5.70           5.66           7.19        -198.58        2473.25           2.92
       804.320         322.64         121.29         119.53           5.72           5.75           7.32        -198.54        2473.93           2.95
       804.360         321.85         121.08         121.72           5.75           5.85           7.45        -198.51        2485.07           3.05
       804.400         320.94         120.80         123.57           5.78           5.95           7.58        -198.49        2497.42           3.03
       804.440         319.73         120.57         122.08           5.82           6.05           7.70        -198.48        2507.59           2.87
       804.480         318.18         120.54         119.47           5.87           6.16           7.82        -198.48        2506.42           2.79
       804.520         316.41         120.82         116.23           5.92           6.26           7.93        -198.49        2502.74           2.82
       804.560         314.67         121.48         111.40           5.98           6.36           8.03        -198.50        2499.83           2.92
