~Version Information
# Data Copyright 2013 (C) geoLOGIC systems ltd.
 VERS  .     3.00 : LOG ASCII STANDARD -VERSION 3.0
 WRAP  .     NO   : ONE LINE PER DEPTH STEP
 DLM   .    SPACE : DELIMITING CHARACTER BETWEEN DATA COLUMNS
 PROD  .      geoLOGIC systems ltd.          : LAS Producer
 CREA  .      05/02/2025                     : LAS Creation date {MM/DD/YYYY}
~Well
#MNEM  .UNIT        Data                       Description of Mnemonic
#------.------ ----------------------------- : -------------------------
 STRT  .M           5.00000                  : START DEPTH
 STOP  .M        1159.90000                  : STOP DEPTH
 STEP  .M           0.10000                  : STEP DEPTH
 NULL  .           -9999.69                  : NULL VALUE
 COMP  .      KI EXPLORATION INC.            : Company
 WELL  .      KI RETLAW 15-6-13-18           : Well
 FLD   .      RETLAW                         : Field
 LOC   .      100/15-06-013-18W4/00          : Location
 PRVC  .      Alberta                        : Province
 SRVC  .      Tucker Wireline Services       : Service Company
 DATE  .      OCT 10 2009                    : Log Date
 UWI   .      100150601318W400               : Unique Well ID
 LIC   .      0412565                        : Licence Number
 LATI  .                                     : Latitude
 LONG  .                                     : Longitude
 GDAT  .                                     : Geodetic Datum
~Parameter
#MNEM  .UNIT        VALUE                      Description
#------.------ ----------------------------- : -------------------------
 RUN   .            1                        : Run number (100150601318W400_Ki_Retlaw_15-6-13-18_Final_Hires.las,100150601318W400_Ki_Retlaw_15-6-13-18_Final_Mai.las)
 GL    .M           821.809998               : Ground level elevation (100150601318W400_Ki_Retlaw_15-6-13-18_Final_Hires.las,100150601318W400_Ki_Retlaw_15-6-13-18_Final_Mai.las)
 DREF  .            KB                       : Depth reference (100150601318W400_Ki_Retlaw_15-6-13-18_Final_Hires.las,100150601318W400_Ki_Retlaw_15-6-13-18_Final_Mai.las)
 EREF  .M           826.099976               : Elevation of depth reference (100150601318W400_Ki_Retlaw_15-6-13-18_Final_Hires.las,100150601318W400_Ki_Retlaw_15-6-13-18_Final_Mai.las)
 TDL   .M           1157.0                   : Total depth, logger (100150601318W400_Ki_Retlaw_15-6-13-18_Final_Hires.las,100150601318W400_Ki_Retlaw_15-6-13-18_Final_Mai.las)
 TDD   .M           1157.0                   : Total depth, driller (100150601318W400_Ki_Retlaw_15-6-13-18_Final_Hires.las,100150601318W400_Ki_Retlaw_15-6-13-18_Final_Mai.las)
 CSGL  .M           293.0                    : Casing bottom, logger (100150601318W400_Ki_Retlaw_15-6-13-18_Final_Hires.las,100150601318W400_Ki_Retlaw_15-6-13-18_Final_Mai.las)
 CSGD  .M           293.0                    : Casing bottom, driller (100150601318W400_Ki_Retlaw_15-6-13-18_Final_Hires.las,100150601318W400_Ki_Retlaw_15-6-13-18_Final_Mai.las)
 CSGS  .mm          219.10                   : Casing size (100150601318W400_Ki_Retlaw_15-6-13-18_Final_Hires.las,100150601318W400_Ki_Retlaw_15-6-13-18_Final_Mai.las)
 CSGW  .Kg          219.10                   : Casing weight (100150601318W400_Ki_Retlaw_15-6-13-18_Final_Hires.las,100150601318W400_Ki_Retlaw_15-6-13-18_Final_Mai.las)
 BS    .mm          200.00                   : Bit size (100150601318W400_Ki_Retlaw_15-6-13-18_Final_Hires.las,100150601318W400_Ki_Retlaw_15-6-13-18_Final_Mai.las)
 MUD   .            GEL CHEM                 : Mud type (100150601318W400_Ki_Retlaw_15-6-13-18_Final_Hires.las,100150601318W400_Ki_Retlaw_15-6-13-18_Final_Mai.las)
 MUDD  .kg/m3       1230.000                 : Mud density (100150601318W400_Ki_Retlaw_15-6-13-18_Final_Hires.las,100150601318W400_Ki_Retlaw_15-6-13-18_Final_Mai.las)
 MUDV  .sec         81.000                   : Mud viscosity (100150601318W400_Ki_Retlaw_15-6-13-18_Final_Hires.las,100150601318W400_Ki_Retlaw_15-6-13-18_Final_Mai.las)
 FL    .cc          7.500                    : Fluid loss rate (100150601318W400_Ki_Retlaw_15-6-13-18_Final_Hires.las,100150601318W400_Ki_Retlaw_15-6-13-18_Final_Mai.las)
 PH    .            10.000                   : Mud pH (100150601318W400_Ki_Retlaw_15-6-13-18_Final_Hires.las,100150601318W400_Ki_Retlaw_15-6-13-18_Final_Mai.las)
 MUDS  .            FLOW LINE                : Mud source (100150601318W400_Ki_Retlaw_15-6-13-18_Final_Hires.las,100150601318W400_Ki_Retlaw_15-6-13-18_Final_Mai.las)
 RM    .OHMM        2.100                    : Resistivity of mud (100150601318W400_Ki_Retlaw_15-6-13-18_Final_Hires.las,100150601318W400_Ki_Retlaw_15-6-13-18_Final_Mai.las)
 RMT   .C           12.0                     : Temperature of mud (100150601318W400_Ki_Retlaw_15-6-13-18_Final_Hires.las,100150601318W400_Ki_Retlaw_15-6-13-18_Final_Mai.las)
 RMF   .OHMM        2.500                    : Resistivity of mud filtrate (100150601318W400_Ki_Retlaw_15-6-13-18_Final_Hires.las,100150601318W400_Ki_Retlaw_15-6-13-18_Final_Mai.las)
 RMFT  .C           12.0                     : Temperature of mud filtrate (100150601318W400_Ki_Retlaw_15-6-13-18_Final_Hires.las,100150601318W400_Ki_Retlaw_15-6-13-18_Final_Mai.las)
 RMC   .OHMM        1.900                    : Resistivity of mud cake (100150601318W400_Ki_Retlaw_15-6-13-18_Final_Hires.las,100150601318W400_Ki_Retlaw_15-6-13-18_Final_Mai.las)
 RMCT  .C           12.0                     : Temperature of mud cake (100150601318W400_Ki_Retlaw_15-6-13-18_Final_Hires.las,100150601318W400_Ki_Retlaw_15-6-13-18_Final_Mai.las)
 TMAX  .C           32.0                     : Maximum recorded temperature (100150601318W400_Ki_Retlaw_15-6-13-18_Final_Hires.las,100150601318W400_Ki_Retlaw_15-6-13-18_Final_Mai.las)
 TIMC  .DAY/HR      OCT 10 2009 @ 16:00      : Date/Time circulation stopped (100150601318W400_Ki_Retlaw_15-6-13-18_Final_Hires.las,100150601318W400_Ki_Retlaw_15-6-13-18_Final_Mai.las)
 TIMD  .DAY/HR      OCT 10 2009 @ 21:00      : Date/Time logger tagged bottom (100150601318W400_Ki_Retlaw_15-6-13-18_Final_Hires.las,100150601318W400_Ki_Retlaw_15-6-13-18_Final_Mai.las)
 UNIT  .            TRUCK 134                : Logging unit_number (100150601318W400_Ki_Retlaw_15-6-13-18_Final_Hires.las,100150601318W400_Ki_Retlaw_15-6-13-18_Final_Mai.las)
 BASE  .            MEDICINE HAT             : Home base of logging unit (100150601318W400_Ki_Retlaw_15-6-13-18_Final_Hires.las,100150601318W400_Ki_Retlaw_15-6-13-18_Final_Mai.las)
 ENG   .            M. MacNEIL               : Recording Engineer (100150601318W400_Ki_Retlaw_15-6-13-18_Final_Hires.las,100150601318W400_Ki_Retlaw_15-6-13-18_Final_Mai.las)
 WIT   .            R. BABBITT               : Witnessed by (100150601318W400_Ki_Retlaw_15-6-13-18_Final_Hires.las,100150601318W400_Ki_Retlaw_15-6-13-18_Final_Mai.las)
~Curve
#MNEM  .UNIT        API Codes                  Curve description
#----  .----     -------------               : -----------------------
 DEPT  .M                                    : 
 GRX   .GAPI     07 310 01 00                : Gamma Ray (Hires)
 DT    .US/M     60 520 32 00                : Delta Time
 GR    .GAPI     07 310 01 00                : Gamma Ray
 ILD   .OHMM     07 120 45 00                : Deep Induction Resistivity
 ILM   .OHMM     07 120 44 00                : Medium Induction Resistivity
 SFL   .OHMM     07 220 04 00                : Spherically Focused Resistivity
 SP    .MV       07 010 01 00                : Spontaneous Potential
 RHOB  .KG/M3    45 350 02 00                : Bulk Density
 PE    .B/E      45 358 00 00                : Photoelectric Cross Section
~TOPS_Definition
 TOPN.        :  Top Name     {S} 
 TOPT.M       :  Top Depth    {F} 
~TOPS_Data | TOPS_Definition
 Kcolorado            435.6  
 Kmed_hat             487.0  
 K2nd_ws              695.6  
 K2ws_ss              716.9  
 Kbfs                 795.0  
 Kbi_ss               825.3  
 Kbsl_colo            945.5  
 Kmannvl              953.0  
 Kglauc_ss            1057.7  
 Kmannvl_L            1094.9  
~Ascii        DEPT          GRX           DT           GR          ILD          ILM          SFL           SP         RHOB           PE
# ...
     469.40000     -9999.6900       302.3400       113.6000        15.3900        15.3100        18.0000      -204.0100      2501.9800         3.2500
     469.50000     -9999.6900       303.8100       118.0400        15.2700        15.0400        17.5400      -204.0000      2494.8000         3.2100
     469.60000     -9999.6900       306.1200       123.1000        15.1800        14.8500        17.1800      -203.9600      2492.5500         3.1100
     469.70000     -9999.6900       308.0700       126.6200        15.1000        14.7600        17.0200      -203.9000      2495.5300         3.0100
     469.80000     -9999.6900       309.7600       126.4900        15.0700        14.8000        17.1100      -203.8800      2500.2600         2.9500
     469.90000     -9999.6900       311.6700       123.2600        15.1000        14.9400        17.3700      -203.8800      2504.4399         2.9100
     470.00000     -9999.6900       312.9000       119.7800        15.1900        15.1900        17.7200      -203.8900      2506.1001         2.9000
     470.10000     -9999.6900       312.8000       118.0400        15.3600        15.5000        18.1000      -203.9200      2504.3101         2.8800
     470.20000     -9999.6900       312.6600       119.5200        15.5700        15.8600        18.4900      -203.9200      2497.5200         2.8900
     470.30000     -9999.6900       313.1400       124.4900        15.8200        16.2500        18.9200      -203.9100      2486.8000         2.9400
     470.40000     -9999.6900       312.9300       130.3600        16.0900        16.6600        19.3600      -203.8800      2478.8201         2.9900
     470.50000     -9999.6900       312.2400       133.2500        16.3500        17.0400        19.9200      -203.8500      2478.2800         3.0500
     470.60000     -9999.6900       311.9100       131.2700        16.5500        17.3500        20.6400      -203.8100      2486.9700         3.0900
     470.70000     -9999.6900       311.4400       126.3900        16.6500        17.5100        21.3400      -203.7400      2501.7400         3.1700
     470.80000     -9999.6900       307.7100       122.0000        16.6900        17.4700        21.6600      -203.6300      2520.2200         3.2800
     470.90000     -9999.6900       300.8000       122.4900        16.5900        17.2000        21.2700      -203.5000      2539.9099         3.4200
     471.00000     -9999.6900       295.8600       127.8000        16.3800        16.7200        20.3100      -203.4100      2549.8000         3.5800
     471.10000     -9999.6900       294.0800       134.0500        16.0800        16.1200        19.2200      -203.3900      2548.8401         3.6300
     471.20000     -9999.6900       293.9300       136.6500        15.7000        15.4500        18.2700      -203.4600      2537.0701         3.5800
     471.30000     -9999.6900       294.8900       134.6400        15.2600        14.7900        17.4900      -203.5200      2521.0901         3.4600
     471.40000     -9999.6900       298.9800       129.3000        14.7600        14.1700        16.7900      -203.5400      2506.6001         3.3500
     471.50000     -9999.6900       306.1000       124.8800        14.2700        13.6000        16.1400      -203.5300      2496.4500         3.2700
     471.60000     -9999.6900       311.8200       123.0000        13.8200        13.1000        15.5200      -203.4900      2492.4900         3.2000
     471.70000     -9999.6900       314.5500       122.7900        13.4100        12.6600        14.8900      -203.5100      2490.3601         3.1400
     471.80000     -9999.6900       315.7200       119.7000        13.0500        12.3100        14.2700      -203.5300      2488.9800         3.0600
     471.90000     -9999.6900       316.5900       115.6200        12.7800        12.0600        13.7700      -203.5700      2490.5901         2.9800
     472.00000     -9999.6900       317.9400       115.0800        12.5900        11.8900        13.4700      -203.5900      2497.2900         2.9100
     472.10000     -9999.6900       319.9600       119.4800        12.4500        11.8100        13.4200      -203.5900      2509.2000         2.8800
     472.20000     -9999.6900       321.3700       124.2300        12.4000        11.8100        13.5600      -203.5900      2520.4700         2.8600
     472.30000     -9999.6900       321.8500       127.5700        12.4300        11.8800        13.7500      -203.5700      2523.0100         2.8300
     472.40000     -9999.6900       322.6700       126.2000        12.5200        12.0200        13.9200      -203.5700      2518.4299         2.8200
     472.50000     -9999.6900       323.6500       119.4400        12.6800        12.2300        14.0700      -203.5600      2509.1001         2.8400
     472.60000     -9999.6900       324.0200       113.9700        12.8900        12.5100        14.2900      -203.5700      2498.7900         2.9000
     472.70000     -9999.6900       323.9000       119.0800        13.1200        12.8600        14.7000      -203.5900      2489.0801         3.0000
     472.80000     -9999.6900       323.9400       132.1100        13.3600        13.2600        15.3200      -203.6200      2474.7000         3.1200
     472.90000     -9999.6900       324.1700       143.1400        13.6000        13.6800        16.1200      -203.6700      2462.5701         3.2100
     473.00000     -9999.6900       323.4100       144.1800        13.8100        14.0600        16.9000      -203.7100      2457.4399         3.2600
     473.10000     -9999.6900       321.2300       138.4700        14.0100        14.3300        17.4100      -203.7300      2459.6299         3.2100
     473.20000     -9999.6900       318.4000       133.4500        14.1700        14.4600        17.5100      -203.7400      2466.8201         3.1200
     473.30000     -9999.6900       315.9900       134.4000        14.2700        14.4400        17.2300      -203.7400      2471.9099         3.0500
     473.40000     -9999.6900       315.1200       140.9200        14.2900        14.3000        16.7500      -203.7400      2477.5500         3.0300
     473.50000     -9999.6900       315.8500       147.2400        14.2400        14.0900        16.3000      -203.7400      2482.5000         3.0600
     473.60000     -9999.6900       316.7800       146.1200        14.0700        13.8400        16.0100      -203.7300      2489.0701         3.0900
     473.70000     -9999.6900       317.7800       136.1800        13.8200        13.5500        15.8400      -203.7100      2493.1299         3.0900
     473.80000     -9999.6900       318.8900       123.9000        13.5000        13.2200        15.6800      -203.6700      2491.2400         3.0700
     473.90000     -9999.6900       319.0100       116.1200        13.1600        12.8500        15.4100      -203.6000      2488.5400         3.0000
     474.00000     -9999.6900       318.4200       114.5200        12.8500        12.4300        14.9600      -203.5300      2486.6799         2.9400
     474.10000     -9999.6900       318.0300       117.2500        12.6000        12.0100        14.3300      -203.4700      2485.5100         2.8900
     474.20000     -9999.6900       317.8900       124.1500        12.4000        11.6400        13.6100      -203.4400      2485.4099         2.8900
     474.30000     -9999.6900       318.4900       132.4700        12.2600        11.3800        12.9600      -203.4200      2485.4900         2.9100
     474.40000     -9999.6900       320.6000       136.1100        12.1800        11.2500        12.6100      -203.4000      2489.5801         2.9200
     474.50000     -9999.6900       323.1900       130.3300        12.1500        11.2700        12.6300      -203.3900      2493.3201         2.9000
     474.60000     -9999.6900       324.6300       120.2600        12.1500        11.4300        12.9800      -203.4100      2492.9700         2.8800
     474.70000     -9999.6900       324.5300       113.8100        12.1800        11.6900        13.4800      -203.4500      2487.8899         2.8900
