~Version Information
# Data Copyright 2013 (C) geoLOGIC systems ltd.
 VERS  .     3.00 : LOG ASCII STANDARD -VERSION 3.0
 WRAP  .     NO   : ONE LINE PER DEPTH STEP
 DLM   .    SPACE : DELIMITING CHARACTER BETWEEN DATA COLUMNS
 PROD  .      geoLOGIC systems ltd.          : LAS Producer
 CREA  .      05/02/2025                     : LAS Creation date {MM/DD/YYYY}
~Well
#MNEM  .UNIT        Data                       Description of Mnemonic
#------.------ ----------------------------- : -------------------------
 STRT  .M           5.00000                  : START DEPTH
 STOP  .M        1159.90000                  : STOP DEPTH
 STEP  .M           0.10000                  : STEP DEPTH
 NULL  .           -9999.69                  : NULL VALUE
 COMP  .      KI EXPLORATION INC.            : Company
 WELL  .      KI RETLAW 15-6-13-18           : Well
 FLD   .      RETLAW                         : Field
 LOC   .      100/15-06-013-18W4/00          : Location
 PRVC  .      Alberta                        : Province
 SRVC  .      Tucker Wireline Services       : Service Company
 DATE  .      OCT 10 2009                    : Log Date
 UWI   .      100150601318W400               : Unique Well ID
 LIC   .      0412565                        : Licence Number
 LATI  .                                     : Latitude
 LONG  .                                     : Longitude
 GDAT  .                                     : Geodetic Datum
~Parameter
#MNEM  .UNIT        VALUE                      Description
#------.------ ----------------------------- : -------------------------
 RUN   .            1                        : Run number (100150601318W400_Ki_Retlaw_15-6-13-18_Final_Hires.las,100150601318W400_Ki_Retlaw_15-6-13-18_Final_Mai.las)
 GL    .M           821.809998               : Ground level elevation (100150601318W400_Ki_Retlaw_15-6-13-18_Final_Hires.las,100150601318W400_Ki_Retlaw_15-6-13-18_Final_Mai.las)
 DREF  .            KB                       : Depth reference (100150601318W400_Ki_Retlaw_15-6-13-18_Final_Hires.las,100150601318W400_Ki_Retlaw_15-6-13-18_Final_Mai.las)
 EREF  .M           826.099976               : Elevation of depth reference (100150601318W400_Ki_Retlaw_15-6-13-18_Final_Hires.las,100150601318W400_Ki_Retlaw_15-6-13-18_Final_Mai.las)
 TDL   .M           1157.0                   : Total depth, logger (100150601318W400_Ki_Retlaw_15-6-13-18_Final_Hires.las,100150601318W400_Ki_Retlaw_15-6-13-18_Final_Mai.las)
 TDD   .M           1157.0                   : Total depth, driller (100150601318W400_Ki_Retlaw_15-6-13-18_Final_Hires.las,100150601318W400_Ki_Retlaw_15-6-13-18_Final_Mai.las)
 CSGL  .M           293.0                    : Casing bottom, logger (100150601318W400_Ki_Retlaw_15-6-13-18_Final_Hires.las,100150601318W400_Ki_Retlaw_15-6-13-18_Final_Mai.las)
 CSGD  .M           293.0                    : Casing bottom, driller (100150601318W400_Ki_Retlaw_15-6-13-18_Final_Hires.las,100150601318W400_Ki_Retlaw_15-6-13-18_Final_Mai.las)
 CSGS  .mm          219.10                   : Casing size (100150601318W400_Ki_Retlaw_15-6-13-18_Final_Hires.las,100150601318W400_Ki_Retlaw_15-6-13-18_Final_Mai.las)
 CSGW  .Kg          219.10                   : Casing weight (100150601318W400_Ki_Retlaw_15-6-13-18_Final_Hires.las,100150601318W400_Ki_Retlaw_15-6-13-18_Final_Mai.las)
 BS    .mm          200.00                   : Bit size (100150601318W400_Ki_Retlaw_15-6-13-18_Final_Hires.las,100150601318W400_Ki_Retlaw_15-6-13-18_Final_Mai.las)
 MUD   .            GEL CHEM                 : Mud type (100150601318W400_Ki_Retlaw_15-6-13-18_Final_Hires.las,100150601318W400_Ki_Retlaw_15-6-13-18_Final_Mai.las)
 MUDD  .kg/m3       1230.000                 : Mud density (100150601318W400_Ki_Retlaw_15-6-13-18_Final_Hires.las,100150601318W400_Ki_Retlaw_15-6-13-18_Final_Mai.las)
 MUDV  .sec         81.000                   : Mud viscosity (100150601318W400_Ki_Retlaw_15-6-13-18_Final_Hires.las,100150601318W400_Ki_Retlaw_15-6-13-18_Final_Mai.las)
 FL    .cc          7.500                    : Fluid loss rate (100150601318W400_Ki_Retlaw_15-6-13-18_Final_Hires.las,100150601318W400_Ki_Retlaw_15-6-13-18_Final_Mai.las)
 PH    .            10.000                   : Mud pH (100150601318W400_Ki_Retlaw_15-6-13-18_Final_Hires.las,100150601318W400_Ki_Retlaw_15-6-13-18_Final_Mai.las)
 MUDS  .            FLOW LINE                : Mud source (100150601318W400_Ki_Retlaw_15-6-13-18_Final_Hires.las,100150601318W400_Ki_Retlaw_15-6-13-18_Final_Mai.las)
 RM    .OHMM        2.100                    : Resistivity of mud (100150601318W400_Ki_Retlaw_15-6-13-18_Final_Hires.las,100150601318W400_Ki_Retlaw_15-6-13-18_Final_Mai.las)
 RMT   .C           12.0                     : Temperature of mud (100150601318W400_Ki_Retlaw_15-6-13-18_Final_Hires.las,100150601318W400_Ki_Retlaw_15-6-13-18_Final_Mai.las)
 RMF   .OHMM        2.500                    : Resistivity of mud filtrate (100150601318W400_Ki_Retlaw_15-6-13-18_Final_Hires.las,100150601318W400_Ki_Retlaw_15-6-13-18_Final_Mai.las)
 RMFT  .C           12.0                     : Temperature of mud filtrate (100150601318W400_Ki_Retlaw_15-6-13-18_Final_Hires.las,100150601318W400_Ki_Retlaw_15-6-13-18_Final_Mai.las)
 RMC   .OHMM        1.900                    : Resistivity of mud cake (100150601318W400_Ki_Retlaw_15-6-13-18_Final_Hires.las,100150601318W400_Ki_Retlaw_15-6-13-18_Final_Mai.las)
 RMCT  .C           12.0                     : Temperature of mud cake (100150601318W400_Ki_Retlaw_15-6-13-18_Final_Hires.las,100150601318W400_Ki_Retlaw_15-6-13-18_Final_Mai.las)
 TMAX  .C           32.0                     : Maximum recorded temperature (100150601318W400_Ki_Retlaw_15-6-13-18_Final_Hires.las,100150601318W400_Ki_Retlaw_15-6-13-18_Final_Mai.las)
 TIMC  .DAY/HR      OCT 10 2009 @ 16:00      : Date/Time circulation stopped (100150601318W400_Ki_Retlaw_15-6-13-18_Final_Hires.las,100150601318W400_Ki_Retlaw_15-6-13-18_Final_Mai.las)
 TIMD  .DAY/HR      OCT 10 2009 @ 21:00      : Date/Time logger tagged bottom (100150601318W400_Ki_Retlaw_15-6-13-18_Final_Hires.las,100150601318W400_Ki_Retlaw_15-6-13-18_Final_Mai.las)
 UNIT  .            TRUCK 134                : Logging unit_number (100150601318W400_Ki_Retlaw_15-6-13-18_Final_Hires.las,100150601318W400_Ki_Retlaw_15-6-13-18_Final_Mai.las)
 BASE  .            MEDICINE HAT             : Home base of logging unit (100150601318W400_Ki_Retlaw_15-6-13-18_Final_Hires.las,100150601318W400_Ki_Retlaw_15-6-13-18_Final_Mai.las)
 ENG   .            M. MacNEIL               : Recording Engineer (100150601318W400_Ki_Retlaw_15-6-13-18_Final_Hires.las,100150601318W400_Ki_Retlaw_15-6-13-18_Final_Mai.las)
 WIT   .            R. BABBITT               : Witnessed by (100150601318W400_Ki_Retlaw_15-6-13-18_Final_Hires.las,100150601318W400_Ki_Retlaw_15-6-13-18_Final_Mai.las)
~Curve
#MNEM  .UNIT        API Codes                  Curve description
#----  .----     -------------               : -----------------------
 DEPT  .M                                    : 
 GRX   .GAPI     07 310 01 00                : Gamma Ray (Hires)
 DT    .US/M     60 520 32 00                : Delta Time
 GR    .GAPI     07 310 01 00                : Gamma Ray
 ILD   .OHMM     07 120 45 00                : Deep Induction Resistivity
 ILM   .OHMM     07 120 44 00                : Medium Induction Resistivity
 SFL   .OHMM     07 220 04 00                : Spherically Focused Resistivity
 SP    .MV       07 010 01 00                : Spontaneous Potential
 RHOB  .KG/M3    45 350 02 00                : Bulk Density
 PE    .B/E      45 358 00 00                : Photoelectric Cross Section
~TOPS_Definition
 TOPN.        :  Top Name     {S} 
 TOPT.M       :  Top Depth    {F} 
~TOPS_Data | TOPS_Definition
 Kcolorado            435.6  
 Kmed_hat             487.0  
 K2nd_ws              695.6  
 K2ws_ss              716.9  
 Kbfs                 795.0  
 Kbi_ss               825.3  
 Kbsl_colo            945.5  
 Kmannvl              953.0  
 Kglauc_ss            1057.7  
 Kmannvl_L            1094.9  
~Ascii        DEPT          GRX           DT           GR          ILD          ILM          SFL           SP         RHOB           PE
# ...
     615.20000     -9999.6900       301.5700       126.1700        11.6100        11.4200        12.5500      -203.9900      2465.8601         3.0300
     615.30000     -9999.6900       302.9500       131.9300        11.6500        11.4400        12.5700      -204.0100      2491.6699         3.0700
     615.40000     -9999.6900       304.3800       135.8500        11.6400        11.4800        12.6900      -204.0500      2511.9600         3.1200
     615.50000     -9999.6900       304.6500       136.5000        11.5800        11.5100        12.8500      -204.0700      2536.8999         3.1600
     615.60000     -9999.6900       303.6100       130.5400        11.5100        11.5300        13.0000      -204.0700      2548.2900         3.1800
     615.70000     -9999.6900       302.7900       120.4300        11.4500        11.5300        13.0900      -204.0700      2553.0100         3.1600
     615.80000     -9999.6900       302.6500       113.7500        11.4400        11.5000        13.0700      -204.0400      2557.1101         3.1200
     615.90000     -9999.6900       302.6300       114.2400        11.4800        11.4600        12.9300      -204.0000      2552.9299         3.0700
     616.00000     -9999.6900       301.7800       118.2500        11.5700        11.4500        12.7200      -203.9700      2563.6399         2.9900
     616.10000     -9999.6900       300.3600       120.6000        11.6900        11.5000        12.6100      -203.9600      2567.1899         2.9200
     616.20000     -9999.6900       299.5400       118.1900        11.8300        11.6100        12.7100      -203.9600      2569.8101         2.8700
     616.30000     -9999.6900       298.8600       110.3500        11.9500        11.8000        13.0500      -203.9800      2563.8701         2.8600
     616.40000     -9999.6900       298.1400       102.1000        12.0600        12.0400        13.5500      -203.9700      2545.0000         2.8700
     616.50000     -9999.6900       297.9500        99.5500        12.1700        12.3200        14.0500      -203.9300      2531.3401         2.8800
     616.60000     -9999.6900       298.7400       102.2700        12.2800        12.5800        14.4600      -203.9300      2520.0801         2.9000
     616.70000     -9999.6900       300.0600       106.2300        12.4200        12.8000        14.7200      -203.9400      2515.4600         2.9600
     616.80000     -9999.6900       301.1400       108.6600        12.5700        12.9600        14.8300      -203.9800      2517.8601         3.0200
     616.90000     -9999.6900       301.4900       108.5000        12.7200        13.0500        14.8200      -204.0000      2527.3501         3.0800
     617.00000     -9999.6900       301.3000       107.2400        12.9000        13.1000        14.7300      -203.9800      2536.9399         3.1200
     617.10000     -9999.6900       301.9400       108.3800        13.0300        13.1100        14.6000      -203.9700      2546.2400         3.1300
     617.20000     -9999.6900       303.2600       113.1400        13.1200        13.1200        14.5100      -203.9800      2541.3799         3.1500
     617.30000     -9999.6900       304.0100       117.6100        13.1600        13.1200        14.5100      -204.0200      2524.5801         3.1400
     617.40000     -9999.6900       304.2700       117.4700        13.1600        13.1300        14.6100      -204.0800      2507.6799         3.1300
     617.50000     -9999.6900       304.8000       115.1100        13.0700        13.1200        14.7800      -204.1000      2487.9299         3.1300
     617.60000     -9999.6900       304.6400       116.5600        12.9500        13.0800        14.9000      -204.0800      2486.3501         3.1200
     617.70000     -9999.6900       304.1400       125.0900        12.8400        13.0000        14.9100      -204.0600      2497.1899         3.1000
     617.80000     -9999.6900       303.3700       134.0200        12.7200        12.8600        14.7600      -204.0400      2508.6899         3.0200
     617.90000     -9999.6900       301.3700       136.0100        12.6300        12.6900        14.4400      -204.0500      2506.7600         2.9100
     618.00000     -9999.6900       299.3700       130.6900        12.5600        12.5000        14.0400      -204.0600      2485.7700         2.8000
     618.10000     -9999.6900       298.8200       124.2600        12.5300        12.3300        13.6500      -204.0800      2468.7800         2.7300
     618.20000     -9999.6900       299.1100       119.2000        12.5100        12.2000        13.4100      -204.1100      2467.1299         2.7300
     618.30000     -9999.6900       299.1100       115.1700        12.4600        12.1400        13.3700      -204.1100      2486.1499         2.7400
     618.40000     -9999.6900       298.8900       112.5100        12.4300        12.1400        13.5300      -204.0700      2520.2900         2.7700
     618.50000     -9999.6900       299.6900       114.3700        12.3900        12.1900        13.8100      -203.9900      2558.2300         2.8200
     618.60000     -9999.6900       302.0000       118.5000        12.3800        12.2900        14.1000      -203.8900      2577.9299         2.8700
     618.70000     -9999.6900       304.4900       119.1100        12.3800        12.4000        14.2900      -203.8200      2571.8701         2.9600
     618.80000     -9999.6900       306.1800       114.7700        12.4400        12.5200        14.3600      -203.7900      2558.8000         3.0400
     618.90000     -9999.6900       307.3700       111.6100        12.5500        12.6300        14.3600      -203.8200      2549.8799         3.1000
     619.00000     -9999.6900       308.0700       114.9500        12.7100        12.7500        14.3600      -203.8300      2547.4099         3.1200
     619.10000     -9999.6900       308.5700       122.1900        12.8700        12.8800        14.4300      -203.8200      2538.5601         3.0500
     619.20000     -9999.6900       309.4300       126.0000        13.0400        13.0300        14.6000      -203.7600      2521.6299         2.9900
     619.30000     -9999.6900       310.4600       122.5800        13.2300        13.2000        14.8600      -203.6800      2507.8799         2.9700
     619.40000     -9999.6900       310.9900       114.0800        13.3700        13.3900        15.2100      -203.6100      2497.2900         2.9900
     619.50000     -9999.6900       310.8500       104.5600        13.4700        13.5900        15.5900      -203.5800      2486.3301         3.0200
     619.60000     -9999.6900       310.3500        98.2900        13.5500        13.7900        15.9600      -203.6100      2479.5200         3.0400
     619.70000     -9999.6900       308.9700        98.1900        13.6000        13.9500        16.2500      -203.6400      2477.0801         3.0400
     619.80000     -9999.6900       306.4000       102.2100        13.6100        14.0500        16.3900      -203.6700      2479.6699         3.0100
     619.90000     -9999.6900       304.1100       107.9200        13.6100        14.0700        16.3700      -203.7000      2495.8701         2.9800
     620.00000     -9999.6900       302.6600       115.4300        13.6200        14.0000        16.1900      -203.7000      2509.3000         2.9400
     620.10000     -9999.6900       301.6200       121.7700        13.6400        13.8700        15.9100      -203.6900      2517.3999         2.9000
     620.20000     -9999.6900       301.4500       123.9100        13.6600        13.7000        15.6000      -203.6500      2517.6399         2.8900
     620.30000     -9999.6900       302.5600       125.2400        13.6600        13.5400        15.3400      -203.6000      2508.3501         2.9100
     620.40000     -9999.6900       304.6300       131.5000        13.6700        13.4400        15.1800      -203.5400      2503.1399         2.9600
     620.50000     -9999.6900       307.4100       139.5100        13.7000        13.4200        15.1600      -203.4900      2500.6599         2.9800
