~Version Information
# Data Copyright 2013 (C) geoLOGIC systems ltd.
 VERS  .     3.00 : LOG ASCII STANDARD -VERSION 3.0
 WRAP  .     NO   : ONE LINE PER DEPTH STEP
 DLM   .    SPACE : DELIMITING CHARACTER BETWEEN DATA COLUMNS
 PROD  .      geoLOGIC systems ltd.          : LAS Producer
 CREA  .      05/02/2025                     : LAS Creation date {MM/DD/YYYY}
~Well
#MNEM  .UNIT        Data                       Description of Mnemonic
#------.------ ----------------------------- : -------------------------
 STRT  .M           5.00000                  : START DEPTH
 STOP  .M        1159.90000                  : STOP DEPTH
 STEP  .M           0.10000                  : STEP DEPTH
 NULL  .           -9999.69                  : NULL VALUE
 COMP  .      KI EXPLORATION INC.            : Company
 WELL  .      KI RETLAW 15-6-13-18           : Well
 FLD   .      RETLAW                         : Field
 LOC   .      100/15-06-013-18W4/00          : Location
 PRVC  .      Alberta                        : Province
 SRVC  .      Tucker Wireline Services       : Service Company
 DATE  .      OCT 10 2009                    : Log Date
 UWI   .      100150601318W400               : Unique Well ID
 LIC   .      0412565                        : Licence Number
 LATI  .                                     : Latitude
 LONG  .                                     : Longitude
 GDAT  .                                     : Geodetic Datum
~Parameter
#MNEM  .UNIT        VALUE                      Description
#------.------ ----------------------------- : -------------------------
 RUN   .            1                        : Run number (100150601318W400_Ki_Retlaw_15-6-13-18_Final_Hires.las,100150601318W400_Ki_Retlaw_15-6-13-18_Final_Mai.las)
 GL    .M           821.809998               : Ground level elevation (100150601318W400_Ki_Retlaw_15-6-13-18_Final_Hires.las,100150601318W400_Ki_Retlaw_15-6-13-18_Final_Mai.las)
 DREF  .            KB                       : Depth reference (100150601318W400_Ki_Retlaw_15-6-13-18_Final_Hires.las,100150601318W400_Ki_Retlaw_15-6-13-18_Final_Mai.las)
 EREF  .M           826.099976               : Elevation of depth reference (100150601318W400_Ki_Retlaw_15-6-13-18_Final_Hires.las,100150601318W400_Ki_Retlaw_15-6-13-18_Final_Mai.las)
 TDL   .M           1157.0                   : Total depth, logger (100150601318W400_Ki_Retlaw_15-6-13-18_Final_Hires.las,100150601318W400_Ki_Retlaw_15-6-13-18_Final_Mai.las)
 TDD   .M           1157.0                   : Total depth, driller (100150601318W400_Ki_Retlaw_15-6-13-18_Final_Hires.las,100150601318W400_Ki_Retlaw_15-6-13-18_Final_Mai.las)
 CSGL  .M           293.0                    : Casing bottom, logger (100150601318W400_Ki_Retlaw_15-6-13-18_Final_Hires.las,100150601318W400_Ki_Retlaw_15-6-13-18_Final_Mai.las)
 CSGD  .M           293.0                    : Casing bottom, driller (100150601318W400_Ki_Retlaw_15-6-13-18_Final_Hires.las,100150601318W400_Ki_Retlaw_15-6-13-18_Final_Mai.las)
 CSGS  .mm          219.10                   : Casing size (100150601318W400_Ki_Retlaw_15-6-13-18_Final_Hires.las,100150601318W400_Ki_Retlaw_15-6-13-18_Final_Mai.las)
 CSGW  .Kg          219.10                   : Casing weight (100150601318W400_Ki_Retlaw_15-6-13-18_Final_Hires.las,100150601318W400_Ki_Retlaw_15-6-13-18_Final_Mai.las)
 BS    .mm          200.00                   : Bit size (100150601318W400_Ki_Retlaw_15-6-13-18_Final_Hires.las,100150601318W400_Ki_Retlaw_15-6-13-18_Final_Mai.las)
 MUD   .            GEL CHEM                 : Mud type (100150601318W400_Ki_Retlaw_15-6-13-18_Final_Hires.las,100150601318W400_Ki_Retlaw_15-6-13-18_Final_Mai.las)
 MUDD  .kg/m3       1230.000                 : Mud density (100150601318W400_Ki_Retlaw_15-6-13-18_Final_Hires.las,100150601318W400_Ki_Retlaw_15-6-13-18_Final_Mai.las)
 MUDV  .sec         81.000                   : Mud viscosity (100150601318W400_Ki_Retlaw_15-6-13-18_Final_Hires.las,100150601318W400_Ki_Retlaw_15-6-13-18_Final_Mai.las)
 FL    .cc          7.500                    : Fluid loss rate (100150601318W400_Ki_Retlaw_15-6-13-18_Final_Hires.las,100150601318W400_Ki_Retlaw_15-6-13-18_Final_Mai.las)
 PH    .            10.000                   : Mud pH (100150601318W400_Ki_Retlaw_15-6-13-18_Final_Hires.las,100150601318W400_Ki_Retlaw_15-6-13-18_Final_Mai.las)
 MUDS  .            FLOW LINE                : Mud source (100150601318W400_Ki_Retlaw_15-6-13-18_Final_Hires.las,100150601318W400_Ki_Retlaw_15-6-13-18_Final_Mai.las)
 RM    .OHMM        2.100                    : Resistivity of mud (100150601318W400_Ki_Retlaw_15-6-13-18_Final_Hires.las,100150601318W400_Ki_Retlaw_15-6-13-18_Final_Mai.las)
 RMT   .C           12.0                     : Temperature of mud (100150601318W400_Ki_Retlaw_15-6-13-18_Final_Hires.las,100150601318W400_Ki_Retlaw_15-6-13-18_Final_Mai.las)
 RMF   .OHMM        2.500                    : Resistivity of mud filtrate (100150601318W400_Ki_Retlaw_15-6-13-18_Final_Hires.las,100150601318W400_Ki_Retlaw_15-6-13-18_Final_Mai.las)
 RMFT  .C           12.0                     : Temperature of mud filtrate (100150601318W400_Ki_Retlaw_15-6-13-18_Final_Hires.las,100150601318W400_Ki_Retlaw_15-6-13-18_Final_Mai.las)
 RMC   .OHMM        1.900                    : Resistivity of mud cake (100150601318W400_Ki_Retlaw_15-6-13-18_Final_Hires.las,100150601318W400_Ki_Retlaw_15-6-13-18_Final_Mai.las)
 RMCT  .C           12.0                     : Temperature of mud cake (100150601318W400_Ki_Retlaw_15-6-13-18_Final_Hires.las,100150601318W400_Ki_Retlaw_15-6-13-18_Final_Mai.las)
 TMAX  .C           32.0                     : Maximum recorded temperature (100150601318W400_Ki_Retlaw_15-6-13-18_Final_Hires.las,100150601318W400_Ki_Retlaw_15-6-13-18_Final_Mai.las)
 TIMC  .DAY/HR      OCT 10 2009 @ 16:00      : Date/Time circulation stopped (100150601318W400_Ki_Retlaw_15-6-13-18_Final_Hires.las,100150601318W400_Ki_Retlaw_15-6-13-18_Final_Mai.las)
 TIMD  .DAY/HR      OCT 10 2009 @ 21:00      : Date/Time logger tagged bottom (100150601318W400_Ki_Retlaw_15-6-13-18_Final_Hires.las,100150601318W400_Ki_Retlaw_15-6-13-18_Final_Mai.las)
 UNIT  .            TRUCK 134                : Logging unit_number (100150601318W400_Ki_Retlaw_15-6-13-18_Final_Hires.las,100150601318W400_Ki_Retlaw_15-6-13-18_Final_Mai.las)
 BASE  .            MEDICINE HAT             : Home base of logging unit (100150601318W400_Ki_Retlaw_15-6-13-18_Final_Hires.las,100150601318W400_Ki_Retlaw_15-6-13-18_Final_Mai.las)
 ENG   .            M. MacNEIL               : Recording Engineer (100150601318W400_Ki_Retlaw_15-6-13-18_Final_Hires.las,100150601318W400_Ki_Retlaw_15-6-13-18_Final_Mai.las)
 WIT   .            R. BABBITT               : Witnessed by (100150601318W400_Ki_Retlaw_15-6-13-18_Final_Hires.las,100150601318W400_Ki_Retlaw_15-6-13-18_Final_Mai.las)
~Curve
#MNEM  .UNIT        API Codes                  Curve description
#----  .----     -------------               : -----------------------
 DEPT  .M                                    : 
 GRX   .GAPI     07 310 01 00                : Gamma Ray (Hires)
 DT    .US/M     60 520 32 00                : Delta Time
 GR    .GAPI     07 310 01 00                : Gamma Ray
 ILD   .OHMM     07 120 45 00                : Deep Induction Resistivity
 ILM   .OHMM     07 120 44 00                : Medium Induction Resistivity
 SFL   .OHMM     07 220 04 00                : Spherically Focused Resistivity
 SP    .MV       07 010 01 00                : Spontaneous Potential
 RHOB  .KG/M3    45 350 02 00                : Bulk Density
 PE    .B/E      45 358 00 00                : Photoelectric Cross Section
~TOPS_Definition
 TOPN.        :  Top Name     {S} 
 TOPT.M       :  Top Depth    {F} 
~TOPS_Data | TOPS_Definition
 Kcolorado            435.6  
 Kmed_hat             487.0  
 K2nd_ws              695.6  
 K2ws_ss              716.9  
 Kbfs                 795.0  
 Kbi_ss               825.3  
 Kbsl_colo            945.5  
 Kmannvl              953.0  
 Kglauc_ss            1057.7  
 Kmannvl_L            1094.9  
~Ascii        DEPT          GRX           DT           GR          ILD          ILM          SFL           SP         RHOB           PE
# ...
     690.80000     -9999.6900       308.0100       121.2400        11.5400        11.3000        12.9900      -201.8400      2522.8501         2.8900
     690.90000     -9999.6900       309.5800       120.2300        11.4900        11.1700        12.8000      -201.8500      2525.4800         2.8600
     691.00000     -9999.6900       309.9100       122.0400        11.4400        11.0800        12.6700      -201.8500      2528.5300         2.8900
     691.10000     -9999.6900       309.9100       129.6800        11.3800        11.0300        12.6300      -201.8200      2528.9199         2.9800
     691.20000     -9999.6900       310.6200       136.4900        11.3200        11.0100        12.6800      -201.7900      2522.8000         3.1100
     691.30000     -9999.6900       311.4400       134.9900        11.2700        11.0300        12.8000      -201.7500      2512.0500         3.2100
     691.40000     -9999.6900       311.9500       127.6600        11.2300        11.0700        12.9600      -201.7300      2495.8301         3.2500
     691.50000     -9999.6900       311.7100       119.2000        11.2000        11.1200        13.1000      -201.7000      2479.8501         3.1600
     691.60000     -9999.6900       311.2300       115.3200        11.1600        11.1700        13.1900      -201.6500      2462.9600         3.0100
     691.70000     -9999.6900       311.6600       117.7400        11.1500        11.2000        13.2100      -201.5900      2449.8301         2.8800
     691.80000     -9999.6900       312.4300       124.6300        11.1400        11.2000        13.1900      -201.5100      2443.6699         2.8100
     691.90000     -9999.6900       312.3200       129.9200        11.1400        11.1600        13.1000      -201.4700      2448.6001         2.8200
     692.00000     -9999.6900       312.7500       129.6100        11.1400        11.0900        12.9800      -201.4500      2465.8701         2.8600
     692.10000     -9999.6900       315.0900       122.8800        11.1400        10.9900        12.8500      -201.4400      2481.3301         2.8900
     692.20000     -9999.6900       318.0000       118.3700        11.1300        10.8900        12.7700      -201.4700      2493.9500         2.9000
     692.30000     -9999.6900       320.0200       121.7300        11.1200        10.8000        12.7500      -201.5000      2506.9399         2.8900
     692.40000     -9999.6900       321.6200       129.7400        11.1100        10.7400        12.8300      -201.5600      2522.0300         2.8700
     692.50000     -9999.6900       323.7300       135.0700        11.0800        10.7100        12.9700      -201.5900      2535.1299         2.8500
     692.60000     -9999.6900       324.4700       136.6300        11.0500        10.7100        13.0900      -201.6000      2534.6799         2.8300
     692.70000     -9999.6900       323.3700       134.2600        11.0200        10.7400        13.1500      -201.6100      2525.0000         2.8400
     692.80000     -9999.6900       322.4400       130.1800        11.0000        10.7900        13.1500      -201.5800      2509.9800         2.8700
     692.90000     -9999.6900       321.9600       126.5700        10.9900        10.8400        13.1500      -201.5400      2501.9099         2.9000
     693.00000     -9999.6900       321.4200       125.6800        10.9800        10.9000        13.2000      -201.4800      2499.6799         2.9100
     693.10000     -9999.6900       320.9700       127.1000        11.0000        10.9500        13.2600      -201.4200      2497.5601         2.8900
     693.20000     -9999.6900       321.2100       129.2600        11.0300        10.9900        13.3200      -201.3800      2494.0200         2.8700
     693.30000     -9999.6900       321.7500       129.8900        11.0800        11.0400        13.3300      -201.3000      2490.5000         2.8600
     693.40000     -9999.6900       321.6000       129.6100        11.1400        11.1000        13.3100      -201.2300      2491.3301         2.8200
     693.50000     -9999.6900       321.0600       130.0300        11.2000        11.1800        13.3400      -201.1900      2492.5801         2.8200
     693.60000     -9999.6900       320.2900       131.9900        11.2900        11.2900        13.4700      -201.1900      2490.9700         2.8300
     693.70000     -9999.6900       319.2200       134.9800        11.3800        11.4300        13.7100      -201.2300      2489.7900         2.8500
     693.80000     -9999.6900       318.9300       137.9200        11.4500        11.5800        14.0100      -201.3100      2491.1899         2.8500
     693.90000     -9999.6900       318.5100       137.6500        11.5100        11.7400        14.3300      -201.4000      2497.2400         2.7800
     694.00000     -9999.6900       316.0000       133.7600        11.5800        11.8700        14.5800      -201.4600      2502.7700         2.7400
     694.10000     -9999.6900       312.9300       128.8500        11.6700        11.9700        14.7100      -201.4400      2506.6101         2.7300
     694.20000     -9999.6900       311.3100       126.5500        11.7500        12.0300        14.7100      -201.3600      2505.4199         2.7800
     694.30000     -9999.6900       311.1700       126.5500        11.8200        12.0600        14.6300      -201.2700      2500.2800         2.8600
     694.40000     -9999.6900       311.8700       125.4800        11.8900        12.0600        14.5700      -201.1700      2494.3601         2.9200
     694.50000     -9999.6900       312.6400       123.0400        11.9300        12.0500        14.5300      -201.1000      2487.7100         2.9500
     694.60000     -9999.6900       313.1200       123.4200        11.9500        12.0400        14.5300      -201.0600      2485.4900         2.9500
     694.70000     -9999.6900       313.6700       128.4200        11.9300        12.0300        14.5400      -201.0500      2489.7300         2.9000
     694.80000     -9999.6900       314.1800       135.0300        11.8900        12.0200        14.5300      -201.0600      2497.3999         2.8400
     694.90000     -9999.6900       314.3900       139.0300        11.8000        11.9900        14.5100      -201.0800      2507.2300         2.7600
     695.00000     -9999.6900       314.8300       139.2400        11.6800        11.9300        14.5100      -201.1100      2513.5901         2.7000
     695.10000     -9999.6900       314.8200       134.9400        11.5400        11.8100        14.4900      -201.1200      2514.0000         2.7000
     695.20000     -9999.6900       313.7000       127.7800        11.4100        11.6300        14.3900      -201.1200      2511.9299         2.7400
     695.30000     -9999.6900       312.4700       120.5000        11.2700        11.3900        14.1300      -201.1000      2505.0100         2.8200
     695.40000     -9999.6900       312.4200       116.6800        11.1400        11.1100        13.6900      -201.1000      2498.1499         2.8900
     695.50000     -9999.6900       313.1400       115.7100        11.0200        10.8300        13.1600      -201.1300      2492.8201         2.8900
     695.60000     -9999.6900       314.3600       117.0200        10.9000        10.5700        12.6600      -201.1900      2486.7300         2.8500
     695.70000     -9999.6900       316.7400       120.0400        10.7800        10.3600        12.2900      -201.2400      2480.0500         2.7900
     695.80000     -9999.6900       321.0500       124.1400        10.6600        10.2100        12.0600      -201.2400      2473.9900         2.7200
     695.90000     -9999.6900       325.2000       127.5300        10.5400        10.1200        11.9900      -201.2100      2470.6101         2.6600
     696.00000     -9999.6900       327.8300       129.6800        10.4200        10.0700        12.0000      -201.1600      2470.6899         2.6100
     696.10000     -9999.6900       329.1900       130.9700        10.3100        10.0400        12.0100      -201.1100      2474.9299         2.6000
