~Version Information
# Data Copyright 2013 (C) geoLOGIC systems ltd.
 VERS  .     3.00 : LOG ASCII STANDARD -VERSION 3.0
 WRAP  .     NO   : ONE LINE PER DEPTH STEP
 DLM   .    SPACE : DELIMITING CHARACTER BETWEEN DATA COLUMNS
 PROD  .      geoLOGIC systems ltd.          : LAS Producer
 CREA  .      05/02/2025                     : LAS Creation date {MM/DD/YYYY}
~Well
#MNEM  .UNIT        Data                       Description of Mnemonic
#------.------ ----------------------------- : -------------------------
 STRT  .M           5.00000                  : START DEPTH
 STOP  .M        1159.90000                  : STOP DEPTH
 STEP  .M           0.10000                  : STEP DEPTH
 NULL  .           -9999.69                  : NULL VALUE
 COMP  .      KI EXPLORATION INC.            : Company
 WELL  .      KI RETLAW 15-6-13-18           : Well
 FLD   .      RETLAW                         : Field
 LOC   .      100/15-06-013-18W4/00          : Location
 PRVC  .      Alberta                        : Province
 SRVC  .      Tucker Wireline Services       : Service Company
 DATE  .      OCT 10 2009                    : Log Date
 UWI   .      100150601318W400               : Unique Well ID
 LIC   .      0412565                        : Licence Number
 LATI  .                                     : Latitude
 LONG  .                                     : Longitude
 GDAT  .                                     : Geodetic Datum
~Parameter
#MNEM  .UNIT        VALUE                      Description
#------.------ ----------------------------- : -------------------------
 RUN   .            1                        : Run number (100150601318W400_Ki_Retlaw_15-6-13-18_Final_Hires.las,100150601318W400_Ki_Retlaw_15-6-13-18_Final_Mai.las)
 GL    .M           821.809998               : Ground level elevation (100150601318W400_Ki_Retlaw_15-6-13-18_Final_Hires.las,100150601318W400_Ki_Retlaw_15-6-13-18_Final_Mai.las)
 DREF  .            KB                       : Depth reference (100150601318W400_Ki_Retlaw_15-6-13-18_Final_Hires.las,100150601318W400_Ki_Retlaw_15-6-13-18_Final_Mai.las)
 EREF  .M           826.099976               : Elevation of depth reference (100150601318W400_Ki_Retlaw_15-6-13-18_Final_Hires.las,100150601318W400_Ki_Retlaw_15-6-13-18_Final_Mai.las)
 TDL   .M           1157.0                   : Total depth, logger (100150601318W400_Ki_Retlaw_15-6-13-18_Final_Hires.las,100150601318W400_Ki_Retlaw_15-6-13-18_Final_Mai.las)
 TDD   .M           1157.0                   : Total depth, driller (100150601318W400_Ki_Retlaw_15-6-13-18_Final_Hires.las,100150601318W400_Ki_Retlaw_15-6-13-18_Final_Mai.las)
 CSGL  .M           293.0                    : Casing bottom, logger (100150601318W400_Ki_Retlaw_15-6-13-18_Final_Hires.las,100150601318W400_Ki_Retlaw_15-6-13-18_Final_Mai.las)
 CSGD  .M           293.0                    : Casing bottom, driller (100150601318W400_Ki_Retlaw_15-6-13-18_Final_Hires.las,100150601318W400_Ki_Retlaw_15-6-13-18_Final_Mai.las)
 CSGS  .mm          219.10                   : Casing size (100150601318W400_Ki_Retlaw_15-6-13-18_Final_Hires.las,100150601318W400_Ki_Retlaw_15-6-13-18_Final_Mai.las)
 CSGW  .Kg          219.10                   : Casing weight (100150601318W400_Ki_Retlaw_15-6-13-18_Final_Hires.las,100150601318W400_Ki_Retlaw_15-6-13-18_Final_Mai.las)
 BS    .mm          200.00                   : Bit size (100150601318W400_Ki_Retlaw_15-6-13-18_Final_Hires.las,100150601318W400_Ki_Retlaw_15-6-13-18_Final_Mai.las)
 MUD   .            GEL CHEM                 : Mud type (100150601318W400_Ki_Retlaw_15-6-13-18_Final_Hires.las,100150601318W400_Ki_Retlaw_15-6-13-18_Final_Mai.las)
 MUDD  .kg/m3       1230.000                 : Mud density (100150601318W400_Ki_Retlaw_15-6-13-18_Final_Hires.las,100150601318W400_Ki_Retlaw_15-6-13-18_Final_Mai.las)
 MUDV  .sec         81.000                   : Mud viscosity (100150601318W400_Ki_Retlaw_15-6-13-18_Final_Hires.las,100150601318W400_Ki_Retlaw_15-6-13-18_Final_Mai.las)
 FL    .cc          7.500                    : Fluid loss rate (100150601318W400_Ki_Retlaw_15-6-13-18_Final_Hires.las,100150601318W400_Ki_Retlaw_15-6-13-18_Final_Mai.las)
 PH    .            10.000                   : Mud pH (100150601318W400_Ki_Retlaw_15-6-13-18_Final_Hires.las,100150601318W400_Ki_Retlaw_15-6-13-18_Final_Mai.las)
 MUDS  .            FLOW LINE                : Mud source (100150601318W400_Ki_Retlaw_15-6-13-18_Final_Hires.las,100150601318W400_Ki_Retlaw_15-6-13-18_Final_Mai.las)
 RM    .OHMM        2.100                    : Resistivity of mud (100150601318W400_Ki_Retlaw_15-6-13-18_Final_Hires.las,100150601318W400_Ki_Retlaw_15-6-13-18_Final_Mai.las)
 RMT   .C           12.0                     : Temperature of mud (100150601318W400_Ki_Retlaw_15-6-13-18_Final_Hires.las,100150601318W400_Ki_Retlaw_15-6-13-18_Final_Mai.las)
 RMF   .OHMM        2.500                    : Resistivity of mud filtrate (100150601318W400_Ki_Retlaw_15-6-13-18_Final_Hires.las,100150601318W400_Ki_Retlaw_15-6-13-18_Final_Mai.las)
 RMFT  .C           12.0                     : Temperature of mud filtrate (100150601318W400_Ki_Retlaw_15-6-13-18_Final_Hires.las,100150601318W400_Ki_Retlaw_15-6-13-18_Final_Mai.las)
 RMC   .OHMM        1.900                    : Resistivity of mud cake (100150601318W400_Ki_Retlaw_15-6-13-18_Final_Hires.las,100150601318W400_Ki_Retlaw_15-6-13-18_Final_Mai.las)
 RMCT  .C           12.0                     : Temperature of mud cake (100150601318W400_Ki_Retlaw_15-6-13-18_Final_Hires.las,100150601318W400_Ki_Retlaw_15-6-13-18_Final_Mai.las)
 TMAX  .C           32.0                     : Maximum recorded temperature (100150601318W400_Ki_Retlaw_15-6-13-18_Final_Hires.las,100150601318W400_Ki_Retlaw_15-6-13-18_Final_Mai.las)
 TIMC  .DAY/HR      OCT 10 2009 @ 16:00      : Date/Time circulation stopped (100150601318W400_Ki_Retlaw_15-6-13-18_Final_Hires.las,100150601318W400_Ki_Retlaw_15-6-13-18_Final_Mai.las)
 TIMD  .DAY/HR      OCT 10 2009 @ 21:00      : Date/Time logger tagged bottom (100150601318W400_Ki_Retlaw_15-6-13-18_Final_Hires.las,100150601318W400_Ki_Retlaw_15-6-13-18_Final_Mai.las)
 UNIT  .            TRUCK 134                : Logging unit_number (100150601318W400_Ki_Retlaw_15-6-13-18_Final_Hires.las,100150601318W400_Ki_Retlaw_15-6-13-18_Final_Mai.las)
 BASE  .            MEDICINE HAT             : Home base of logging unit (100150601318W400_Ki_Retlaw_15-6-13-18_Final_Hires.las,100150601318W400_Ki_Retlaw_15-6-13-18_Final_Mai.las)
 ENG   .            M. MacNEIL               : Recording Engineer (100150601318W400_Ki_Retlaw_15-6-13-18_Final_Hires.las,100150601318W400_Ki_Retlaw_15-6-13-18_Final_Mai.las)
 WIT   .            R. BABBITT               : Witnessed by (100150601318W400_Ki_Retlaw_15-6-13-18_Final_Hires.las,100150601318W400_Ki_Retlaw_15-6-13-18_Final_Mai.las)
~Curve
#MNEM  .UNIT        API Codes                  Curve description
#----  .----     -------------               : -----------------------
 DEPT  .M                                    : 
 GRX   .GAPI     07 310 01 00                : Gamma Ray (Hires)
 DT    .US/M     60 520 32 00                : Delta Time
 GR    .GAPI     07 310 01 00                : Gamma Ray
 ILD   .OHMM     07 120 45 00                : Deep Induction Resistivity
 ILM   .OHMM     07 120 44 00                : Medium Induction Resistivity
 SFL   .OHMM     07 220 04 00                : Spherically Focused Resistivity
 SP    .MV       07 010 01 00                : Spontaneous Potential
 RHOB  .KG/M3    45 350 02 00                : Bulk Density
 PE    .B/E      45 358 00 00                : Photoelectric Cross Section
~TOPS_Definition
 TOPN.        :  Top Name     {S} 
 TOPT.M       :  Top Depth    {F} 
~TOPS_Data | TOPS_Definition
 Kcolorado            435.6  
 Kmed_hat             487.0  
 K2nd_ws              695.6  
 K2ws_ss              716.9  
 Kbfs                 795.0  
 Kbi_ss               825.3  
 Kbsl_colo            945.5  
 Kmannvl              953.0  
 Kglauc_ss            1057.7  
 Kmannvl_L            1094.9  
~Ascii        DEPT          GRX           DT           GR          ILD          ILM          SFL           SP         RHOB           PE
# ...
     393.80000     -9999.6900       316.9600        84.2500         6.2900         5.7500         6.0600      -202.2600      2437.3401         2.9500
     393.90000     -9999.6900       318.4000        81.0200         6.1200         5.5500         5.8500      -202.2000      2434.4800         2.9300
     394.00000     -9999.6900       323.0600        82.6600         5.9500         5.3700         5.7200      -202.1100      2427.6599         2.9300
     394.10000     -9999.6900       329.9700        90.2100         5.7900         5.2100         5.6100      -202.0000      2418.6201         3.0000
     394.20000     -9999.6900       334.9600       100.5000         5.6300         5.0800         5.4900      -201.9100      2412.1799         3.0800
     394.30000     -9999.6900       336.9300       110.4700         5.5100         4.9700         5.3400      -201.8500      2409.1399         3.1700
     394.40000     -9999.6900       338.1300       115.0000         5.4200         4.9000         5.1900      -201.8100      2408.9600         3.2100
     394.50000     -9999.6900       339.6900       110.2400         5.3600         4.8600         5.0800      -201.7500      2412.3101         3.2100
     394.60000     -9999.6900       341.6700       102.0700         5.3500         4.8600         5.0400      -201.7000      2417.4800         3.1700
     394.70000     -9999.6900       344.5600        99.2900         5.3600         4.9100         5.1200      -201.6600      2424.0500         3.0900
     394.80000     -9999.6900       347.5200        99.2700         5.4000         5.0000         5.3600      -201.6500      2430.6599         3.0600
     394.90000     -9999.6900       346.8200        94.7300         5.5000         5.1300         5.7100      -201.6400      2435.0500         3.1200
     395.00000     -9999.6900       338.7400        87.7500         5.6600         5.2900         6.0300      -201.6300      2437.0400         3.2500
     395.10000     -9999.6900       328.2600        84.4200         5.8700         5.4900         6.1800      -201.6300      2434.1799         3.3700
     395.20000     -9999.6900       323.5600        84.9800         6.1200         5.7600         6.2000      -201.6200      2427.3401         3.3800
     395.30000     -9999.6900       322.9500        87.7900         6.4500         6.1000         6.3600      -201.6600      2420.3601         3.2900
     395.40000     -9999.6900       321.0100        91.6600         6.8200         6.5700         6.8800      -201.7100      2421.7500         3.1600
     395.50000     -9999.6900       319.9800        93.6100         7.2100         7.1400         7.8100      -201.8000      2432.0200         3.0700
     395.60000     -9999.6900       322.9300        91.2400         7.5900         7.8100         8.8700      -201.9100      2450.9700         3.0000
     395.70000     -9999.6900       324.8100        87.6500         8.0000         8.5300         9.7300      -202.0200      2467.7600         2.9600
     395.80000     -9999.6900       320.0700        87.5300         8.4600         9.2100        10.2400      -202.1300      2477.1001         2.9400
     395.90000     -9999.6900       311.7600        90.1700         8.9100         9.7800        10.4700      -202.2600      2479.8401         2.9000
     396.00000     -9999.6900       305.0200        92.7100         9.3600        10.2100        10.6100      -202.4100      2480.5400         2.8500
     396.10000     -9999.6900       301.5400        93.7100         9.8100        10.5000        10.7700      -202.5900      2485.1899         2.8000
     396.20000     -9999.6900       301.7100        92.0500        10.1900        10.7100        10.9500      -202.7900      2486.8999         2.7800
     396.30000     -9999.6900       304.1000        86.8400        10.4500        10.8700        11.1300      -202.9900      2485.8899         2.7900
     396.40000     -9999.6900       306.4000        81.5700        10.6400        11.0000        11.3000      -203.1600      2479.1101         2.8200
     396.50000     -9999.6900       306.9600        82.4100        10.7800        11.1300        11.4600      -203.2600      2472.3401         2.8700
     396.60000     -9999.6900       305.8000        89.0600        10.8800        11.2600        11.6100      -203.3400      2470.6399         2.9200
     396.70000     -9999.6900       304.8700        95.0800        10.9100        11.3900        11.7700      -203.4600      2467.2700         3.0300
     396.80000     -9999.6900       304.2200        96.8400        10.9200        11.5100        11.9100      -203.6000      2467.6001         3.1300
     396.90000     -9999.6900       303.1800        94.2900        10.9600        11.6100        11.9900      -203.7700      2464.3799         3.1800
     397.00000     -9999.6900       302.8000        89.3800        11.0200        11.6900        12.0100      -203.8800      2464.4900         3.1500
     397.10000     -9999.6900       303.1700        85.4800        11.0800        11.7400        11.9700      -203.9000      2471.3201         3.0100
     397.20000     -9999.6900       303.4900        85.5500        11.1300        11.7600        11.9100      -203.8300      2478.7600         2.8700
     397.30000     -9999.6900       303.6400        87.9100        11.1900        11.7600        11.8800      -203.7200      2487.0500         2.7700
     397.40000     -9999.6900       303.2500        88.1200        11.2100        11.7500        11.8800      -203.6400      2490.4500         2.7200
     397.50000     -9999.6900       303.0300        87.7600        11.2100        11.7100        11.9200      -203.6500      2490.7700         2.7400
     397.60000     -9999.6900       303.1500        89.9100        11.2000        11.6600        11.9500      -203.7400      2486.5801         2.7800
     397.70000     -9999.6900       303.1500        93.3800        11.1800        11.5900        11.9600      -203.8900      2476.9099         2.8500
     397.80000     -9999.6900       302.9700        95.0900        11.1600        11.5000        11.9100      -204.0300      2468.4199         2.9000
     397.90000     -9999.6900       303.0200        92.9800        11.1300        11.4000        11.8100      -204.0900      2462.5000         2.9100
     398.00000     -9999.6900       303.4100        87.0200        11.1300        11.3100        11.6800      -204.1000      2461.8201         2.9100
     398.10000     -9999.6900       303.4600        79.1600        11.1400        11.2200        11.5300      -204.0600      2461.3999         2.8900
     398.20000     -9999.6900       303.4100        75.6100        11.1600        11.1700        11.4000      -204.0500      2457.9800         2.9100
     398.30000     -9999.6900       303.9600        80.5200        11.1700        11.1400        11.3200      -204.0200      2454.8799         2.9000
     398.40000     -9999.6900       304.9500        89.4600        11.1800        11.1500        11.3000      -203.9400      2453.9700         2.8800
     398.50000     -9999.6900       305.5900        95.7700        11.2000        11.1900        11.3600      -203.8300      2459.4700         2.8700
     398.60000     -9999.6900       306.0800        99.6000        11.2000        11.2400        11.4600      -203.7200      2468.1299         2.8400
     398.70000     -9999.6900       306.6300       102.7900        11.2200        11.2900        11.5700      -203.6600      2474.0601         2.8700
     398.80000     -9999.6900       306.4100       105.8000        11.2300        11.3400        11.6900      -203.7300      2476.5100         2.8900
     398.90000     -9999.6900       305.6400       106.8600        11.2500        11.3600        11.8100      -203.9100      2473.2400         2.9100
     399.00000     -9999.6900       305.5700       104.5300        11.2700        11.3600        11.9200      -204.2400      2467.6799         2.9300
     399.10000     -9999.6900       305.2000        98.4200        11.2900        11.3300        11.9800      -204.6500      2463.6499         2.9200
