~Version Information
# Data Copyright 2013 (C) geoLOGIC systems ltd.
 VERS  .     3.00 : LOG ASCII STANDARD -VERSION 3.0
 WRAP  .     NO   : ONE LINE PER DEPTH STEP
 DLM   .    SPACE : DELIMITING CHARACTER BETWEEN DATA COLUMNS
 PROD  .      geoLOGIC systems ltd.          : LAS Producer
 CREA  .      05/02/2025                     : LAS Creation date {MM/DD/YYYY}
~Well
#MNEM  .UNIT        Data                       Description of Mnemonic
#------.------ ----------------------------- : -------------------------
 STRT  .M           5.00000                  : START DEPTH
 STOP  .M        1159.90000                  : STOP DEPTH
 STEP  .M           0.10000                  : STEP DEPTH
 NULL  .           -9999.69                  : NULL VALUE
 COMP  .      KI EXPLORATION INC.            : Company
 WELL  .      KI RETLAW 15-6-13-18           : Well
 FLD   .      RETLAW                         : Field
 LOC   .      100/15-06-013-18W4/00          : Location
 PRVC  .      Alberta                        : Province
 SRVC  .      Tucker Wireline Services       : Service Company
 DATE  .      OCT 10 2009                    : Log Date
 UWI   .      100150601318W400               : Unique Well ID
 LIC   .      0412565                        : Licence Number
 LATI  .                                     : Latitude
 LONG  .                                     : Longitude
 GDAT  .                                     : Geodetic Datum
~Parameter
#MNEM  .UNIT        VALUE                      Description
#------.------ ----------------------------- : -------------------------
 RUN   .            1                        : Run number (100150601318W400_Ki_Retlaw_15-6-13-18_Final_Hires.las,100150601318W400_Ki_Retlaw_15-6-13-18_Final_Mai.las)
 GL    .M           821.809998               : Ground level elevation (100150601318W400_Ki_Retlaw_15-6-13-18_Final_Hires.las,100150601318W400_Ki_Retlaw_15-6-13-18_Final_Mai.las)
 DREF  .            KB                       : Depth reference (100150601318W400_Ki_Retlaw_15-6-13-18_Final_Hires.las,100150601318W400_Ki_Retlaw_15-6-13-18_Final_Mai.las)
 EREF  .M           826.099976               : Elevation of depth reference (100150601318W400_Ki_Retlaw_15-6-13-18_Final_Hires.las,100150601318W400_Ki_Retlaw_15-6-13-18_Final_Mai.las)
 TDL   .M           1157.0                   : Total depth, logger (100150601318W400_Ki_Retlaw_15-6-13-18_Final_Hires.las,100150601318W400_Ki_Retlaw_15-6-13-18_Final_Mai.las)
 TDD   .M           1157.0                   : Total depth, driller (100150601318W400_Ki_Retlaw_15-6-13-18_Final_Hires.las,100150601318W400_Ki_Retlaw_15-6-13-18_Final_Mai.las)
 CSGL  .M           293.0                    : Casing bottom, logger (100150601318W400_Ki_Retlaw_15-6-13-18_Final_Hires.las,100150601318W400_Ki_Retlaw_15-6-13-18_Final_Mai.las)
 CSGD  .M           293.0                    : Casing bottom, driller (100150601318W400_Ki_Retlaw_15-6-13-18_Final_Hires.las,100150601318W400_Ki_Retlaw_15-6-13-18_Final_Mai.las)
 CSGS  .mm          219.10                   : Casing size (100150601318W400_Ki_Retlaw_15-6-13-18_Final_Hires.las,100150601318W400_Ki_Retlaw_15-6-13-18_Final_Mai.las)
 CSGW  .Kg          219.10                   : Casing weight (100150601318W400_Ki_Retlaw_15-6-13-18_Final_Hires.las,100150601318W400_Ki_Retlaw_15-6-13-18_Final_Mai.las)
 BS    .mm          200.00                   : Bit size (100150601318W400_Ki_Retlaw_15-6-13-18_Final_Hires.las,100150601318W400_Ki_Retlaw_15-6-13-18_Final_Mai.las)
 MUD   .            GEL CHEM                 : Mud type (100150601318W400_Ki_Retlaw_15-6-13-18_Final_Hires.las,100150601318W400_Ki_Retlaw_15-6-13-18_Final_Mai.las)
 MUDD  .kg/m3       1230.000                 : Mud density (100150601318W400_Ki_Retlaw_15-6-13-18_Final_Hires.las,100150601318W400_Ki_Retlaw_15-6-13-18_Final_Mai.las)
 MUDV  .sec         81.000                   : Mud viscosity (100150601318W400_Ki_Retlaw_15-6-13-18_Final_Hires.las,100150601318W400_Ki_Retlaw_15-6-13-18_Final_Mai.las)
 FL    .cc          7.500                    : Fluid loss rate (100150601318W400_Ki_Retlaw_15-6-13-18_Final_Hires.las,100150601318W400_Ki_Retlaw_15-6-13-18_Final_Mai.las)
 PH    .            10.000                   : Mud pH (100150601318W400_Ki_Retlaw_15-6-13-18_Final_Hires.las,100150601318W400_Ki_Retlaw_15-6-13-18_Final_Mai.las)
 MUDS  .            FLOW LINE                : Mud source (100150601318W400_Ki_Retlaw_15-6-13-18_Final_Hires.las,100150601318W400_Ki_Retlaw_15-6-13-18_Final_Mai.las)
 RM    .OHMM        2.100                    : Resistivity of mud (100150601318W400_Ki_Retlaw_15-6-13-18_Final_Hires.las,100150601318W400_Ki_Retlaw_15-6-13-18_Final_Mai.las)
 RMT   .C           12.0                     : Temperature of mud (100150601318W400_Ki_Retlaw_15-6-13-18_Final_Hires.las,100150601318W400_Ki_Retlaw_15-6-13-18_Final_Mai.las)
 RMF   .OHMM        2.500                    : Resistivity of mud filtrate (100150601318W400_Ki_Retlaw_15-6-13-18_Final_Hires.las,100150601318W400_Ki_Retlaw_15-6-13-18_Final_Mai.las)
 RMFT  .C           12.0                     : Temperature of mud filtrate (100150601318W400_Ki_Retlaw_15-6-13-18_Final_Hires.las,100150601318W400_Ki_Retlaw_15-6-13-18_Final_Mai.las)
 RMC   .OHMM        1.900                    : Resistivity of mud cake (100150601318W400_Ki_Retlaw_15-6-13-18_Final_Hires.las,100150601318W400_Ki_Retlaw_15-6-13-18_Final_Mai.las)
 RMCT  .C           12.0                     : Temperature of mud cake (100150601318W400_Ki_Retlaw_15-6-13-18_Final_Hires.las,100150601318W400_Ki_Retlaw_15-6-13-18_Final_Mai.las)
 TMAX  .C           32.0                     : Maximum recorded temperature (100150601318W400_Ki_Retlaw_15-6-13-18_Final_Hires.las,100150601318W400_Ki_Retlaw_15-6-13-18_Final_Mai.las)
 TIMC  .DAY/HR      OCT 10 2009 @ 16:00      : Date/Time circulation stopped (100150601318W400_Ki_Retlaw_15-6-13-18_Final_Hires.las,100150601318W400_Ki_Retlaw_15-6-13-18_Final_Mai.las)
 TIMD  .DAY/HR      OCT 10 2009 @ 21:00      : Date/Time logger tagged bottom (100150601318W400_Ki_Retlaw_15-6-13-18_Final_Hires.las,100150601318W400_Ki_Retlaw_15-6-13-18_Final_Mai.las)
 UNIT  .            TRUCK 134                : Logging unit_number (100150601318W400_Ki_Retlaw_15-6-13-18_Final_Hires.las,100150601318W400_Ki_Retlaw_15-6-13-18_Final_Mai.las)
 BASE  .            MEDICINE HAT             : Home base of logging unit (100150601318W400_Ki_Retlaw_15-6-13-18_Final_Hires.las,100150601318W400_Ki_Retlaw_15-6-13-18_Final_Mai.las)
 ENG   .            M. MacNEIL               : Recording Engineer (100150601318W400_Ki_Retlaw_15-6-13-18_Final_Hires.las,100150601318W400_Ki_Retlaw_15-6-13-18_Final_Mai.las)
 WIT   .            R. BABBITT               : Witnessed by (100150601318W400_Ki_Retlaw_15-6-13-18_Final_Hires.las,100150601318W400_Ki_Retlaw_15-6-13-18_Final_Mai.las)
~Curve
#MNEM  .UNIT        API Codes                  Curve description
#----  .----     -------------               : -----------------------
 DEPT  .M                                    : 
 GRX   .GAPI     07 310 01 00                : Gamma Ray (Hires)
 DT    .US/M     60 520 32 00                : Delta Time
 GR    .GAPI     07 310 01 00                : Gamma Ray
 ILD   .OHMM     07 120 45 00                : Deep Induction Resistivity
 ILM   .OHMM     07 120 44 00                : Medium Induction Resistivity
 SFL   .OHMM     07 220 04 00                : Spherically Focused Resistivity
 SP    .MV       07 010 01 00                : Spontaneous Potential
 RHOB  .KG/M3    45 350 02 00                : Bulk Density
 PE    .B/E      45 358 00 00                : Photoelectric Cross Section
~TOPS_Definition
 TOPN.        :  Top Name     {S} 
 TOPT.M       :  Top Depth    {F} 
~TOPS_Data | TOPS_Definition
 Kcolorado            435.6  
 Kmed_hat             487.0  
 K2nd_ws              695.6  
 K2ws_ss              716.9  
 Kbfs                 795.0  
 Kbi_ss               825.3  
 Kbsl_colo            945.5  
 Kmannvl              953.0  
 Kglauc_ss            1057.7  
 Kmannvl_L            1094.9  
~Ascii        DEPT          GRX           DT           GR          ILD          ILM          SFL           SP         RHOB           PE
# ...
      91.40000     -9999.6900       240.6200        55.1400        16.9200     10000.0000         0.0700      -136.5200       872.5300         8.7400
      91.50000     -9999.6900       250.2700        55.4900        16.7400     10000.0000         0.0700      -136.5500       851.8300         8.8800
      91.60000     -9999.6900       247.2600        56.0400        16.5100     10000.0000         0.0700      -136.4900       863.2600         9.0200
      91.70000     -9999.6900       241.9300        54.4400        16.4500     10000.0000         0.0700      -136.3700       924.8700         9.0400
      91.80000     -9999.6900       241.9000        50.6200        16.4200     10000.0000         0.0700      -136.2900      1002.7600         9.0100
      91.90000     -9999.6900       253.4800        47.0000        16.5100     10000.0000         0.0700      -136.3300      1062.3900         8.9300
      92.00000     -9999.6900       272.2800        45.8300        16.7300     10000.0000         0.0700      -136.5500      1086.8800         8.9000
      92.10000     -9999.6900       293.8300        45.7800        17.0600     10000.0000         0.0700      -137.0400      1078.4000         8.9100
      92.20000     -9999.6900       316.4100        44.9900        17.5100     10000.0000         0.0700      -137.7500      1053.6400         9.0300
      92.30000     -9999.6900       321.3300        44.7300        18.3200     10000.0000         0.0700      -138.8100       968.3400         9.2900
      92.40000     -9999.6900       308.5500        46.9200        19.7600     10000.0000         0.0700      -140.3600       747.1200         9.5700
      92.50000     -9999.6900       309.8600        49.9300        20.6500     10000.0000         0.0700      -142.5200       305.3800         9.7600
      92.60000     -9999.6900       330.3900        51.0900        20.8000     10000.0000         0.0700      -145.2900      -283.0000         9.8600
      92.70000     -9999.6900       334.8500        52.0000        20.2300     10000.0000         0.0700      -148.1300      -504.9800         9.8800
      92.80000     -9999.6900       316.3600        53.1300        19.1600     10000.0000         0.0700      -150.2900      -131.6400         9.9900
      92.90000     -9999.6900       301.6500        53.2700        18.5800     10000.0000         0.0700      -151.3100       439.4400        10.0300
      93.00000     -9999.6900       291.3400        53.0200        18.3200     10000.0000         0.0700      -151.1300       884.4900         9.9700
      93.10000     -9999.6900       270.1200        53.6300        18.2200     10000.0000         0.0700      -150.1400      1131.3700         9.9600
      93.20000     -9999.6900       244.2400        53.8600        18.2300     10000.0000         0.0700      -148.7500      1252.1100         9.8500
      93.30000     -9999.6900       229.5400        52.2900        18.3200     10000.0000         0.0700      -147.2400      1303.9000         9.5900
      93.40000     -9999.6900       227.7700        48.9100        18.4200     10000.0000         0.0700      -145.8800      1313.5500         9.3900
      93.50000     -9999.6900       227.0100        45.0000        18.4800     10000.0000         0.0700      -144.6300      1310.7400         9.2700
      93.60000     -9999.6900       217.8100        42.5100        18.7900     10000.0000         0.0700      -143.3400      1302.0900         9.2700
      93.70000     -9999.6900       209.3300        41.5600        18.9500     10000.0000         0.0700      -141.9000      1302.3101         9.2000
      93.80000     -9999.6900       210.1800        40.2300        19.0600     10000.0000         0.0700      -140.3600      1308.9301         8.8900
      93.90000     -9999.6900       202.2700        38.5100        19.0900     10000.0000         0.0800      -139.0200      1316.0400         8.6900
      94.00000     -9999.6900       186.0300        39.4800        18.9800     10000.0000         0.0800      -138.0700      1317.4700         8.5300
      94.10000     -9999.6900       176.3400        44.1400        19.0400     10000.0000         0.0700      -137.6100      1294.0300         8.5200
      94.20000     -9999.6900       174.2600        49.4800        19.0500     10000.0000         0.0700      -137.5200      1264.8101         8.6100
      94.30000     -9999.6900       174.9100        51.7800        19.0100     10000.0000         0.0800      -137.6800      1238.0601         8.5100
      94.40000     -9999.6900       176.0700        51.4500        18.9000     10000.0000         0.0800      -137.9900      1208.7500         8.5300
      94.50000     -9999.6900       176.7300        50.2000        18.7900     10000.0000         0.0800      -138.2500      1176.6600         8.5900
      94.60000     -9999.6900       176.9200        48.4300        18.7300     10000.0000         0.0800      -138.4300      1122.2900         8.7700
      94.70000     -9999.6900       177.2600        46.5000        18.6800     10000.0000         0.0800      -138.4300      1063.7900         9.0800
      94.80000     -9999.6900       177.8600        45.5000        18.7100     10000.0000         0.0800      -138.2100      1034.9200         9.2800
      94.90000     -9999.6900       178.7200        47.5200        18.7300     10000.0000         0.0800      -137.9400      1054.1600         9.4000
      95.00000     -9999.6900       179.5100        51.6000        18.7800     10000.0000         0.0800      -137.6400      1109.1899         9.4100
      95.10000     -9999.6900       179.9400        52.9000        18.8500     10000.0000         0.0800      -137.4000      1160.7000         9.4800
      95.20000     -9999.6900       180.2500        49.0900        18.9200     10000.0000         0.0800      -137.2300      1172.4000         9.4900
      95.30000     -9999.6900       180.4400        44.8300        18.9600     10000.0000         0.0800      -137.0500      1140.7200         9.5900
      95.40000     -9999.6900       180.3700        44.1400        19.0400     10000.0000         0.0800      -137.0400      1101.9200         9.7300
      95.50000     -9999.6900       180.4900        44.6400        19.1400     10000.0000         0.0800      -137.2900      1081.7200         9.8300
      95.60000     -9999.6900       180.4000        42.9300        19.2200     10000.0000         0.0800      -137.7900      1083.2700         9.9100
      95.70000     -9999.6900       179.8100        40.9500        19.2700     10000.0000         0.0800      -138.5200      1083.0100         9.6900
      95.80000     -9999.6900       179.6700        41.4000        19.3300     10000.0000         0.0800      -139.3600      1060.5500         9.3400
      95.90000     -9999.6900       179.5800        41.7700        19.3900     10000.0000         0.0800      -140.2400      1031.1500         8.9500
      96.00000     -9999.6900       179.4200        38.8700        19.4000     10000.0000         0.0800      -141.1500      1010.3600         8.8800
      96.10000     -9999.6900       179.3400        34.7200        19.3500     10000.0000         0.0800      -142.1400      1017.6500         8.9900
      96.20000     -9999.6900       179.4100        33.5100        19.3100     10000.0000         0.0800      -143.1500      1046.9900         9.1200
      96.30000     -9999.6900       179.6700        36.5800        19.2500     10000.0000         0.0800      -144.0100      1079.5200         9.1100
      96.40000     -9999.6900       179.9800        42.5500        19.1800     10000.0000         0.0800      -144.5200      1090.6801         8.9800
      96.50000     -9999.6900       179.3600        47.7700        19.1400     10000.0000         0.0800      -144.5300      1058.4700         8.8900
      96.60000     -9999.6900       177.8600        49.0100        19.1500     10000.0000         0.0800      -144.2300      1003.8600         8.6500
      96.70000     -9999.6900       176.4900        44.8600        19.2400     10000.0000         0.0800      -143.9200       934.2700         8.4300
