~Version Information
# Data Copyright 2013 (C) geoLOGIC systems ltd.
 VERS  .     3.00 : LOG ASCII STANDARD -VERSION 3.0
 WRAP  .     NO   : ONE LINE PER DEPTH STEP
 DLM   .    SPACE : DELIMITING CHARACTER BETWEEN DATA COLUMNS
 PROD  .      geoLOGIC systems ltd.          : LAS Producer
 CREA  .      05/02/2025                     : LAS Creation date {MM/DD/YYYY}
~Well
#MNEM  .UNIT        Data                       Description of Mnemonic
#------.------ ----------------------------- : -------------------------
 STRT  .M           5.00000                  : START DEPTH
 STOP  .M        1159.90000                  : STOP DEPTH
 STEP  .M           0.10000                  : STEP DEPTH
 NULL  .           -9999.69                  : NULL VALUE
 COMP  .      KI EXPLORATION INC.            : Company
 WELL  .      KI RETLAW 15-6-13-18           : Well
 FLD   .      RETLAW                         : Field
 LOC   .      100/15-06-013-18W4/00          : Location
 PRVC  .      Alberta                        : Province
 SRVC  .      Tucker Wireline Services       : Service Company
 DATE  .      OCT 10 2009                    : Log Date
 UWI   .      100150601318W400               : Unique Well ID
 LIC   .      0412565                        : Licence Number
 LATI  .                                     : Latitude
 LONG  .                                     : Longitude
 GDAT  .                                     : Geodetic Datum
~Parameter
#MNEM  .UNIT        VALUE                      Description
#------.------ ----------------------------- : -------------------------
 RUN   .            1                        : Run number (100150601318W400_Ki_Retlaw_15-6-13-18_Final_Hires.las,100150601318W400_Ki_Retlaw_15-6-13-18_Final_Mai.las)
 GL    .M           821.809998               : Ground level elevation (100150601318W400_Ki_Retlaw_15-6-13-18_Final_Hires.las,100150601318W400_Ki_Retlaw_15-6-13-18_Final_Mai.las)
 DREF  .            KB                       : Depth reference (100150601318W400_Ki_Retlaw_15-6-13-18_Final_Hires.las,100150601318W400_Ki_Retlaw_15-6-13-18_Final_Mai.las)
 EREF  .M           826.099976               : Elevation of depth reference (100150601318W400_Ki_Retlaw_15-6-13-18_Final_Hires.las,100150601318W400_Ki_Retlaw_15-6-13-18_Final_Mai.las)
 TDL   .M           1157.0                   : Total depth, logger (100150601318W400_Ki_Retlaw_15-6-13-18_Final_Hires.las,100150601318W400_Ki_Retlaw_15-6-13-18_Final_Mai.las)
 TDD   .M           1157.0                   : Total depth, driller (100150601318W400_Ki_Retlaw_15-6-13-18_Final_Hires.las,100150601318W400_Ki_Retlaw_15-6-13-18_Final_Mai.las)
 CSGL  .M           293.0                    : Casing bottom, logger (100150601318W400_Ki_Retlaw_15-6-13-18_Final_Hires.las,100150601318W400_Ki_Retlaw_15-6-13-18_Final_Mai.las)
 CSGD  .M           293.0                    : Casing bottom, driller (100150601318W400_Ki_Retlaw_15-6-13-18_Final_Hires.las,100150601318W400_Ki_Retlaw_15-6-13-18_Final_Mai.las)
 CSGS  .mm          219.10                   : Casing size (100150601318W400_Ki_Retlaw_15-6-13-18_Final_Hires.las,100150601318W400_Ki_Retlaw_15-6-13-18_Final_Mai.las)
 CSGW  .Kg          219.10                   : Casing weight (100150601318W400_Ki_Retlaw_15-6-13-18_Final_Hires.las,100150601318W400_Ki_Retlaw_15-6-13-18_Final_Mai.las)
 BS    .mm          200.00                   : Bit size (100150601318W400_Ki_Retlaw_15-6-13-18_Final_Hires.las,100150601318W400_Ki_Retlaw_15-6-13-18_Final_Mai.las)
 MUD   .            GEL CHEM                 : Mud type (100150601318W400_Ki_Retlaw_15-6-13-18_Final_Hires.las,100150601318W400_Ki_Retlaw_15-6-13-18_Final_Mai.las)
 MUDD  .kg/m3       1230.000                 : Mud density (100150601318W400_Ki_Retlaw_15-6-13-18_Final_Hires.las,100150601318W400_Ki_Retlaw_15-6-13-18_Final_Mai.las)
 MUDV  .sec         81.000                   : Mud viscosity (100150601318W400_Ki_Retlaw_15-6-13-18_Final_Hires.las,100150601318W400_Ki_Retlaw_15-6-13-18_Final_Mai.las)
 FL    .cc          7.500                    : Fluid loss rate (100150601318W400_Ki_Retlaw_15-6-13-18_Final_Hires.las,100150601318W400_Ki_Retlaw_15-6-13-18_Final_Mai.las)
 PH    .            10.000                   : Mud pH (100150601318W400_Ki_Retlaw_15-6-13-18_Final_Hires.las,100150601318W400_Ki_Retlaw_15-6-13-18_Final_Mai.las)
 MUDS  .            FLOW LINE                : Mud source (100150601318W400_Ki_Retlaw_15-6-13-18_Final_Hires.las,100150601318W400_Ki_Retlaw_15-6-13-18_Final_Mai.las)
 RM    .OHMM        2.100                    : Resistivity of mud (100150601318W400_Ki_Retlaw_15-6-13-18_Final_Hires.las,100150601318W400_Ki_Retlaw_15-6-13-18_Final_Mai.las)
 RMT   .C           12.0                     : Temperature of mud (100150601318W400_Ki_Retlaw_15-6-13-18_Final_Hires.las,100150601318W400_Ki_Retlaw_15-6-13-18_Final_Mai.las)
 RMF   .OHMM        2.500                    : Resistivity of mud filtrate (100150601318W400_Ki_Retlaw_15-6-13-18_Final_Hires.las,100150601318W400_Ki_Retlaw_15-6-13-18_Final_Mai.las)
 RMFT  .C           12.0                     : Temperature of mud filtrate (100150601318W400_Ki_Retlaw_15-6-13-18_Final_Hires.las,100150601318W400_Ki_Retlaw_15-6-13-18_Final_Mai.las)
 RMC   .OHMM        1.900                    : Resistivity of mud cake (100150601318W400_Ki_Retlaw_15-6-13-18_Final_Hires.las,100150601318W400_Ki_Retlaw_15-6-13-18_Final_Mai.las)
 RMCT  .C           12.0                     : Temperature of mud cake (100150601318W400_Ki_Retlaw_15-6-13-18_Final_Hires.las,100150601318W400_Ki_Retlaw_15-6-13-18_Final_Mai.las)
 TMAX  .C           32.0                     : Maximum recorded temperature (100150601318W400_Ki_Retlaw_15-6-13-18_Final_Hires.las,100150601318W400_Ki_Retlaw_15-6-13-18_Final_Mai.las)
 TIMC  .DAY/HR      OCT 10 2009 @ 16:00      : Date/Time circulation stopped (100150601318W400_Ki_Retlaw_15-6-13-18_Final_Hires.las,100150601318W400_Ki_Retlaw_15-6-13-18_Final_Mai.las)
 TIMD  .DAY/HR      OCT 10 2009 @ 21:00      : Date/Time logger tagged bottom (100150601318W400_Ki_Retlaw_15-6-13-18_Final_Hires.las,100150601318W400_Ki_Retlaw_15-6-13-18_Final_Mai.las)
 UNIT  .            TRUCK 134                : Logging unit_number (100150601318W400_Ki_Retlaw_15-6-13-18_Final_Hires.las,100150601318W400_Ki_Retlaw_15-6-13-18_Final_Mai.las)
 BASE  .            MEDICINE HAT             : Home base of logging unit (100150601318W400_Ki_Retlaw_15-6-13-18_Final_Hires.las,100150601318W400_Ki_Retlaw_15-6-13-18_Final_Mai.las)
 ENG   .            M. MacNEIL               : Recording Engineer (100150601318W400_Ki_Retlaw_15-6-13-18_Final_Hires.las,100150601318W400_Ki_Retlaw_15-6-13-18_Final_Mai.las)
 WIT   .            R. BABBITT               : Witnessed by (100150601318W400_Ki_Retlaw_15-6-13-18_Final_Hires.las,100150601318W400_Ki_Retlaw_15-6-13-18_Final_Mai.las)
~Curve
#MNEM  .UNIT        API Codes                  Curve description
#----  .----     -------------               : -----------------------
 DEPT  .M                                    : 
 GRX   .GAPI     07 310 01 00                : Gamma Ray (Hires)
 DT    .US/M     60 520 32 00                : Delta Time
 GR    .GAPI     07 310 01 00                : Gamma Ray
 ILD   .OHMM     07 120 45 00                : Deep Induction Resistivity
 ILM   .OHMM     07 120 44 00                : Medium Induction Resistivity
 SFL   .OHMM     07 220 04 00                : Spherically Focused Resistivity
 SP    .MV       07 010 01 00                : Spontaneous Potential
 RHOB  .KG/M3    45 350 02 00                : Bulk Density
 PE    .B/E      45 358 00 00                : Photoelectric Cross Section
~TOPS_Definition
 TOPN.        :  Top Name     {S} 
 TOPT.M       :  Top Depth    {F} 
~TOPS_Data | TOPS_Definition
 Kcolorado            435.6  
 Kmed_hat             487.0  
 K2nd_ws              695.6  
 K2ws_ss              716.9  
 Kbfs                 795.0  
 Kbi_ss               825.3  
 Kbsl_colo            945.5  
 Kmannvl              953.0  
 Kglauc_ss            1057.7  
 Kmannvl_L            1094.9  
~Ascii        DEPT          GRX           DT           GR          ILD          ILM          SFL           SP         RHOB           PE
# ...
    1068.80000        90.6100       261.7900        91.5500        11.6300        11.9200        13.0500      -203.0200      2649.6599         3.4900
    1068.90000       107.5100       260.4300        84.8600        11.6800        11.7500        12.6200      -203.1200      2593.1299         3.2700
    1069.00000        87.9900       264.3900        87.6000        11.7700        11.6100        12.2400      -203.1900      2556.8999         3.1100
    1069.10000       104.7800       272.2100        95.7100        11.8800        11.5400        11.9600      -203.2200      2559.2900         2.9900
    1069.20000       102.6900       278.7100       102.1400        11.9900        11.6000        11.8700      -203.1600      2589.9099         2.9100
    1069.30000        93.6900       281.6500       104.1700        12.0800        11.8000        12.0400      -203.0400      2637.3701         2.8500
    1069.40000       106.5700       282.2800       104.8400        12.1800        12.1300        12.5000      -202.8300      2677.3501         2.8400
    1069.50000       110.8800       281.0100       105.5500        12.2400        12.5500        13.1800      -202.5700      2698.2000         2.8700
    1069.60000       117.2700       278.5600       105.6600        12.2500        13.0000        13.9500      -202.3400      2704.5500         2.9500
    1069.70000        98.5800       274.9700       104.7300        12.2500        13.3600        14.7100      -202.1700      2696.3401         3.0400
    1069.80000       101.7200       269.7900       104.0200        12.2300        13.5600        15.2600      -202.1200      2692.2100         3.1200
    1069.90000        96.3100       264.1300       102.8900        12.2100        13.5400        15.4400      -202.1200      2697.2100         3.1800
    1070.00000        95.2300       259.7600       100.3500        12.1500        13.3100        15.1600      -202.1100      2695.8601         3.2600
    1070.10000       103.7000       258.4600        96.2700        12.0700        12.9200        14.5000      -202.0500      2676.6001         3.3300
    1070.20000        90.8200       260.0600        92.1400        11.9000        12.4500        13.7800      -201.9700      2643.1899         3.2600
    1070.30000       114.9800       263.9100        89.9900        11.6800        11.9500        13.1800      -201.8800      2612.9500         3.1000
    1070.40000       103.7700       269.0600        90.7600        11.4300        11.4800        12.7800      -201.7900      2602.6699         3.0300
    1070.50000        98.7800       273.5400        95.6800        11.1700        11.0300        12.4700      -201.7200      2595.8401         3.0600
    1070.60000       103.7400       276.7200       103.0700        10.9300        10.6200        12.1100      -201.6800      2576.8000         3.1200
    1070.70000        98.9300       279.9100       109.0300        10.7600        10.3000        11.7000      -201.7900      2547.7200         3.1400
    1070.80000       125.9800       284.6000       110.4000        10.6100        10.0700        11.2400      -201.9300      2520.7900         3.1100
    1070.90000        95.1000       290.8000       107.6800        10.4600         9.9800        11.0600      -202.0400      2524.2100         3.0800
    1071.00000       108.9300       295.6200       105.2400        10.3100        10.0200        11.2600      -202.1200      2560.8101         3.0800
    1071.10000       108.2100       298.1000       105.5000        10.1500        10.1800        11.8500      -202.0900      2610.6101         3.0500
    1071.20000       108.4200       301.9300       107.3800         9.9900        10.4000        12.7300      -202.0500      2643.2300         3.0500
    1071.30000       106.3900       308.3500       109.4600         9.8400        10.6000        13.6700      -201.9800      2646.7100         3.0600
    1071.40000       111.8300       309.9000       112.5100         9.7100        10.6800        14.5000      -201.9000      2644.3799         3.0800
    1071.50000       123.2100       299.2600       117.8700         9.6500        10.5700        14.9900      -201.9000      2649.5901         3.0400
    1071.60000       122.4800       283.1600       127.9200         9.6900        10.2900        14.8600      -201.9100      2671.0500         2.9500
    1071.70000       177.7100       276.6400       142.8900         9.8000         9.9200        13.9800      -202.0200      2699.4800         2.9700
    1071.80000       166.1200       281.8900       161.3200         9.9300         9.5800        12.6100      -202.1900      2708.3101         3.1800
    1071.90000       190.4400       289.9000       179.2500        10.0300         9.3600        11.3300      -202.3900      2695.6001         3.5900
    1072.00000       182.9800       296.7000       189.3300        10.0300         9.3100        10.7900      -202.5700      2660.3799         3.9800
    1072.10000       179.3700       301.8600       184.8600         9.9200         9.4200        11.2300      -202.6300      2632.1101         4.0300
    1072.20000       150.7600       302.6400       169.5500         9.7200         9.6100        12.3100      -202.6200      2620.8301         3.9200
    1072.30000       125.9700       298.5200       154.6200         9.4700         9.7900        13.3900      -202.6400      2613.4399         3.7600
    1072.40000       139.9600       291.7600       150.7700         9.2600         9.8500        13.8500      -202.7500      2593.7300         3.5700
    1072.50000       154.5200       283.9000       157.5500         9.1300         9.7100        13.5300      -202.9400      2558.8999         3.3900
    1072.60000       172.9000       276.5200       167.1900         9.0900         9.4100        12.6500      -203.1300      2512.0901         3.1000
    1072.70000       184.8300       272.6200       171.3300         9.1200         9.0300        11.5100      -203.3100      2470.4299         2.8100
    1072.80000       159.3500       274.9700       165.9300         9.1800         8.6900        10.3800      -203.5400      2443.9500         2.6100
    1072.90000       142.5100       284.8600       153.8700         9.2600         8.4600         9.5300      -203.8300      2430.8000         2.5100
    1073.00000       135.0600       297.9500       140.8800         9.3100         8.3700         9.0000      -204.1400      2431.6499         2.4800
    1073.10000       130.5100       307.4500       130.0500         9.3100         8.4500         8.9200      -204.4400      2445.9600         2.4800
    1073.20000       119.6500       313.6700       120.7200         9.2600         8.6700         9.3600      -204.7000      2467.8201         2.4800
    1073.30000       117.9600       317.9500       111.5800         9.1600         8.9800        10.2300      -204.9800      2499.8799         2.5000
    1073.40000       103.6300       314.8500       103.8000         9.0900         9.2900        11.2000      -205.3200      2531.3899         2.5300
    1073.50000        97.1700       302.7300        99.8100         9.1200         9.5300        11.7500      -205.6500      2562.6499         2.6400
    1073.60000        99.6400       291.0300       101.1200         9.2700         9.6800        11.5600      -205.8900      2583.8601         2.8500
    1073.70000       102.6000       287.4300       106.8700         9.5400         9.7600        10.8800      -205.9400      2581.3301         3.1300
    1073.80000       117.9600       287.9000       116.1300         9.9700         9.8700        10.3100      -205.7700      2559.5701         3.2600
    1073.90000       138.5500       287.3600       125.9500        10.5000        10.0800        10.2100      -205.3900      2531.5300         3.1000
    1074.00000       137.6400       289.4500       132.4400        11.0700        10.4400        10.6600      -204.8300      2512.1101         2.8700
    1074.10000       145.7000       295.1700       132.4400        11.6000        10.9800        11.4700      -204.2000      2505.2300         2.7200
