~Version Information
# Data Copyright 2013 (C) geoLOGIC systems ltd.
 VERS  .     3.00 : LOG ASCII STANDARD -VERSION 3.0
 WRAP  .     NO   : ONE LINE PER DEPTH STEP
 DLM   .    SPACE : DELIMITING CHARACTER BETWEEN DATA COLUMNS
 PROD  .      geoLOGIC systems ltd.          : LAS Producer
 CREA  .      05/02/2025                     : LAS Creation date {MM/DD/YYYY}
~Well
#MNEM  .UNIT        Data                       Description of Mnemonic
#------.------ ----------------------------- : -------------------------
 STRT  .M           5.00000                  : START DEPTH
 STOP  .M        1159.90000                  : STOP DEPTH
 STEP  .M           0.10000                  : STEP DEPTH
 NULL  .           -9999.69                  : NULL VALUE
 COMP  .      KI EXPLORATION INC.            : Company
 WELL  .      KI RETLAW 15-6-13-18           : Well
 FLD   .      RETLAW                         : Field
 LOC   .      100/15-06-013-18W4/00          : Location
 PRVC  .      Alberta                        : Province
 SRVC  .      Tucker Wireline Services       : Service Company
 DATE  .      OCT 10 2009                    : Log Date
 UWI   .      100150601318W400               : Unique Well ID
 LIC   .      0412565                        : Licence Number
 LATI  .                                     : Latitude
 LONG  .                                     : Longitude
 GDAT  .                                     : Geodetic Datum
~Parameter
#MNEM  .UNIT        VALUE                      Description
#------.------ ----------------------------- : -------------------------
 RUN   .            1                        : Run number (100150601318W400_Ki_Retlaw_15-6-13-18_Final_Hires.las,100150601318W400_Ki_Retlaw_15-6-13-18_Final_Mai.las)
 GL    .M           821.809998               : Ground level elevation (100150601318W400_Ki_Retlaw_15-6-13-18_Final_Hires.las,100150601318W400_Ki_Retlaw_15-6-13-18_Final_Mai.las)
 DREF  .            KB                       : Depth reference (100150601318W400_Ki_Retlaw_15-6-13-18_Final_Hires.las,100150601318W400_Ki_Retlaw_15-6-13-18_Final_Mai.las)
 EREF  .M           826.099976               : Elevation of depth reference (100150601318W400_Ki_Retlaw_15-6-13-18_Final_Hires.las,100150601318W400_Ki_Retlaw_15-6-13-18_Final_Mai.las)
 TDL   .M           1157.0                   : Total depth, logger (100150601318W400_Ki_Retlaw_15-6-13-18_Final_Hires.las,100150601318W400_Ki_Retlaw_15-6-13-18_Final_Mai.las)
 TDD   .M           1157.0                   : Total depth, driller (100150601318W400_Ki_Retlaw_15-6-13-18_Final_Hires.las,100150601318W400_Ki_Retlaw_15-6-13-18_Final_Mai.las)
 CSGL  .M           293.0                    : Casing bottom, logger (100150601318W400_Ki_Retlaw_15-6-13-18_Final_Hires.las,100150601318W400_Ki_Retlaw_15-6-13-18_Final_Mai.las)
 CSGD  .M           293.0                    : Casing bottom, driller (100150601318W400_Ki_Retlaw_15-6-13-18_Final_Hires.las,100150601318W400_Ki_Retlaw_15-6-13-18_Final_Mai.las)
 CSGS  .mm          219.10                   : Casing size (100150601318W400_Ki_Retlaw_15-6-13-18_Final_Hires.las,100150601318W400_Ki_Retlaw_15-6-13-18_Final_Mai.las)
 CSGW  .Kg          219.10                   : Casing weight (100150601318W400_Ki_Retlaw_15-6-13-18_Final_Hires.las,100150601318W400_Ki_Retlaw_15-6-13-18_Final_Mai.las)
 BS    .mm          200.00                   : Bit size (100150601318W400_Ki_Retlaw_15-6-13-18_Final_Hires.las,100150601318W400_Ki_Retlaw_15-6-13-18_Final_Mai.las)
 MUD   .            GEL CHEM                 : Mud type (100150601318W400_Ki_Retlaw_15-6-13-18_Final_Hires.las,100150601318W400_Ki_Retlaw_15-6-13-18_Final_Mai.las)
 MUDD  .kg/m3       1230.000                 : Mud density (100150601318W400_Ki_Retlaw_15-6-13-18_Final_Hires.las,100150601318W400_Ki_Retlaw_15-6-13-18_Final_Mai.las)
 MUDV  .sec         81.000                   : Mud viscosity (100150601318W400_Ki_Retlaw_15-6-13-18_Final_Hires.las,100150601318W400_Ki_Retlaw_15-6-13-18_Final_Mai.las)
 FL    .cc          7.500                    : Fluid loss rate (100150601318W400_Ki_Retlaw_15-6-13-18_Final_Hires.las,100150601318W400_Ki_Retlaw_15-6-13-18_Final_Mai.las)
 PH    .            10.000                   : Mud pH (100150601318W400_Ki_Retlaw_15-6-13-18_Final_Hires.las,100150601318W400_Ki_Retlaw_15-6-13-18_Final_Mai.las)
 MUDS  .            FLOW LINE                : Mud source (100150601318W400_Ki_Retlaw_15-6-13-18_Final_Hires.las,100150601318W400_Ki_Retlaw_15-6-13-18_Final_Mai.las)
 RM    .OHMM        2.100                    : Resistivity of mud (100150601318W400_Ki_Retlaw_15-6-13-18_Final_Hires.las,100150601318W400_Ki_Retlaw_15-6-13-18_Final_Mai.las)
 RMT   .C           12.0                     : Temperature of mud (100150601318W400_Ki_Retlaw_15-6-13-18_Final_Hires.las,100150601318W400_Ki_Retlaw_15-6-13-18_Final_Mai.las)
 RMF   .OHMM        2.500                    : Resistivity of mud filtrate (100150601318W400_Ki_Retlaw_15-6-13-18_Final_Hires.las,100150601318W400_Ki_Retlaw_15-6-13-18_Final_Mai.las)
 RMFT  .C           12.0                     : Temperature of mud filtrate (100150601318W400_Ki_Retlaw_15-6-13-18_Final_Hires.las,100150601318W400_Ki_Retlaw_15-6-13-18_Final_Mai.las)
 RMC   .OHMM        1.900                    : Resistivity of mud cake (100150601318W400_Ki_Retlaw_15-6-13-18_Final_Hires.las,100150601318W400_Ki_Retlaw_15-6-13-18_Final_Mai.las)
 RMCT  .C           12.0                     : Temperature of mud cake (100150601318W400_Ki_Retlaw_15-6-13-18_Final_Hires.las,100150601318W400_Ki_Retlaw_15-6-13-18_Final_Mai.las)
 TMAX  .C           32.0                     : Maximum recorded temperature (100150601318W400_Ki_Retlaw_15-6-13-18_Final_Hires.las,100150601318W400_Ki_Retlaw_15-6-13-18_Final_Mai.las)
 TIMC  .DAY/HR      OCT 10 2009 @ 16:00      : Date/Time circulation stopped (100150601318W400_Ki_Retlaw_15-6-13-18_Final_Hires.las,100150601318W400_Ki_Retlaw_15-6-13-18_Final_Mai.las)
 TIMD  .DAY/HR      OCT 10 2009 @ 21:00      : Date/Time logger tagged bottom (100150601318W400_Ki_Retlaw_15-6-13-18_Final_Hires.las,100150601318W400_Ki_Retlaw_15-6-13-18_Final_Mai.las)
 UNIT  .            TRUCK 134                : Logging unit_number (100150601318W400_Ki_Retlaw_15-6-13-18_Final_Hires.las,100150601318W400_Ki_Retlaw_15-6-13-18_Final_Mai.las)
 BASE  .            MEDICINE HAT             : Home base of logging unit (100150601318W400_Ki_Retlaw_15-6-13-18_Final_Hires.las,100150601318W400_Ki_Retlaw_15-6-13-18_Final_Mai.las)
 ENG   .            M. MacNEIL               : Recording Engineer (100150601318W400_Ki_Retlaw_15-6-13-18_Final_Hires.las,100150601318W400_Ki_Retlaw_15-6-13-18_Final_Mai.las)
 WIT   .            R. BABBITT               : Witnessed by (100150601318W400_Ki_Retlaw_15-6-13-18_Final_Hires.las,100150601318W400_Ki_Retlaw_15-6-13-18_Final_Mai.las)
~Curve
#MNEM  .UNIT        API Codes                  Curve description
#----  .----     -------------               : -----------------------
 DEPT  .M                                    : 
 GRX   .GAPI     07 310 01 00                : Gamma Ray (Hires)
 DT    .US/M     60 520 32 00                : Delta Time
 GR    .GAPI     07 310 01 00                : Gamma Ray
 ILD   .OHMM     07 120 45 00                : Deep Induction Resistivity
 ILM   .OHMM     07 120 44 00                : Medium Induction Resistivity
 SFL   .OHMM     07 220 04 00                : Spherically Focused Resistivity
 SP    .MV       07 010 01 00                : Spontaneous Potential
 RHOB  .KG/M3    45 350 02 00                : Bulk Density
 PE    .B/E      45 358 00 00                : Photoelectric Cross Section
~TOPS_Definition
 TOPN.        :  Top Name     {S} 
 TOPT.M       :  Top Depth    {F} 
~TOPS_Data | TOPS_Definition
 Kcolorado            435.6  
 Kmed_hat             487.0  
 K2nd_ws              695.6  
 K2ws_ss              716.9  
 Kbfs                 795.0  
 Kbi_ss               825.3  
 Kbsl_colo            945.5  
 Kmannvl              953.0  
 Kglauc_ss            1057.7  
 Kmannvl_L            1094.9  
~Ascii        DEPT          GRX           DT           GR          ILD          ILM          SFL           SP         RHOB           PE
# ...
     917.60000     -9999.6900       352.7500       104.2700         2.9600         2.9500         3.6700      -198.9400      2413.6201         2.9500
     917.70000     -9999.6900       353.8200       106.7600         3.0300         2.9900         3.6700      -198.9200      2415.5400         2.8900
     917.80000     -9999.6900       354.7200       107.7100         3.1200         3.0600         3.6700      -198.9200      2411.6201         2.8300
     917.90000     -9999.6900       352.5700       107.8800         3.2300         3.1700         3.7300      -198.8800      2408.3701         2.7700
     918.00000     -9999.6900       351.2200       108.6100         3.3700         3.3100         3.8700      -198.8100      2414.9399         2.7400
     918.10000     -9999.6900       352.4300       109.0900         3.5100         3.5000         4.1600      -198.7100      2438.0300         2.7300
     918.20000     -9999.6900       351.5600       108.5700         3.6700         3.7300         4.5900      -198.5900      2469.0701         2.7700
     918.30000     -9999.6900       346.4400       107.2100         3.8200         4.0100         5.1100      -198.5100      2501.0000         2.8100
     918.40000     -9999.6900       337.3600       105.7900         3.9800         4.3100         5.6100      -198.4700      2525.4800         2.8400
     918.50000     -9999.6900       327.2800       104.9700         4.1400         4.6000         5.9900      -198.4400      2539.5400         2.8500
     918.60000     -9999.6900       317.9200       106.5900         4.2900         4.8500         6.2000      -198.3500      2538.6201         2.8500
     918.70000     -9999.6900       308.5600       112.5800         4.4200         5.0300         6.2600      -198.2100      2523.6499         2.8700
     918.80000     -9999.6900       299.8200       119.3800         4.5400         5.1300         6.2200      -198.0800      2507.6001         2.8800
     918.90000     -9999.6900       295.2500       121.3700         4.6300         5.1400         6.1200      -198.0000      2489.1001         2.9100
     919.00000     -9999.6900       295.7300       118.8700         4.6800         5.0900         6.0000      -197.9800      2474.3899         2.9500
     919.10000     -9999.6900       297.1600       115.5600         4.7000         4.9900         5.8300      -197.9700      2460.3401         2.9800
     919.20000     -9999.6900       297.2300       114.8600         4.7000         4.8800         5.6200      -198.0100      2446.8799         2.9900
     919.30000     -9999.6900       298.9000       117.1600         4.6900         4.7800         5.4000      -198.1000      2436.4199         2.9300
     919.40000     -9999.6900       304.5400       121.5500         4.6500         4.7100         5.2300      -198.1600      2424.4500         2.8900
     919.50000     -9999.6900       311.5700       125.2500         4.6200         4.6800         5.1800      -198.2100      2422.8999         2.8400
     919.60000     -9999.6900       315.6900       125.0000         4.5900         4.6900         5.2500      -198.2200      2431.2000         2.8100
     919.70000     -9999.6900       316.3400       120.7700         4.5800         4.7300         5.3700      -198.2100      2447.8000         2.7800
     919.80000     -9999.6900       316.5500       114.2300         4.5800         4.8000         5.5000      -198.1800      2466.8000         2.7500
     919.90000     -9999.6900       317.7100       107.0300         4.6000         4.8700         5.5900      -198.1200      2482.9700         2.7500
     920.00000     -9999.6900       317.0400       101.9200         4.6300         4.9300         5.6800      -198.0700      2501.3701         2.7400
     920.10000     -9999.6900       313.3000       102.0400         4.6600         4.9700         5.7500      -198.0500      2514.6001         2.7600
     920.20000     -9999.6900       309.2100       106.5200         4.6700         4.9600         5.7800      -198.0500      2520.6399         2.7900
     920.30000     -9999.6900       306.5700       112.6200         4.6400         4.9100         5.7800      -198.0500      2518.7000         2.8300
     920.40000     -9999.6900       304.7500       117.0000         4.5600         4.8000         5.7400      -198.0400      2508.7600         2.8700
     920.50000     -9999.6900       302.2100       118.3800         4.4300         4.6400         5.6700      -198.0000      2500.2600         2.8600
     920.60000     -9999.6900       300.4100       117.4600         4.2500         4.4200         5.5500      -197.9500      2495.3000         2.8600
     920.70000     -9999.6900       300.3200       115.8500         4.0400         4.1500         5.3500      -197.9100      2487.0601         2.8800
     920.80000     -9999.6900       300.1700       113.9200         3.8400         3.8600         5.0400      -197.9100      2477.8401         2.9200
     920.90000     -9999.6900       301.3800       110.4400         3.6400         3.5700         4.6000      -197.9900      2461.5801         2.9700
     921.00000     -9999.6900       306.5800       105.2200         3.4600         3.3100         4.1200      -198.0800      2443.4600         3.0000
     921.10000     -9999.6900       316.0300        98.9600         3.3100         3.0800         3.7100      -198.1800      2425.8000         3.0400
     921.20000     -9999.6900       327.0500        94.2100         3.1900         2.9100         3.4200      -198.2500      2412.9099         3.0500
     921.30000     -9999.6900       336.4200        92.8200         3.1000         2.7900         3.2400      -198.2400      2405.2800         3.0100
     921.40000     -9999.6900       343.8600        94.9800         3.0300         2.7200         3.1400      -198.2200      2395.0601         2.9800
     921.50000     -9999.6900       351.8300        99.0600         2.9900         2.7000         3.1000      -198.2000      2382.8701         2.9600
     921.60000     -9999.6900       358.1800       103.4800         2.9700         2.7300         3.1200      -198.2000      2378.3401         2.9300
     921.70000     -9999.6900       358.2600       106.9300         2.9800         2.8000         3.2200      -198.1900      2387.4399         2.9000
     921.80000     -9999.6900       354.6800       108.5400         3.0100         2.9200         3.3800      -198.0900      2403.1799         2.8600
     921.90000     -9999.6900       352.0100       107.8300         3.0700         3.0600         3.5700      -197.9600      2419.6899         2.8300
     922.00000     -9999.6900       350.6400       105.5400         3.1500         3.2200         3.7700      -197.8300      2431.6299         2.8200
     922.10000     -9999.6900       346.8900       102.1900         3.2600         3.3900         3.9600      -197.7200      2439.3701         2.8300
     922.20000     -9999.6900       338.2900        98.2700         3.4000         3.5600         4.1400      -197.6500      2446.1201         2.8500
     922.30000     -9999.6900       329.3200        94.5800         3.5600         3.7100         4.3000      -197.6200      2450.5500         2.8600
     922.40000     -9999.6900       322.7200        91.9900         3.7400         3.8400         4.4200      -197.6600      2453.4099         2.8600
     922.50000     -9999.6900       317.1000        91.9400         3.9300         3.9600         4.5200      -197.7500      2451.3401         2.8500
     922.60000     -9999.6900       313.5200        93.9500         4.1100         4.0600         4.6200      -197.8000      2445.8101         2.8200
     922.70000     -9999.6900       312.0700        95.7200         4.2500         4.1700         4.7100      -197.8600      2440.6299         2.8000
     922.80000     -9999.6900       309.8800        95.2800         4.3400         4.2600         4.8000      -197.9400      2439.3201         2.7800
     922.90000     -9999.6900       307.1500        93.2300         4.3800         4.3400         4.9000      -198.0300      2441.4900         2.7700
