~Version Information
# Data Copyright 2013 (C) geoLOGIC systems ltd.
 VERS  .     3.00 : LOG ASCII STANDARD -VERSION 3.0
 WRAP  .     NO   : ONE LINE PER DEPTH STEP
 DLM   .    SPACE : DELIMITING CHARACTER BETWEEN DATA COLUMNS
 PROD  .      geoLOGIC systems ltd.          : LAS Producer
 CREA  .      05/02/2025                     : LAS Creation date {MM/DD/YYYY}
~Well
#MNEM  .UNIT        Data                       Description of Mnemonic
#------.------ ----------------------------- : -------------------------
 STRT  .M           5.00000                  : START DEPTH
 STOP  .M        1159.90000                  : STOP DEPTH
 STEP  .M           0.10000                  : STEP DEPTH
 NULL  .           -9999.69                  : NULL VALUE
 COMP  .      KI EXPLORATION INC.            : Company
 WELL  .      KI RETLAW 15-6-13-18           : Well
 FLD   .      RETLAW                         : Field
 LOC   .      100/15-06-013-18W4/00          : Location
 PRVC  .      Alberta                        : Province
 SRVC  .      Tucker Wireline Services       : Service Company
 DATE  .      OCT 10 2009                    : Log Date
 UWI   .      100150601318W400               : Unique Well ID
 LIC   .      0412565                        : Licence Number
 LATI  .                                     : Latitude
 LONG  .                                     : Longitude
 GDAT  .                                     : Geodetic Datum
~Parameter
#MNEM  .UNIT        VALUE                      Description
#------.------ ----------------------------- : -------------------------
 RUN   .            1                        : Run number (100150601318W400_Ki_Retlaw_15-6-13-18_Final_Hires.las,100150601318W400_Ki_Retlaw_15-6-13-18_Final_Mai.las)
 GL    .M           821.809998               : Ground level elevation (100150601318W400_Ki_Retlaw_15-6-13-18_Final_Hires.las,100150601318W400_Ki_Retlaw_15-6-13-18_Final_Mai.las)
 DREF  .            KB                       : Depth reference (100150601318W400_Ki_Retlaw_15-6-13-18_Final_Hires.las,100150601318W400_Ki_Retlaw_15-6-13-18_Final_Mai.las)
 EREF  .M           826.099976               : Elevation of depth reference (100150601318W400_Ki_Retlaw_15-6-13-18_Final_Hires.las,100150601318W400_Ki_Retlaw_15-6-13-18_Final_Mai.las)
 TDL   .M           1157.0                   : Total depth, logger (100150601318W400_Ki_Retlaw_15-6-13-18_Final_Hires.las,100150601318W400_Ki_Retlaw_15-6-13-18_Final_Mai.las)
 TDD   .M           1157.0                   : Total depth, driller (100150601318W400_Ki_Retlaw_15-6-13-18_Final_Hires.las,100150601318W400_Ki_Retlaw_15-6-13-18_Final_Mai.las)
 CSGL  .M           293.0                    : Casing bottom, logger (100150601318W400_Ki_Retlaw_15-6-13-18_Final_Hires.las,100150601318W400_Ki_Retlaw_15-6-13-18_Final_Mai.las)
 CSGD  .M           293.0                    : Casing bottom, driller (100150601318W400_Ki_Retlaw_15-6-13-18_Final_Hires.las,100150601318W400_Ki_Retlaw_15-6-13-18_Final_Mai.las)
 CSGS  .mm          219.10                   : Casing size (100150601318W400_Ki_Retlaw_15-6-13-18_Final_Hires.las,100150601318W400_Ki_Retlaw_15-6-13-18_Final_Mai.las)
 CSGW  .Kg          219.10                   : Casing weight (100150601318W400_Ki_Retlaw_15-6-13-18_Final_Hires.las,100150601318W400_Ki_Retlaw_15-6-13-18_Final_Mai.las)
 BS    .mm          200.00                   : Bit size (100150601318W400_Ki_Retlaw_15-6-13-18_Final_Hires.las,100150601318W400_Ki_Retlaw_15-6-13-18_Final_Mai.las)
 MUD   .            GEL CHEM                 : Mud type (100150601318W400_Ki_Retlaw_15-6-13-18_Final_Hires.las,100150601318W400_Ki_Retlaw_15-6-13-18_Final_Mai.las)
 MUDD  .kg/m3       1230.000                 : Mud density (100150601318W400_Ki_Retlaw_15-6-13-18_Final_Hires.las,100150601318W400_Ki_Retlaw_15-6-13-18_Final_Mai.las)
 MUDV  .sec         81.000                   : Mud viscosity (100150601318W400_Ki_Retlaw_15-6-13-18_Final_Hires.las,100150601318W400_Ki_Retlaw_15-6-13-18_Final_Mai.las)
 FL    .cc          7.500                    : Fluid loss rate (100150601318W400_Ki_Retlaw_15-6-13-18_Final_Hires.las,100150601318W400_Ki_Retlaw_15-6-13-18_Final_Mai.las)
 PH    .            10.000                   : Mud pH (100150601318W400_Ki_Retlaw_15-6-13-18_Final_Hires.las,100150601318W400_Ki_Retlaw_15-6-13-18_Final_Mai.las)
 MUDS  .            FLOW LINE                : Mud source (100150601318W400_Ki_Retlaw_15-6-13-18_Final_Hires.las,100150601318W400_Ki_Retlaw_15-6-13-18_Final_Mai.las)
 RM    .OHMM        2.100                    : Resistivity of mud (100150601318W400_Ki_Retlaw_15-6-13-18_Final_Hires.las,100150601318W400_Ki_Retlaw_15-6-13-18_Final_Mai.las)
 RMT   .C           12.0                     : Temperature of mud (100150601318W400_Ki_Retlaw_15-6-13-18_Final_Hires.las,100150601318W400_Ki_Retlaw_15-6-13-18_Final_Mai.las)
 RMF   .OHMM        2.500                    : Resistivity of mud filtrate (100150601318W400_Ki_Retlaw_15-6-13-18_Final_Hires.las,100150601318W400_Ki_Retlaw_15-6-13-18_Final_Mai.las)
 RMFT  .C           12.0                     : Temperature of mud filtrate (100150601318W400_Ki_Retlaw_15-6-13-18_Final_Hires.las,100150601318W400_Ki_Retlaw_15-6-13-18_Final_Mai.las)
 RMC   .OHMM        1.900                    : Resistivity of mud cake (100150601318W400_Ki_Retlaw_15-6-13-18_Final_Hires.las,100150601318W400_Ki_Retlaw_15-6-13-18_Final_Mai.las)
 RMCT  .C           12.0                     : Temperature of mud cake (100150601318W400_Ki_Retlaw_15-6-13-18_Final_Hires.las,100150601318W400_Ki_Retlaw_15-6-13-18_Final_Mai.las)
 TMAX  .C           32.0                     : Maximum recorded temperature (100150601318W400_Ki_Retlaw_15-6-13-18_Final_Hires.las,100150601318W400_Ki_Retlaw_15-6-13-18_Final_Mai.las)
 TIMC  .DAY/HR      OCT 10 2009 @ 16:00      : Date/Time circulation stopped (100150601318W400_Ki_Retlaw_15-6-13-18_Final_Hires.las,100150601318W400_Ki_Retlaw_15-6-13-18_Final_Mai.las)
 TIMD  .DAY/HR      OCT 10 2009 @ 21:00      : Date/Time logger tagged bottom (100150601318W400_Ki_Retlaw_15-6-13-18_Final_Hires.las,100150601318W400_Ki_Retlaw_15-6-13-18_Final_Mai.las)
 UNIT  .            TRUCK 134                : Logging unit_number (100150601318W400_Ki_Retlaw_15-6-13-18_Final_Hires.las,100150601318W400_Ki_Retlaw_15-6-13-18_Final_Mai.las)
 BASE  .            MEDICINE HAT             : Home base of logging unit (100150601318W400_Ki_Retlaw_15-6-13-18_Final_Hires.las,100150601318W400_Ki_Retlaw_15-6-13-18_Final_Mai.las)
 ENG   .            M. MacNEIL               : Recording Engineer (100150601318W400_Ki_Retlaw_15-6-13-18_Final_Hires.las,100150601318W400_Ki_Retlaw_15-6-13-18_Final_Mai.las)
 WIT   .            R. BABBITT               : Witnessed by (100150601318W400_Ki_Retlaw_15-6-13-18_Final_Hires.las,100150601318W400_Ki_Retlaw_15-6-13-18_Final_Mai.las)
~Curve
#MNEM  .UNIT        API Codes                  Curve description
#----  .----     -------------               : -----------------------
 DEPT  .M                                    : 
 GRX   .GAPI     07 310 01 00                : Gamma Ray (Hires)
 DT    .US/M     60 520 32 00                : Delta Time
 GR    .GAPI     07 310 01 00                : Gamma Ray
 ILD   .OHMM     07 120 45 00                : Deep Induction Resistivity
 ILM   .OHMM     07 120 44 00                : Medium Induction Resistivity
 SFL   .OHMM     07 220 04 00                : Spherically Focused Resistivity
 SP    .MV       07 010 01 00                : Spontaneous Potential
 RHOB  .KG/M3    45 350 02 00                : Bulk Density
 PE    .B/E      45 358 00 00                : Photoelectric Cross Section
~TOPS_Definition
 TOPN.        :  Top Name     {S} 
 TOPT.M       :  Top Depth    {F} 
~TOPS_Data | TOPS_Definition
 Kcolorado            435.6  
 Kmed_hat             487.0  
 K2nd_ws              695.6  
 K2ws_ss              716.9  
 Kbfs                 795.0  
 Kbi_ss               825.3  
 Kbsl_colo            945.5  
 Kmannvl              953.0  
 Kglauc_ss            1057.7  
 Kmannvl_L            1094.9  
~Ascii        DEPT          GRX           DT           GR          ILD          ILM          SFL           SP         RHOB           PE
# ...
     167.00000     -9999.6900       180.6400        48.0600        19.7600     10000.0000         0.0600      -166.8100      1074.2600         8.9200
     167.10000     -9999.6900       180.1000        51.1900        19.6800     10000.0000         0.0600      -166.1500      1015.5700         8.8800
     167.20000     -9999.6900       180.0400        56.1500        19.5500     10000.0000         0.0600      -165.2100       939.8800         8.8500
     167.30000     -9999.6900       180.2600        57.4600        19.4400     10000.0000         0.0600      -164.0700       871.4900         8.8400
     167.40000     -9999.6900       180.5100        53.4200        19.3200     10000.0000         0.0700      -163.0300       847.3700         8.8500
     167.50000     -9999.6900       180.5600        50.8900        19.1700     10000.0000         0.0700      -162.6200       864.0600         8.9100
     167.60000     -9999.6900       180.5700        54.8900        19.0200     10000.0000         0.0700      -162.9800       916.9000         8.8800
     167.70000     -9999.6900       180.5600        61.3100        18.9100     10000.0000         0.0700      -163.9100       969.8100         8.9000
     167.80000     -9999.6900       180.5200        63.4300        18.8300     10000.0000         0.0600      -165.0200       999.9100         8.9500
     167.90000     -9999.6900       180.3900        63.8100        18.7500     10000.0000         0.0600      -165.9000      1003.1600         9.0200
     168.00000     -9999.6900       180.6800        68.1900        18.6600     10000.0000         0.0600      -166.3800       982.7000         9.1600
     168.10000     -9999.6900       181.1800        75.1500        18.5900     10000.0000         0.0600      -166.3800       965.7100         9.1000
     168.20000     -9999.6900       180.7600        77.1900        18.5400     10000.0000         0.0600      -165.9500       952.8300         9.0400
     168.30000     -9999.6900       180.0400        71.9200        18.4100     10000.0000         0.0600      -165.2600       953.3800         8.9500
     168.40000     -9999.6900       180.4700        64.7000        18.2600     10000.0000         0.0600      -164.5000       966.0200         8.8300
     168.50000     -9999.6900       181.6200        62.6300        18.1400     10000.0000         0.0700      -163.6100       981.0300         8.7700
     168.60000     -9999.6900       182.2700        65.8900        18.0300     10000.0000         0.0700      -162.5300      1005.8400         8.5900
     168.70000     -9999.6900       182.4000        69.0300        17.9400     10000.0000         0.0700      -161.2600      1016.1200         8.4500
     168.80000     -9999.6900       182.4100        68.9100        17.8500     10000.0000         0.0700      -160.0400      1014.2400         8.4200
     168.90000     -9999.6900       182.4300        65.2900        17.7600     10000.0000         0.0700      -159.3100      1014.7100         8.5000
     169.00000     -9999.6900       182.4300        59.8000        17.6500     10000.0000         0.0700      -159.1400      1016.0800         8.6400
     169.10000     -9999.6900       182.5600        54.8300        17.5400     10000.0000         0.0700      -159.3800      1008.9200         8.7000
     169.20000     -9999.6900       183.0900        56.5500        17.3900     10000.0000         0.0700      -159.7200       966.6900         8.6500
     169.30000     -9999.6900       183.8200        63.6700        17.2200     10000.0000         0.0700      -159.9600       884.2500         8.6000
     169.40000     -9999.6900       184.0900        66.9200        17.0500     10000.0000         0.0700      -160.0700       796.0600         8.7100
     169.50000     -9999.6900       183.8200        61.1100        16.9900     10000.0000         0.0700      -160.0600       752.3000         8.7800
     169.60000     -9999.6900       182.9600        55.6700        16.7700     10000.0000         0.0700      -160.0100       759.0900         8.7800
     169.70000     -9999.6900       181.9900        58.6000        16.5700     10000.0000         0.0700      -159.8600       803.5300         8.6400
     169.80000     -9999.6900       181.6600        66.7300        16.3900     10000.0000         0.0600      -159.5600       854.2000         8.4500
     169.90000     -9999.6900       181.5700        70.9900        16.1200     10000.0000         0.0600      -159.0000       894.8700         8.4200
     170.00000     -9999.6900       180.0000        70.7600        16.1000     10000.0000         0.0600      -158.2500       915.2500         8.5100
     170.10000     -9999.6900       178.7400        68.6100        16.1200     10000.0000         0.0600      -157.6000       918.3000         8.6700
     170.20000     -9999.6900       180.1100        67.6900        16.2000     10000.0000         0.0600      -157.3700       919.7300         8.7800
     170.30000     -9999.6900       181.2200        67.4700        16.4100     10000.0000         0.0600      -157.7200       939.8000         8.7800
     170.40000     -9999.6900       180.6500        66.1900        16.7400     10000.0000         0.0600      -158.5700       954.3300         8.7400
     170.50000     -9999.6900       180.0400        62.6300        17.1500     10000.0000         0.0600      -159.6900       949.6200         8.7200
     170.60000     -9999.6900       179.7600        58.6000        17.9100     10000.0000         0.0600      -160.8200       865.6400         8.7400
     170.70000     -9999.6900       180.0300        55.4700        19.2000     10000.0000         0.0600      -161.9100       632.5600         8.6100
     170.80000     -9999.6900       182.6900        54.6500        19.9400     10000.0000         0.0600      -163.1900       217.6900         8.2200
     170.90000     -9999.6900       188.0000        56.4600        19.8700     10000.0000         0.0600      -164.7000      -357.2500         7.6900
     171.00000     -9999.6900       192.5400        60.0400        18.8800     10000.0000         0.0600      -166.2200      -684.6500         7.3600
     171.10000     -9999.6900       194.1400        62.8400        17.3300     10000.0000         0.0600      -166.7800      -490.9600         7.6700
     171.20000     -9999.6900       193.9600        63.1700        16.4000     10000.0000         0.0600      -165.6900       -44.0300         8.1300
     171.30000     -9999.6900       195.8800        62.0100        15.8100     10000.0000         0.0600      -163.0000       340.6200         8.4100
     171.40000     -9999.6900       203.9000        62.0000        15.3200     10000.0000         0.0600      -159.1800       556.0400         8.5700
     171.50000     -9999.6900       207.1300        63.9500        15.0000     10000.0000         0.0600      -155.0000       670.6400         8.6500
     171.60000     -9999.6900       194.1900        65.7800        14.8000     10000.0000         0.0500      -150.8700       724.7800         8.8300
     171.70000     -9999.6900       182.5500        64.1800        14.6400     10000.0000         0.0500      -147.2100       744.7100         9.0500
     171.80000     -9999.6900       180.1300        58.7600        14.4700     10000.0000         0.0500      -144.3200       767.0300         9.1800
     171.90000     -9999.6900       180.3300        54.4400        14.4600     10000.0000         0.0500      -142.2400       787.3500         9.3500
     172.00000     -9999.6900       180.8700        55.1200        14.3900     10000.0000         0.0500      -140.9200       790.9800         9.3900
     172.10000     -9999.6900       182.9200        59.2600        14.3500     10000.0000         0.0500      -140.1600       752.0900         9.4900
     172.20000     -9999.6900       186.3400        62.8000        14.2900     10000.0000         0.0500      -139.8100       680.9600         9.5200
     172.30000     -9999.6900       188.3200        63.4100        14.1800     10000.0000         0.0500      -139.6900       617.4300         9.3000
