~Version Information
# Data Copyright 2013 (C) geoLOGIC systems ltd.
 VERS  .     3.00 : LOG ASCII STANDARD -VERSION 3.0
 WRAP  .     NO   : ONE LINE PER DEPTH STEP
 DLM   .    SPACE : DELIMITING CHARACTER BETWEEN DATA COLUMNS
 PROD  .      geoLOGIC systems ltd.          : LAS Producer
 CREA  .      05/02/2025                     : LAS Creation date {MM/DD/YYYY}
~Well
#MNEM  .UNIT        Data                       Description of Mnemonic
#------.------ ----------------------------- : -------------------------
 STRT  .M           5.00000                  : START DEPTH
 STOP  .M        1159.90000                  : STOP DEPTH
 STEP  .M           0.10000                  : STEP DEPTH
 NULL  .           -9999.69                  : NULL VALUE
 COMP  .      KI EXPLORATION INC.            : Company
 WELL  .      KI RETLAW 15-6-13-18           : Well
 FLD   .      RETLAW                         : Field
 LOC   .      100/15-06-013-18W4/00          : Location
 PRVC  .      Alberta                        : Province
 SRVC  .      Tucker Wireline Services       : Service Company
 DATE  .      OCT 10 2009                    : Log Date
 UWI   .      100150601318W400               : Unique Well ID
 LIC   .      0412565                        : Licence Number
 LATI  .                                     : Latitude
 LONG  .                                     : Longitude
 GDAT  .                                     : Geodetic Datum
~Parameter
#MNEM  .UNIT        VALUE                      Description
#------.------ ----------------------------- : -------------------------
 RUN   .            1                        : Run number (100150601318W400_Ki_Retlaw_15-6-13-18_Final_Hires.las,100150601318W400_Ki_Retlaw_15-6-13-18_Final_Mai.las)
 GL    .M           821.809998               : Ground level elevation (100150601318W400_Ki_Retlaw_15-6-13-18_Final_Hires.las,100150601318W400_Ki_Retlaw_15-6-13-18_Final_Mai.las)
 DREF  .            KB                       : Depth reference (100150601318W400_Ki_Retlaw_15-6-13-18_Final_Hires.las,100150601318W400_Ki_Retlaw_15-6-13-18_Final_Mai.las)
 EREF  .M           826.099976               : Elevation of depth reference (100150601318W400_Ki_Retlaw_15-6-13-18_Final_Hires.las,100150601318W400_Ki_Retlaw_15-6-13-18_Final_Mai.las)
 TDL   .M           1157.0                   : Total depth, logger (100150601318W400_Ki_Retlaw_15-6-13-18_Final_Hires.las,100150601318W400_Ki_Retlaw_15-6-13-18_Final_Mai.las)
 TDD   .M           1157.0                   : Total depth, driller (100150601318W400_Ki_Retlaw_15-6-13-18_Final_Hires.las,100150601318W400_Ki_Retlaw_15-6-13-18_Final_Mai.las)
 CSGL  .M           293.0                    : Casing bottom, logger (100150601318W400_Ki_Retlaw_15-6-13-18_Final_Hires.las,100150601318W400_Ki_Retlaw_15-6-13-18_Final_Mai.las)
 CSGD  .M           293.0                    : Casing bottom, driller (100150601318W400_Ki_Retlaw_15-6-13-18_Final_Hires.las,100150601318W400_Ki_Retlaw_15-6-13-18_Final_Mai.las)
 CSGS  .mm          219.10                   : Casing size (100150601318W400_Ki_Retlaw_15-6-13-18_Final_Hires.las,100150601318W400_Ki_Retlaw_15-6-13-18_Final_Mai.las)
 CSGW  .Kg          219.10                   : Casing weight (100150601318W400_Ki_Retlaw_15-6-13-18_Final_Hires.las,100150601318W400_Ki_Retlaw_15-6-13-18_Final_Mai.las)
 BS    .mm          200.00                   : Bit size (100150601318W400_Ki_Retlaw_15-6-13-18_Final_Hires.las,100150601318W400_Ki_Retlaw_15-6-13-18_Final_Mai.las)
 MUD   .            GEL CHEM                 : Mud type (100150601318W400_Ki_Retlaw_15-6-13-18_Final_Hires.las,100150601318W400_Ki_Retlaw_15-6-13-18_Final_Mai.las)
 MUDD  .kg/m3       1230.000                 : Mud density (100150601318W400_Ki_Retlaw_15-6-13-18_Final_Hires.las,100150601318W400_Ki_Retlaw_15-6-13-18_Final_Mai.las)
 MUDV  .sec         81.000                   : Mud viscosity (100150601318W400_Ki_Retlaw_15-6-13-18_Final_Hires.las,100150601318W400_Ki_Retlaw_15-6-13-18_Final_Mai.las)
 FL    .cc          7.500                    : Fluid loss rate (100150601318W400_Ki_Retlaw_15-6-13-18_Final_Hires.las,100150601318W400_Ki_Retlaw_15-6-13-18_Final_Mai.las)
 PH    .            10.000                   : Mud pH (100150601318W400_Ki_Retlaw_15-6-13-18_Final_Hires.las,100150601318W400_Ki_Retlaw_15-6-13-18_Final_Mai.las)
 MUDS  .            FLOW LINE                : Mud source (100150601318W400_Ki_Retlaw_15-6-13-18_Final_Hires.las,100150601318W400_Ki_Retlaw_15-6-13-18_Final_Mai.las)
 RM    .OHMM        2.100                    : Resistivity of mud (100150601318W400_Ki_Retlaw_15-6-13-18_Final_Hires.las,100150601318W400_Ki_Retlaw_15-6-13-18_Final_Mai.las)
 RMT   .C           12.0                     : Temperature of mud (100150601318W400_Ki_Retlaw_15-6-13-18_Final_Hires.las,100150601318W400_Ki_Retlaw_15-6-13-18_Final_Mai.las)
 RMF   .OHMM        2.500                    : Resistivity of mud filtrate (100150601318W400_Ki_Retlaw_15-6-13-18_Final_Hires.las,100150601318W400_Ki_Retlaw_15-6-13-18_Final_Mai.las)
 RMFT  .C           12.0                     : Temperature of mud filtrate (100150601318W400_Ki_Retlaw_15-6-13-18_Final_Hires.las,100150601318W400_Ki_Retlaw_15-6-13-18_Final_Mai.las)
 RMC   .OHMM        1.900                    : Resistivity of mud cake (100150601318W400_Ki_Retlaw_15-6-13-18_Final_Hires.las,100150601318W400_Ki_Retlaw_15-6-13-18_Final_Mai.las)
 RMCT  .C           12.0                     : Temperature of mud cake (100150601318W400_Ki_Retlaw_15-6-13-18_Final_Hires.las,100150601318W400_Ki_Retlaw_15-6-13-18_Final_Mai.las)
 TMAX  .C           32.0                     : Maximum recorded temperature (100150601318W400_Ki_Retlaw_15-6-13-18_Final_Hires.las,100150601318W400_Ki_Retlaw_15-6-13-18_Final_Mai.las)
 TIMC  .DAY/HR      OCT 10 2009 @ 16:00      : Date/Time circulation stopped (100150601318W400_Ki_Retlaw_15-6-13-18_Final_Hires.las,100150601318W400_Ki_Retlaw_15-6-13-18_Final_Mai.las)
 TIMD  .DAY/HR      OCT 10 2009 @ 21:00      : Date/Time logger tagged bottom (100150601318W400_Ki_Retlaw_15-6-13-18_Final_Hires.las,100150601318W400_Ki_Retlaw_15-6-13-18_Final_Mai.las)
 UNIT  .            TRUCK 134                : Logging unit_number (100150601318W400_Ki_Retlaw_15-6-13-18_Final_Hires.las,100150601318W400_Ki_Retlaw_15-6-13-18_Final_Mai.las)
 BASE  .            MEDICINE HAT             : Home base of logging unit (100150601318W400_Ki_Retlaw_15-6-13-18_Final_Hires.las,100150601318W400_Ki_Retlaw_15-6-13-18_Final_Mai.las)
 ENG   .            M. MacNEIL               : Recording Engineer (100150601318W400_Ki_Retlaw_15-6-13-18_Final_Hires.las,100150601318W400_Ki_Retlaw_15-6-13-18_Final_Mai.las)
 WIT   .            R. BABBITT               : Witnessed by (100150601318W400_Ki_Retlaw_15-6-13-18_Final_Hires.las,100150601318W400_Ki_Retlaw_15-6-13-18_Final_Mai.las)
~Curve
#MNEM  .UNIT        API Codes                  Curve description
#----  .----     -------------               : -----------------------
 DEPT  .M                                    : 
 GRX   .GAPI     07 310 01 00                : Gamma Ray (Hires)
 DT    .US/M     60 520 32 00                : Delta Time
 GR    .GAPI     07 310 01 00                : Gamma Ray
 ILD   .OHMM     07 120 45 00                : Deep Induction Resistivity
 ILM   .OHMM     07 120 44 00                : Medium Induction Resistivity
 SFL   .OHMM     07 220 04 00                : Spherically Focused Resistivity
 SP    .MV       07 010 01 00                : Spontaneous Potential
 RHOB  .KG/M3    45 350 02 00                : Bulk Density
 PE    .B/E      45 358 00 00                : Photoelectric Cross Section
~TOPS_Definition
 TOPN.        :  Top Name     {S} 
 TOPT.M       :  Top Depth    {F} 
~TOPS_Data | TOPS_Definition
 Kcolorado            435.6  
 Kmed_hat             487.0  
 K2nd_ws              695.6  
 K2ws_ss              716.9  
 Kbfs                 795.0  
 Kbi_ss               825.3  
 Kbsl_colo            945.5  
 Kmannvl              953.0  
 Kglauc_ss            1057.7  
 Kmannvl_L            1094.9  
~Ascii        DEPT          GRX           DT           GR          ILD          ILM          SFL           SP         RHOB           PE
# ...
     318.20000     -9999.6900       360.8800        72.5200         7.3100         7.7900         9.2700      -204.2900      2479.3501         3.1700
     318.30000     -9999.6900       354.7500        79.6100         7.7400         8.8200        10.9400      -204.4500      2483.3000         3.1800
     318.40000     -9999.6900       344.6800        89.3600         8.2600         9.9300        12.3100      -204.6100      2492.1699         3.1200
     318.50000     -9999.6900       333.9500        96.0900         8.9400        10.9900        13.1200      -204.7500      2502.0200         3.0100
     318.60000     -9999.6900       322.9300       100.1400         9.7700        11.9000        13.4300      -204.8800      2510.7100         2.9100
     318.70000     -9999.6900       312.1800       101.1900        10.6400        12.6600        13.5200      -205.0200      2521.6599         2.8200
     318.80000     -9999.6900       304.6700       100.0700        11.5200        13.3400        13.7200      -205.1500      2528.0500         2.7800
     318.90000     -9999.6900       303.0800       100.7200        12.3100        14.0500        14.2300      -205.3500      2536.3701         2.7600
     319.00000     -9999.6900       306.2700       104.9200        12.8300        14.8100        15.3100      -205.6300      2543.6799         2.7700
     319.10000     -9999.6900       309.2100       106.7300        12.9900        15.5500        16.9700      -206.0600      2543.1201         2.8300
     319.20000     -9999.6900       306.5600       100.6900        12.8500        16.0200        18.8500      -206.6500      2538.6499         2.9100
     319.30000     -9999.6900       297.8000        88.9200        12.5300        15.9900        20.1500      -207.3700      2522.0901         2.9800
     319.40000     -9999.6900       288.2200        77.6100        12.1700        15.3400        20.0400      -208.2400      2498.9199         3.0000
     319.50000     -9999.6900       280.9000        70.2300        11.8100        14.2500        18.5100      -209.2100      2474.9500         2.9300
     319.60000     -9999.6900       276.6800        65.6900        11.5300        13.0200        16.2700      -210.3000      2445.5801         2.8100
     319.70000     -9999.6900       277.5000        62.4500        11.3300        11.9200        14.1500      -211.4700      2417.9099         2.6900
     319.80000     -9999.6900       285.3900        60.4900        11.1600        11.0700        12.7100      -212.6000      2386.5801         2.6100
     319.90000     -9999.6900       300.6300        61.3600        10.9800        10.4900        11.9300      -213.5700      2361.6799         2.5300
     320.00000     -9999.6900       319.5000        65.9000        10.7800        10.1600        11.6100      -214.2000      2352.8701         2.4600
     320.10000     -9999.6900       335.3500        73.1500        10.5700        10.0300        11.4800      -214.3800      2354.0200         2.4200
     320.20000     -9999.6900       345.4100        81.2100        10.3500        10.0400        11.3700      -214.0900      2372.2300         2.4300
     320.30000     -9999.6900       350.8400        88.6000        10.1400        10.1500        11.2500      -213.3200      2394.8899         2.5100
     320.40000     -9999.6900       351.5500        94.5500         9.9800        10.2800        11.1500      -212.1500      2416.2300         2.6000
     320.50000     -9999.6900       347.1700        97.8500         9.8600        10.4000        11.0500      -210.7800      2431.5801         2.7000
     320.60000     -9999.6900       341.3500        98.8300         9.8000        10.4400        10.9400      -209.5000      2434.5200         2.8000
     320.70000     -9999.6900       337.0500        98.7500         9.7800        10.3900        10.7600      -208.5300      2435.5901         2.8700
     320.80000     -9999.6900       332.6100        97.6300         9.8100        10.2400        10.4900      -207.9600      2433.3899         2.9600
     320.90000     -9999.6900       326.7400        95.7200         9.8600        10.0400        10.1400      -207.8000      2433.0000         2.9500
     321.00000     -9999.6900       322.4500        94.8800         9.9200         9.8500         9.7600      -207.9200      2432.2700         2.9200
     321.10000     -9999.6900       323.5400        97.8600         9.9600         9.7000         9.5500      -208.3400      2430.7800         2.8600
     321.20000     -9999.6900       328.7300       101.9800         9.9600         9.6300         9.6900      -209.1200      2421.8301         2.8100
     321.30000     -9999.6900       334.0700       101.9000         9.9700         9.6400        10.1800      -210.3000      2400.0801         2.7900
     321.40000     -9999.6900       338.4200        95.5200         9.9600         9.7200        10.7800      -211.8600      2373.6499         2.7600
     321.50000     -9999.6900       341.9900        86.2300         9.9500         9.8500        11.2500      -213.4300      2348.4099         2.7200
     321.60000     -9999.6900       345.5200        78.0600         9.9300         9.9900        11.5200      -214.6900      2332.6699         2.6600
     321.70000     -9999.6900       349.0400        73.9300         9.9200        10.1300        11.5900      -215.3900      2331.0200         2.6000
     321.80000     -9999.6900       350.3500        73.6900         9.9700        10.2600        11.5600      -215.3600      2341.3799         2.5700
     321.90000     -9999.6900       348.5100        76.9700        10.0400        10.3700        11.4700      -214.7500      2359.5400         2.6000
     322.00000     -9999.6900       344.4600        80.1900        10.1400        10.4700        11.3500      -213.7800      2375.8701         2.6500
     322.10000     -9999.6900       339.3200        80.9800        10.2700        10.5600        11.2500      -212.8100      2383.5100         2.7000
     322.20000     -9999.6900       334.2300        79.0900        10.4300        10.6300        11.1900      -212.1500      2386.6001         2.7300
     322.30000     -9999.6900       328.8200        77.0800        10.6200        10.6800        11.1500      -211.9300      2388.5300         2.7400
     322.40000     -9999.6900       323.7200        75.7500        10.7900        10.7300        11.0900      -212.1600      2392.1399         2.7200
     322.50000     -9999.6900       321.2200        77.0300        10.9400        10.7900        10.9900      -212.7300      2395.0901         2.6800
     322.60000     -9999.6900       322.3200        81.4800        11.0200        10.8800        10.8900      -213.4600      2395.7400         2.6500
     322.70000     -9999.6900       325.4700        88.5900        11.0200        11.0200        10.8800      -214.1700      2396.0300         2.6300
     322.80000     -9999.6900       327.9600        93.0400        10.9300        11.1900        11.1500      -214.9100      2391.3701         2.6500
     322.90000     -9999.6900       328.6900        89.9700        10.7300        11.3400        11.7600      -215.8500      2380.6399         2.6900
     323.00000     -9999.6900       328.0300        80.3700        10.5000        11.3800        12.5400      -217.1600      2363.6299         2.7300
     323.10000     -9999.6900       327.0000        70.2000        10.2400        11.2400        13.1500      -218.9300      2344.3101         2.7100
     323.20000     -9999.6900       327.1600        62.6400         9.9800        10.9000        13.2200      -220.9600      2322.2700         2.6400
     323.30000     -9999.6900       329.1400        56.2500         9.7300        10.3900        12.7500      -223.0600      2302.3999         2.5400
     323.40000     -9999.6900       333.5400        48.9900         9.5000         9.8000        12.0200      -224.9400      2280.0801         2.4500
     323.50000     -9999.6900       341.4700        42.8100         9.2500         9.2200        11.2800      -226.4000      2260.4099         2.3900
