~Version Information
# Data Copyright 2013 (C) geoLOGIC systems ltd.
 VERS  .     3.00 : LOG ASCII STANDARD -VERSION 3.0
 WRAP  .     NO   : ONE LINE PER DEPTH STEP
 DLM   .    SPACE : DELIMITING CHARACTER BETWEEN DATA COLUMNS
 PROD  .      geoLOGIC systems ltd.          : LAS Producer
 CREA  .      05/02/2025                     : LAS Creation date {MM/DD/YYYY}
~Well
#MNEM  .UNIT        Data                       Description of Mnemonic
#------.------ ----------------------------- : -------------------------
 STRT  .M           5.00000                  : START DEPTH
 STOP  .M        1159.90000                  : STOP DEPTH
 STEP  .M           0.10000                  : STEP DEPTH
 NULL  .           -9999.69                  : NULL VALUE
 COMP  .      KI EXPLORATION INC.            : Company
 WELL  .      KI RETLAW 15-6-13-18           : Well
 FLD   .      RETLAW                         : Field
 LOC   .      100/15-06-013-18W4/00          : Location
 PRVC  .      Alberta                        : Province
 SRVC  .      Tucker Wireline Services       : Service Company
 DATE  .      OCT 10 2009                    : Log Date
 UWI   .      100150601318W400               : Unique Well ID
 LIC   .      0412565                        : Licence Number
 LATI  .                                     : Latitude
 LONG  .                                     : Longitude
 GDAT  .                                     : Geodetic Datum
~Parameter
#MNEM  .UNIT        VALUE                      Description
#------.------ ----------------------------- : -------------------------
 RUN   .            1                        : Run number (100150601318W400_Ki_Retlaw_15-6-13-18_Final_Hires.las,100150601318W400_Ki_Retlaw_15-6-13-18_Final_Mai.las)
 GL    .M           821.809998               : Ground level elevation (100150601318W400_Ki_Retlaw_15-6-13-18_Final_Hires.las,100150601318W400_Ki_Retlaw_15-6-13-18_Final_Mai.las)
 DREF  .            KB                       : Depth reference (100150601318W400_Ki_Retlaw_15-6-13-18_Final_Hires.las,100150601318W400_Ki_Retlaw_15-6-13-18_Final_Mai.las)
 EREF  .M           826.099976               : Elevation of depth reference (100150601318W400_Ki_Retlaw_15-6-13-18_Final_Hires.las,100150601318W400_Ki_Retlaw_15-6-13-18_Final_Mai.las)
 TDL   .M           1157.0                   : Total depth, logger (100150601318W400_Ki_Retlaw_15-6-13-18_Final_Hires.las,100150601318W400_Ki_Retlaw_15-6-13-18_Final_Mai.las)
 TDD   .M           1157.0                   : Total depth, driller (100150601318W400_Ki_Retlaw_15-6-13-18_Final_Hires.las,100150601318W400_Ki_Retlaw_15-6-13-18_Final_Mai.las)
 CSGL  .M           293.0                    : Casing bottom, logger (100150601318W400_Ki_Retlaw_15-6-13-18_Final_Hires.las,100150601318W400_Ki_Retlaw_15-6-13-18_Final_Mai.las)
 CSGD  .M           293.0                    : Casing bottom, driller (100150601318W400_Ki_Retlaw_15-6-13-18_Final_Hires.las,100150601318W400_Ki_Retlaw_15-6-13-18_Final_Mai.las)
 CSGS  .mm          219.10                   : Casing size (100150601318W400_Ki_Retlaw_15-6-13-18_Final_Hires.las,100150601318W400_Ki_Retlaw_15-6-13-18_Final_Mai.las)
 CSGW  .Kg          219.10                   : Casing weight (100150601318W400_Ki_Retlaw_15-6-13-18_Final_Hires.las,100150601318W400_Ki_Retlaw_15-6-13-18_Final_Mai.las)
 BS    .mm          200.00                   : Bit size (100150601318W400_Ki_Retlaw_15-6-13-18_Final_Hires.las,100150601318W400_Ki_Retlaw_15-6-13-18_Final_Mai.las)
 MUD   .            GEL CHEM                 : Mud type (100150601318W400_Ki_Retlaw_15-6-13-18_Final_Hires.las,100150601318W400_Ki_Retlaw_15-6-13-18_Final_Mai.las)
 MUDD  .kg/m3       1230.000                 : Mud density (100150601318W400_Ki_Retlaw_15-6-13-18_Final_Hires.las,100150601318W400_Ki_Retlaw_15-6-13-18_Final_Mai.las)
 MUDV  .sec         81.000                   : Mud viscosity (100150601318W400_Ki_Retlaw_15-6-13-18_Final_Hires.las,100150601318W400_Ki_Retlaw_15-6-13-18_Final_Mai.las)
 FL    .cc          7.500                    : Fluid loss rate (100150601318W400_Ki_Retlaw_15-6-13-18_Final_Hires.las,100150601318W400_Ki_Retlaw_15-6-13-18_Final_Mai.las)
 PH    .            10.000                   : Mud pH (100150601318W400_Ki_Retlaw_15-6-13-18_Final_Hires.las,100150601318W400_Ki_Retlaw_15-6-13-18_Final_Mai.las)
 MUDS  .            FLOW LINE                : Mud source (100150601318W400_Ki_Retlaw_15-6-13-18_Final_Hires.las,100150601318W400_Ki_Retlaw_15-6-13-18_Final_Mai.las)
 RM    .OHMM        2.100                    : Resistivity of mud (100150601318W400_Ki_Retlaw_15-6-13-18_Final_Hires.las,100150601318W400_Ki_Retlaw_15-6-13-18_Final_Mai.las)
 RMT   .C           12.0                     : Temperature of mud (100150601318W400_Ki_Retlaw_15-6-13-18_Final_Hires.las,100150601318W400_Ki_Retlaw_15-6-13-18_Final_Mai.las)
 RMF   .OHMM        2.500                    : Resistivity of mud filtrate (100150601318W400_Ki_Retlaw_15-6-13-18_Final_Hires.las,100150601318W400_Ki_Retlaw_15-6-13-18_Final_Mai.las)
 RMFT  .C           12.0                     : Temperature of mud filtrate (100150601318W400_Ki_Retlaw_15-6-13-18_Final_Hires.las,100150601318W400_Ki_Retlaw_15-6-13-18_Final_Mai.las)
 RMC   .OHMM        1.900                    : Resistivity of mud cake (100150601318W400_Ki_Retlaw_15-6-13-18_Final_Hires.las,100150601318W400_Ki_Retlaw_15-6-13-18_Final_Mai.las)
 RMCT  .C           12.0                     : Temperature of mud cake (100150601318W400_Ki_Retlaw_15-6-13-18_Final_Hires.las,100150601318W400_Ki_Retlaw_15-6-13-18_Final_Mai.las)
 TMAX  .C           32.0                     : Maximum recorded temperature (100150601318W400_Ki_Retlaw_15-6-13-18_Final_Hires.las,100150601318W400_Ki_Retlaw_15-6-13-18_Final_Mai.las)
 TIMC  .DAY/HR      OCT 10 2009 @ 16:00      : Date/Time circulation stopped (100150601318W400_Ki_Retlaw_15-6-13-18_Final_Hires.las,100150601318W400_Ki_Retlaw_15-6-13-18_Final_Mai.las)
 TIMD  .DAY/HR      OCT 10 2009 @ 21:00      : Date/Time logger tagged bottom (100150601318W400_Ki_Retlaw_15-6-13-18_Final_Hires.las,100150601318W400_Ki_Retlaw_15-6-13-18_Final_Mai.las)
 UNIT  .            TRUCK 134                : Logging unit_number (100150601318W400_Ki_Retlaw_15-6-13-18_Final_Hires.las,100150601318W400_Ki_Retlaw_15-6-13-18_Final_Mai.las)
 BASE  .            MEDICINE HAT             : Home base of logging unit (100150601318W400_Ki_Retlaw_15-6-13-18_Final_Hires.las,100150601318W400_Ki_Retlaw_15-6-13-18_Final_Mai.las)
 ENG   .            M. MacNEIL               : Recording Engineer (100150601318W400_Ki_Retlaw_15-6-13-18_Final_Hires.las,100150601318W400_Ki_Retlaw_15-6-13-18_Final_Mai.las)
 WIT   .            R. BABBITT               : Witnessed by (100150601318W400_Ki_Retlaw_15-6-13-18_Final_Hires.las,100150601318W400_Ki_Retlaw_15-6-13-18_Final_Mai.las)
~Curve
#MNEM  .UNIT        API Codes                  Curve description
#----  .----     -------------               : -----------------------
 DEPT  .M                                    : 
 GRX   .GAPI     07 310 01 00                : Gamma Ray (Hires)
 DT    .US/M     60 520 32 00                : Delta Time
 GR    .GAPI     07 310 01 00                : Gamma Ray
 ILD   .OHMM     07 120 45 00                : Deep Induction Resistivity
 ILM   .OHMM     07 120 44 00                : Medium Induction Resistivity
 SFL   .OHMM     07 220 04 00                : Spherically Focused Resistivity
 SP    .MV       07 010 01 00                : Spontaneous Potential
 RHOB  .KG/M3    45 350 02 00                : Bulk Density
 PE    .B/E      45 358 00 00                : Photoelectric Cross Section
~TOPS_Definition
 TOPN.        :  Top Name     {S} 
 TOPT.M       :  Top Depth    {F} 
~TOPS_Data | TOPS_Definition
 Kcolorado            435.6  
 Kmed_hat             487.0  
 K2nd_ws              695.6  
 K2ws_ss              716.9  
 Kbfs                 795.0  
 Kbi_ss               825.3  
 Kbsl_colo            945.5  
 Kmannvl              953.0  
 Kglauc_ss            1057.7  
 Kmannvl_L            1094.9  
~Ascii        DEPT          GRX           DT           GR          ILD          ILM          SFL           SP         RHOB           PE
# ...
    1144.40000     -9999.6900       231.5200     -9999.6900         5.7000         4.4800         6.4200      -255.8900      2588.9600         3.2400
    1144.50000     -9999.6900       231.8600     -9999.6900         5.7900         4.7000         6.7200      -256.2900      2588.6699         3.2100
    1144.60000     -9999.6900       233.8100     -9999.6900         5.9800         5.2000         8.7300      -256.3400      2584.8301         3.1400
    1144.70000     -9999.6900       236.6000     -9999.6900         6.3400         6.0900        12.6400      -256.0200      2580.1201         3.0700
    1144.80000     -9999.6900       238.9800     -9999.6900         6.9200         7.5900        18.2100      -255.5000      2569.0500         3.0700
    1144.90000     -9999.6900       236.6300     -9999.6900         7.8500        10.0200        24.5000      -255.0300      2557.6001         3.1000
    1145.00000     -9999.6900       227.2100     -9999.6900         9.2800        13.7700        30.2200      -254.6300      2545.1799         3.1200
    1145.10000     -9999.6900       213.8600     -9999.6900        11.3400        19.2100        34.4700      -254.3600      2539.3799         3.1200
    1145.20000     -9999.6900       201.5900     -9999.6900        14.3800        25.5100        38.0700      -254.1900      2539.1299         3.1200
    1145.30000     -9999.6900       193.6500     -9999.6900        18.6800        30.5800        41.8900      -254.1100      2539.6399         3.1000
    1145.40000     -9999.6900       190.4200     -9999.6900        24.0500        32.9800        47.9200      -254.1500      2539.2400         3.0700
    1145.50000     -9999.6900       190.2700     -9999.6900        29.6300        33.4600        56.9700      -254.0500      2537.9099         3.0500
    1145.60000     -9999.6900       190.6100     -9999.6900        33.2200        33.5000        68.7100      -253.8900      2535.8000         3.0500
    1145.70000     -9999.6900       189.6600     -9999.6900        32.9200        33.9600        82.0600      -253.7900      2536.6599         3.0600
    1145.80000     -9999.6900       188.1600     -9999.6900        29.5400        34.7100        94.7400      -253.8200      2539.4399         3.0700
    1145.90000     -9999.6900       187.2100     -9999.6900        25.0400        34.8400       104.9200      -253.9700      2542.5801         3.0700
    1146.00000     -9999.6900       186.9600     -9999.6900        21.1400        33.0600       111.3800      -254.0800      2545.9900         3.0700
    1146.10000     -9999.6900       187.3700     -9999.6900        18.3600        28.8800       110.9900      -254.1100      2547.0701         3.0700
    1146.20000     -9999.6900       187.9100     -9999.6900        16.3000        23.5300       101.5400      -254.0400      2547.4900         3.0600
    1146.30000     -9999.6900       188.3300     -9999.6900        14.8700        18.6100        83.2600      -253.9400      2551.4700         3.0400
    1146.40000     -9999.6900       188.7200     -9999.6900        14.1100        14.9200        60.3300      -253.8100      2554.7000         3.0400
    1146.50000     -9999.6900       188.8400     -9999.6900        13.8400        12.5800        41.9500      -253.7800      2558.1699         3.0600
    1146.60000     -9999.6900       189.7100     -9999.6900        13.8200        11.3400        40.9700      -253.8700      2560.8799         3.0700
    1146.70000     -9999.6900       191.0700     -9999.6900        13.9700        11.0000        82.9900      -254.0200      2559.1101         3.0700
    1146.80000     -9999.6900       190.7000     -9999.6900        14.2400        11.5200       158.9700      -254.2400      2557.1899         3.0400
    1146.90000     -9999.6900       189.1200     -9999.6900        14.6200        13.0500       329.8100      -254.4200      2552.4299         3.0100
    1147.00000     -9999.6900       187.0900     -9999.6900        15.1400        15.9300       593.7800      -254.5700      2548.8101         2.9700
    1147.10000     -9999.6900       184.3500     -9999.6900        15.8800        20.8000       907.2500      -254.7000      2548.1001         2.9600
    1147.20000     -9999.6900       180.7400     -9999.6900        17.1500        28.3200      1153.5500      -254.7600      2545.7300         2.9600
    1147.30000     -9999.6900       176.7300     -9999.6900        19.2400        38.6100      1173.7600      -254.8600      2545.6599         2.9600
    1147.40000     -9999.6900       173.3300     -9999.6900        21.9400        48.4600      1039.5200      -254.9800      2547.4099         2.9400
    1147.50000     -9999.6900       171.4800     -9999.6900        24.9400        50.5700       839.6500      -255.0900      2552.9199         2.9000
    1147.60000     -9999.6900       171.2000     -9999.6900        27.8100        43.7000       642.4400      -255.1900      2557.6799         2.9000
    1147.70000     -9999.6900       171.5700     -9999.6900        29.7500        34.6600       482.6900      -255.2600      2558.3501         2.9100
    1147.80000     -9999.6900       171.6800     -9999.6900        29.3100        27.4600       308.6100      -255.3200      2555.8601         2.9600
    1147.90000     -9999.6900       170.9600     -9999.6900        26.3200        22.5000       181.2100      -255.4000      2551.7500         3.0200
    1148.00000     -9999.6900       170.1900     -9999.6900        22.2900        19.0900       102.3700      -255.5600      2548.2700         3.0700
    1148.10000     -9999.6900       170.5200     -9999.6900        18.8300        16.6200        66.2700      -255.8700      2545.3000         3.1100
    1148.20000     -9999.6900       171.4600     -9999.6900        16.3000        14.7000        59.0400      -256.3600      2545.2600         3.1000
    1148.30000     -9999.6900       172.9200     -9999.6900        14.4700        13.0700        54.4900      -256.9500      2546.7800         3.0700
    1148.40000     -9999.6900       175.3800     -9999.6900        13.2300        11.6600        50.5700      -257.5400      2547.8101         3.0400
    1148.50000     -9999.6900       177.0600     -9999.6900        12.5800        10.5300        41.1600      -258.0500     -9999.6900     -9999.6900
    1148.60000     -9999.6900       177.4500     -9999.6900        12.4500         9.7600        31.2000      -258.4200     -9999.6900     -9999.6900
    1148.70000     -9999.6900       177.5300     -9999.6900        12.6800         9.4200        25.0500      -258.6400     -9999.6900     -9999.6900
    1148.80000     -9999.6900       177.7900     -9999.6900        13.1000         9.5900        24.6800      -258.7800     -9999.6900     -9999.6900
    1148.90000     -9999.6900       177.9800     -9999.6900        13.6500        10.4000        31.7700      -258.8400     -9999.6900     -9999.6900
    1149.00000     -9999.6900       177.7900     -9999.6900        14.2800        12.0100        46.1700      -258.8800     -9999.6900     -9999.6900
    1149.10000     -9999.6900       177.5500     -9999.6900        15.0500        14.7800        63.5800      -258.8800     -9999.6900     -9999.6900
    1149.20000     -9999.6900       177.4900     -9999.6900        16.0200        19.1500        77.0800      -258.8700     -9999.6900     -9999.6900
    1149.30000     -9999.6900       177.4900     -9999.6900        17.4600        25.2600        79.6000      -258.8700     -9999.6900     -9999.6900
    1149.40000     -9999.6900       177.4900     -9999.6900        19.8200        32.7500        75.1200      -258.8800     -9999.6900     -9999.6900
    1149.50000     -9999.6900       177.4800     -9999.6900        23.2800        40.2400        70.0000      -258.9900     -9999.6900     -9999.6900
    1149.60000     -9999.6900       177.4800     -9999.6900        28.2900        46.3600        72.2600      -259.2000     -9999.6900     -9999.6900
    1149.70000     -9999.6900       177.3600     -9999.6900        35.5600        51.4000        88.9700      -259.5400     -9999.6900     -9999.6900
