~Version Information
# Data Copyright 2013 (C) geoLOGIC systems ltd.
 VERS  .     3.00 : LOG ASCII STANDARD -VERSION 3.0
 WRAP  .     NO   : ONE LINE PER DEPTH STEP
 DLM   .    SPACE : DELIMITING CHARACTER BETWEEN DATA COLUMNS
 PROD  .      geoLOGIC systems ltd.          : LAS Producer
 CREA  .      05/02/2025                     : LAS Creation date {MM/DD/YYYY}
~Well
#MNEM  .UNIT        Data                       Description of Mnemonic
#------.------ ----------------------------- : -------------------------
 STRT  .M           5.00000                  : START DEPTH
 STOP  .M        1159.90000                  : STOP DEPTH
 STEP  .M           0.10000                  : STEP DEPTH
 NULL  .           -9999.69                  : NULL VALUE
 COMP  .      KI EXPLORATION INC.            : Company
 WELL  .      KI RETLAW 15-6-13-18           : Well
 FLD   .      RETLAW                         : Field
 LOC   .      100/15-06-013-18W4/00          : Location
 PRVC  .      Alberta                        : Province
 SRVC  .      Tucker Wireline Services       : Service Company
 DATE  .      OCT 10 2009                    : Log Date
 UWI   .      100150601318W400               : Unique Well ID
 LIC   .      0412565                        : Licence Number
 LATI  .                                     : Latitude
 LONG  .                                     : Longitude
 GDAT  .                                     : Geodetic Datum
~Parameter
#MNEM  .UNIT        VALUE                      Description
#------.------ ----------------------------- : -------------------------
 RUN   .            1                        : Run number (100150601318W400_Ki_Retlaw_15-6-13-18_Final_Hires.las,100150601318W400_Ki_Retlaw_15-6-13-18_Final_Mai.las)
 GL    .M           821.809998               : Ground level elevation (100150601318W400_Ki_Retlaw_15-6-13-18_Final_Hires.las,100150601318W400_Ki_Retlaw_15-6-13-18_Final_Mai.las)
 DREF  .            KB                       : Depth reference (100150601318W400_Ki_Retlaw_15-6-13-18_Final_Hires.las,100150601318W400_Ki_Retlaw_15-6-13-18_Final_Mai.las)
 EREF  .M           826.099976               : Elevation of depth reference (100150601318W400_Ki_Retlaw_15-6-13-18_Final_Hires.las,100150601318W400_Ki_Retlaw_15-6-13-18_Final_Mai.las)
 TDL   .M           1157.0                   : Total depth, logger (100150601318W400_Ki_Retlaw_15-6-13-18_Final_Hires.las,100150601318W400_Ki_Retlaw_15-6-13-18_Final_Mai.las)
 TDD   .M           1157.0                   : Total depth, driller (100150601318W400_Ki_Retlaw_15-6-13-18_Final_Hires.las,100150601318W400_Ki_Retlaw_15-6-13-18_Final_Mai.las)
 CSGL  .M           293.0                    : Casing bottom, logger (100150601318W400_Ki_Retlaw_15-6-13-18_Final_Hires.las,100150601318W400_Ki_Retlaw_15-6-13-18_Final_Mai.las)
 CSGD  .M           293.0                    : Casing bottom, driller (100150601318W400_Ki_Retlaw_15-6-13-18_Final_Hires.las,100150601318W400_Ki_Retlaw_15-6-13-18_Final_Mai.las)
 CSGS  .mm          219.10                   : Casing size (100150601318W400_Ki_Retlaw_15-6-13-18_Final_Hires.las,100150601318W400_Ki_Retlaw_15-6-13-18_Final_Mai.las)
 CSGW  .Kg          219.10                   : Casing weight (100150601318W400_Ki_Retlaw_15-6-13-18_Final_Hires.las,100150601318W400_Ki_Retlaw_15-6-13-18_Final_Mai.las)
 BS    .mm          200.00                   : Bit size (100150601318W400_Ki_Retlaw_15-6-13-18_Final_Hires.las,100150601318W400_Ki_Retlaw_15-6-13-18_Final_Mai.las)
 MUD   .            GEL CHEM                 : Mud type (100150601318W400_Ki_Retlaw_15-6-13-18_Final_Hires.las,100150601318W400_Ki_Retlaw_15-6-13-18_Final_Mai.las)
 MUDD  .kg/m3       1230.000                 : Mud density (100150601318W400_Ki_Retlaw_15-6-13-18_Final_Hires.las,100150601318W400_Ki_Retlaw_15-6-13-18_Final_Mai.las)
 MUDV  .sec         81.000                   : Mud viscosity (100150601318W400_Ki_Retlaw_15-6-13-18_Final_Hires.las,100150601318W400_Ki_Retlaw_15-6-13-18_Final_Mai.las)
 FL    .cc          7.500                    : Fluid loss rate (100150601318W400_Ki_Retlaw_15-6-13-18_Final_Hires.las,100150601318W400_Ki_Retlaw_15-6-13-18_Final_Mai.las)
 PH    .            10.000                   : Mud pH (100150601318W400_Ki_Retlaw_15-6-13-18_Final_Hires.las,100150601318W400_Ki_Retlaw_15-6-13-18_Final_Mai.las)
 MUDS  .            FLOW LINE                : Mud source (100150601318W400_Ki_Retlaw_15-6-13-18_Final_Hires.las,100150601318W400_Ki_Retlaw_15-6-13-18_Final_Mai.las)
 RM    .OHMM        2.100                    : Resistivity of mud (100150601318W400_Ki_Retlaw_15-6-13-18_Final_Hires.las,100150601318W400_Ki_Retlaw_15-6-13-18_Final_Mai.las)
 RMT   .C           12.0                     : Temperature of mud (100150601318W400_Ki_Retlaw_15-6-13-18_Final_Hires.las,100150601318W400_Ki_Retlaw_15-6-13-18_Final_Mai.las)
 RMF   .OHMM        2.500                    : Resistivity of mud filtrate (100150601318W400_Ki_Retlaw_15-6-13-18_Final_Hires.las,100150601318W400_Ki_Retlaw_15-6-13-18_Final_Mai.las)
 RMFT  .C           12.0                     : Temperature of mud filtrate (100150601318W400_Ki_Retlaw_15-6-13-18_Final_Hires.las,100150601318W400_Ki_Retlaw_15-6-13-18_Final_Mai.las)
 RMC   .OHMM        1.900                    : Resistivity of mud cake (100150601318W400_Ki_Retlaw_15-6-13-18_Final_Hires.las,100150601318W400_Ki_Retlaw_15-6-13-18_Final_Mai.las)
 RMCT  .C           12.0                     : Temperature of mud cake (100150601318W400_Ki_Retlaw_15-6-13-18_Final_Hires.las,100150601318W400_Ki_Retlaw_15-6-13-18_Final_Mai.las)
 TMAX  .C           32.0                     : Maximum recorded temperature (100150601318W400_Ki_Retlaw_15-6-13-18_Final_Hires.las,100150601318W400_Ki_Retlaw_15-6-13-18_Final_Mai.las)
 TIMC  .DAY/HR      OCT 10 2009 @ 16:00      : Date/Time circulation stopped (100150601318W400_Ki_Retlaw_15-6-13-18_Final_Hires.las,100150601318W400_Ki_Retlaw_15-6-13-18_Final_Mai.las)
 TIMD  .DAY/HR      OCT 10 2009 @ 21:00      : Date/Time logger tagged bottom (100150601318W400_Ki_Retlaw_15-6-13-18_Final_Hires.las,100150601318W400_Ki_Retlaw_15-6-13-18_Final_Mai.las)
 UNIT  .            TRUCK 134                : Logging unit_number (100150601318W400_Ki_Retlaw_15-6-13-18_Final_Hires.las,100150601318W400_Ki_Retlaw_15-6-13-18_Final_Mai.las)
 BASE  .            MEDICINE HAT             : Home base of logging unit (100150601318W400_Ki_Retlaw_15-6-13-18_Final_Hires.las,100150601318W400_Ki_Retlaw_15-6-13-18_Final_Mai.las)
 ENG   .            M. MacNEIL               : Recording Engineer (100150601318W400_Ki_Retlaw_15-6-13-18_Final_Hires.las,100150601318W400_Ki_Retlaw_15-6-13-18_Final_Mai.las)
 WIT   .            R. BABBITT               : Witnessed by (100150601318W400_Ki_Retlaw_15-6-13-18_Final_Hires.las,100150601318W400_Ki_Retlaw_15-6-13-18_Final_Mai.las)
~Curve
#MNEM  .UNIT        API Codes                  Curve description
#----  .----     -------------               : -----------------------
 DEPT  .M                                    : 
 GRX   .GAPI     07 310 01 00                : Gamma Ray (Hires)
 DT    .US/M     60 520 32 00                : Delta Time
 GR    .GAPI     07 310 01 00                : Gamma Ray
 ILD   .OHMM     07 120 45 00                : Deep Induction Resistivity
 ILM   .OHMM     07 120 44 00                : Medium Induction Resistivity
 SFL   .OHMM     07 220 04 00                : Spherically Focused Resistivity
 SP    .MV       07 010 01 00                : Spontaneous Potential
 RHOB  .KG/M3    45 350 02 00                : Bulk Density
 PE    .B/E      45 358 00 00                : Photoelectric Cross Section
~TOPS_Definition
 TOPN.        :  Top Name     {S} 
 TOPT.M       :  Top Depth    {F} 
~TOPS_Data | TOPS_Definition
 Kcolorado            435.6  
 Kmed_hat             487.0  
 K2nd_ws              695.6  
 K2ws_ss              716.9  
 Kbfs                 795.0  
 Kbi_ss               825.3  
 Kbsl_colo            945.5  
 Kmannvl              953.0  
 Kglauc_ss            1057.7  
 Kmannvl_L            1094.9  
~Ascii        DEPT          GRX           DT           GR          ILD          ILM          SFL           SP         RHOB           PE
# ...
     545.00000     -9999.6900       305.5300       112.4200        11.2300        11.4600        12.0200      -203.8300      2521.4099         2.8000
     545.10000     -9999.6900       305.3600       104.2600        11.1200        11.2700        11.7200      -203.8600      2522.6299         2.7900
     545.20000     -9999.6900       305.1900        98.0200        11.0200        11.0700        11.5000      -203.8800      2526.0601         2.8100
     545.30000     -9999.6900       304.5300       100.0500        10.9100        10.8700        11.3200      -203.8700      2528.7300         2.8200
     545.40000     -9999.6900       304.0900       109.9600        10.8000        10.6800        11.1600      -203.8800      2528.4399         2.8500
     545.50000     -9999.6900       304.5800       117.3600        10.7100        10.5200        11.0200      -203.8900      2520.1201         2.8500
     545.60000     -9999.6900       305.4200       114.8200        10.6300        10.3800        10.9400      -203.8700      2507.6001         2.8600
     545.70000     -9999.6900       305.5000       105.1200        10.5700        10.2800        10.9200      -203.8300      2491.2500         2.9100
     545.80000     -9999.6900       305.1300        93.5000        10.5200        10.2200        10.9600      -203.7300      2476.9199         2.9600
     545.90000     -9999.6900       305.8900        81.9200        10.4800        10.1900        11.0600      -203.6500      2473.1399         3.0000
     546.00000     -9999.6900       307.3000        77.2900        10.4600        10.2100        11.2100      -203.6100      2483.2900         3.0000
     546.10000     -9999.6900       308.1600        86.9000        10.4400        10.2600        11.3800      -203.5900      2503.3999         3.0000
     546.20000     -9999.6900       309.0600       103.9900        10.4300        10.3200        11.5800      -203.6000      2522.6699         3.0100
     546.30000     -9999.6900       310.8800       115.7100        10.4400        10.3700        11.7600      -203.6100      2533.2500         3.0300
     546.40000     -9999.6900       312.5300       118.8600        10.4600        10.4100        11.8900      -203.6300      2532.3799         3.0500
     546.50000     -9999.6900       312.5400       118.8700        10.4700        10.4100        11.9000      -203.6500      2528.7000         3.0200
     546.60000     -9999.6900       311.7700       119.3100        10.4900        10.3800        11.8100      -203.6100      2525.3999         3.0000
     546.70000     -9999.6900       311.6900       119.1800        10.5300        10.3400        11.6600      -203.5700      2522.6699         2.9300
     546.80000     -9999.6900       312.1800       119.9500        10.5700        10.2900        11.5300      -203.5500      2522.0400         2.9000
     546.90000     -9999.6900       312.8500       121.6100        10.6100        10.2400        11.4700      -203.5700      2514.7400         2.9100
     547.00000     -9999.6900       313.7600       121.4400        10.6300        10.2100        11.4900      -203.6200      2504.4700         2.9100
     547.10000     -9999.6900       314.9400       117.6700        10.6400        10.2100        11.5700      -203.6500      2497.4500         2.9500
     547.20000     -9999.6900       316.2600       113.6900        10.6300        10.2400        11.6600      -203.6500      2492.6101         2.9400
     547.30000     -9999.6900       317.8400       112.8200        10.5900        10.2700        11.7200      -203.6100      2495.3401         2.9100
     547.40000     -9999.6900       318.8300       113.7000        10.5400        10.3100        11.7600      -203.5600      2499.4800         2.8900
     547.50000     -9999.6900       318.5900       114.6600        10.4800        10.3500        11.7800      -203.5400      2503.6699         2.8600
     547.60000     -9999.6900       318.2400       115.6400        10.4200        10.3700        11.8200      -203.5300      2512.9299         2.8400
     547.70000     -9999.6900       318.5200       116.7600        10.3600        10.3600        11.8700      -203.5300      2518.3000         2.8400
     547.80000     -9999.6900       318.6100       119.6100        10.3200        10.3000        11.9000      -203.5100      2519.6699         2.8500
     547.90000     -9999.6900       317.5800       125.3800        10.3100        10.2200        11.8800      -203.4800      2513.1699         2.9100
     548.00000     -9999.6900       316.3500       132.5700        10.3200        10.1100        11.7600      -203.4500      2503.9399         2.9800
     548.10000     -9999.6900       316.7400       137.9300        10.3800        10.0100        11.5400      -203.4400      2499.9900         3.0300
     548.20000     -9999.6900       318.9100       138.7500        10.4500         9.9400        11.2900      -203.4500      2498.4900         3.0400
     548.30000     -9999.6900       320.2300       138.0600        10.5300         9.9300        11.0800      -203.4800      2500.0300         3.0100
     548.40000     -9999.6900       320.9100       139.2000        10.6100        10.0200        11.0600      -203.5400      2500.0701         2.9600
     548.50000     -9999.6900       322.8200       141.2700        10.6700        10.2000        11.3800      -203.6200      2502.0601         2.8600
     548.60000     -9999.6900       325.3500       137.7700        10.7000        10.4600        12.1100      -203.7000      2504.6101         2.7500
     548.70000     -9999.6900       326.9600       126.3200        10.7000        10.7600        13.1300      -203.7500      2507.1699         2.6800
     548.80000     -9999.6900       326.1400       111.5500        10.6900        11.0200        14.0300      -203.7700      2505.1899         2.7000
     548.90000     -9999.6900       320.6100       101.0100        10.7000        11.1700        14.3700      -203.7700      2508.3501         2.8500
     549.00000     -9999.6900       310.8100        98.4200        10.7300        11.1900        14.0200      -203.7400      2519.5000         3.0300
     549.10000     -9999.6900       303.5500       103.8700        10.7800        11.0900        13.2600      -203.6600      2529.5200         3.2000
     549.20000     -9999.6900       301.2500       113.0400        10.8400        10.9100        12.5000      -203.5600      2530.4800         3.2800
     549.30000     -9999.6900       301.0000       121.2900        10.9100        10.7300        12.0000      -203.4700      2520.6899         3.2000
     549.40000     -9999.6900       301.8900       127.2300        10.9600        10.6000        11.7600      -203.4100      2509.0601         3.0900
     549.50000     -9999.6900       306.6000       130.5300        10.9700        10.5300        11.6700      -203.3900      2497.2500         2.9500
     549.60000     -9999.6900       315.0500       130.1800        10.9700        10.5200        11.6600      -203.4100      2485.7400         2.8200
     549.70000     -9999.6900       321.0100       125.0200        10.9700        10.5800        11.6900      -203.4600      2475.3401         2.7600
     549.80000     -9999.6900       321.9100       119.3300        10.9800        10.6700        11.7500      -203.5400      2470.5500         2.7300
     549.90000     -9999.6900       321.1200       117.1900        11.0000        10.8100        11.8500      -203.6000      2472.7300         2.7600
     550.00000     -9999.6900       321.3700       117.8300        11.0500        10.9700        12.0300      -203.6100      2475.9500         2.8300
     550.10000     -9999.6900       321.6400       118.0400        11.1200        11.1600        12.2700      -203.5900      2483.7400         2.8800
     550.20000     -9999.6900       320.7400       117.2800        11.2200        11.3800        12.5400      -203.5300      2491.6399         2.9300
     550.30000     -9999.6900       318.5000       115.3300        11.3400        11.6100        12.8100      -203.4900      2503.4399         2.9100
