~Version Information
# Data Copyright 2013 (C) geoLOGIC systems ltd.
 VERS  .     3.00 : LOG ASCII STANDARD -VERSION 3.0
 WRAP  .     NO   : ONE LINE PER DEPTH STEP
 DLM   .    SPACE : DELIMITING CHARACTER BETWEEN DATA COLUMNS
 PROD  .      geoLOGIC systems ltd.          : LAS Producer
 CREA  .      05/02/2025                     : LAS Creation date {MM/DD/YYYY}
~Well
#MNEM  .UNIT        Data                       Description of Mnemonic
#------.------ ----------------------------- : -------------------------
 STRT  .M           5.00000                  : START DEPTH
 STOP  .M        1159.90000                  : STOP DEPTH
 STEP  .M           0.10000                  : STEP DEPTH
 NULL  .           -9999.69                  : NULL VALUE
 COMP  .      KI EXPLORATION INC.            : Company
 WELL  .      KI RETLAW 15-6-13-18           : Well
 FLD   .      RETLAW                         : Field
 LOC   .      100/15-06-013-18W4/00          : Location
 PRVC  .      Alberta                        : Province
 SRVC  .      Tucker Wireline Services       : Service Company
 DATE  .      OCT 10 2009                    : Log Date
 UWI   .      100150601318W400               : Unique Well ID
 LIC   .      0412565                        : Licence Number
 LATI  .                                     : Latitude
 LONG  .                                     : Longitude
 GDAT  .                                     : Geodetic Datum
~Parameter
#MNEM  .UNIT        VALUE                      Description
#------.------ ----------------------------- : -------------------------
 RUN   .            1                        : Run number (100150601318W400_Ki_Retlaw_15-6-13-18_Final_Hires.las,100150601318W400_Ki_Retlaw_15-6-13-18_Final_Mai.las)
 GL    .M           821.809998               : Ground level elevation (100150601318W400_Ki_Retlaw_15-6-13-18_Final_Hires.las,100150601318W400_Ki_Retlaw_15-6-13-18_Final_Mai.las)
 DREF  .            KB                       : Depth reference (100150601318W400_Ki_Retlaw_15-6-13-18_Final_Hires.las,100150601318W400_Ki_Retlaw_15-6-13-18_Final_Mai.las)
 EREF  .M           826.099976               : Elevation of depth reference (100150601318W400_Ki_Retlaw_15-6-13-18_Final_Hires.las,100150601318W400_Ki_Retlaw_15-6-13-18_Final_Mai.las)
 TDL   .M           1157.0                   : Total depth, logger (100150601318W400_Ki_Retlaw_15-6-13-18_Final_Hires.las,100150601318W400_Ki_Retlaw_15-6-13-18_Final_Mai.las)
 TDD   .M           1157.0                   : Total depth, driller (100150601318W400_Ki_Retlaw_15-6-13-18_Final_Hires.las,100150601318W400_Ki_Retlaw_15-6-13-18_Final_Mai.las)
 CSGL  .M           293.0                    : Casing bottom, logger (100150601318W400_Ki_Retlaw_15-6-13-18_Final_Hires.las,100150601318W400_Ki_Retlaw_15-6-13-18_Final_Mai.las)
 CSGD  .M           293.0                    : Casing bottom, driller (100150601318W400_Ki_Retlaw_15-6-13-18_Final_Hires.las,100150601318W400_Ki_Retlaw_15-6-13-18_Final_Mai.las)
 CSGS  .mm          219.10                   : Casing size (100150601318W400_Ki_Retlaw_15-6-13-18_Final_Hires.las,100150601318W400_Ki_Retlaw_15-6-13-18_Final_Mai.las)
 CSGW  .Kg          219.10                   : Casing weight (100150601318W400_Ki_Retlaw_15-6-13-18_Final_Hires.las,100150601318W400_Ki_Retlaw_15-6-13-18_Final_Mai.las)
 BS    .mm          200.00                   : Bit size (100150601318W400_Ki_Retlaw_15-6-13-18_Final_Hires.las,100150601318W400_Ki_Retlaw_15-6-13-18_Final_Mai.las)
 MUD   .            GEL CHEM                 : Mud type (100150601318W400_Ki_Retlaw_15-6-13-18_Final_Hires.las,100150601318W400_Ki_Retlaw_15-6-13-18_Final_Mai.las)
 MUDD  .kg/m3       1230.000                 : Mud density (100150601318W400_Ki_Retlaw_15-6-13-18_Final_Hires.las,100150601318W400_Ki_Retlaw_15-6-13-18_Final_Mai.las)
 MUDV  .sec         81.000                   : Mud viscosity (100150601318W400_Ki_Retlaw_15-6-13-18_Final_Hires.las,100150601318W400_Ki_Retlaw_15-6-13-18_Final_Mai.las)
 FL    .cc          7.500                    : Fluid loss rate (100150601318W400_Ki_Retlaw_15-6-13-18_Final_Hires.las,100150601318W400_Ki_Retlaw_15-6-13-18_Final_Mai.las)
 PH    .            10.000                   : Mud pH (100150601318W400_Ki_Retlaw_15-6-13-18_Final_Hires.las,100150601318W400_Ki_Retlaw_15-6-13-18_Final_Mai.las)
 MUDS  .            FLOW LINE                : Mud source (100150601318W400_Ki_Retlaw_15-6-13-18_Final_Hires.las,100150601318W400_Ki_Retlaw_15-6-13-18_Final_Mai.las)
 RM    .OHMM        2.100                    : Resistivity of mud (100150601318W400_Ki_Retlaw_15-6-13-18_Final_Hires.las,100150601318W400_Ki_Retlaw_15-6-13-18_Final_Mai.las)
 RMT   .C           12.0                     : Temperature of mud (100150601318W400_Ki_Retlaw_15-6-13-18_Final_Hires.las,100150601318W400_Ki_Retlaw_15-6-13-18_Final_Mai.las)
 RMF   .OHMM        2.500                    : Resistivity of mud filtrate (100150601318W400_Ki_Retlaw_15-6-13-18_Final_Hires.las,100150601318W400_Ki_Retlaw_15-6-13-18_Final_Mai.las)
 RMFT  .C           12.0                     : Temperature of mud filtrate (100150601318W400_Ki_Retlaw_15-6-13-18_Final_Hires.las,100150601318W400_Ki_Retlaw_15-6-13-18_Final_Mai.las)
 RMC   .OHMM        1.900                    : Resistivity of mud cake (100150601318W400_Ki_Retlaw_15-6-13-18_Final_Hires.las,100150601318W400_Ki_Retlaw_15-6-13-18_Final_Mai.las)
 RMCT  .C           12.0                     : Temperature of mud cake (100150601318W400_Ki_Retlaw_15-6-13-18_Final_Hires.las,100150601318W400_Ki_Retlaw_15-6-13-18_Final_Mai.las)
 TMAX  .C           32.0                     : Maximum recorded temperature (100150601318W400_Ki_Retlaw_15-6-13-18_Final_Hires.las,100150601318W400_Ki_Retlaw_15-6-13-18_Final_Mai.las)
 TIMC  .DAY/HR      OCT 10 2009 @ 16:00      : Date/Time circulation stopped (100150601318W400_Ki_Retlaw_15-6-13-18_Final_Hires.las,100150601318W400_Ki_Retlaw_15-6-13-18_Final_Mai.las)
 TIMD  .DAY/HR      OCT 10 2009 @ 21:00      : Date/Time logger tagged bottom (100150601318W400_Ki_Retlaw_15-6-13-18_Final_Hires.las,100150601318W400_Ki_Retlaw_15-6-13-18_Final_Mai.las)
 UNIT  .            TRUCK 134                : Logging unit_number (100150601318W400_Ki_Retlaw_15-6-13-18_Final_Hires.las,100150601318W400_Ki_Retlaw_15-6-13-18_Final_Mai.las)
 BASE  .            MEDICINE HAT             : Home base of logging unit (100150601318W400_Ki_Retlaw_15-6-13-18_Final_Hires.las,100150601318W400_Ki_Retlaw_15-6-13-18_Final_Mai.las)
 ENG   .            M. MacNEIL               : Recording Engineer (100150601318W400_Ki_Retlaw_15-6-13-18_Final_Hires.las,100150601318W400_Ki_Retlaw_15-6-13-18_Final_Mai.las)
 WIT   .            R. BABBITT               : Witnessed by (100150601318W400_Ki_Retlaw_15-6-13-18_Final_Hires.las,100150601318W400_Ki_Retlaw_15-6-13-18_Final_Mai.las)
~Curve
#MNEM  .UNIT        API Codes                  Curve description
#----  .----     -------------               : -----------------------
 DEPT  .M                                    : 
 GRX   .GAPI     07 310 01 00                : Gamma Ray (Hires)
 DT    .US/M     60 520 32 00                : Delta Time
 GR    .GAPI     07 310 01 00                : Gamma Ray
 ILD   .OHMM     07 120 45 00                : Deep Induction Resistivity
 ILM   .OHMM     07 120 44 00                : Medium Induction Resistivity
 SFL   .OHMM     07 220 04 00                : Spherically Focused Resistivity
 SP    .MV       07 010 01 00                : Spontaneous Potential
 RHOB  .KG/M3    45 350 02 00                : Bulk Density
 PE    .B/E      45 358 00 00                : Photoelectric Cross Section
~TOPS_Definition
 TOPN.        :  Top Name     {S} 
 TOPT.M       :  Top Depth    {F} 
~TOPS_Data | TOPS_Definition
 Kcolorado            435.6  
 Kmed_hat             487.0  
 K2nd_ws              695.6  
 K2ws_ss              716.9  
 Kbfs                 795.0  
 Kbi_ss               825.3  
 Kbsl_colo            945.5  
 Kmannvl              953.0  
 Kglauc_ss            1057.7  
 Kmannvl_L            1094.9  
~Ascii        DEPT          GRX           DT           GR          ILD          ILM          SFL           SP         RHOB           PE
# ...
     766.40000     -9999.6900       325.9400       134.4100         9.6100         9.3200        12.0300      -198.9400      2499.2500         3.1600
     766.50000     -9999.6900       326.0100       132.7200         9.3800         9.1500        11.9400      -198.9800      2508.1499         3.2000
     766.60000     -9999.6900       325.0600       131.2000         9.1600         8.9400        11.8100      -199.0400      2514.5000         3.2700
     766.70000     -9999.6900       323.1100       131.8700         8.9600         8.6900        11.6000      -199.0700      2508.4900         3.3900
     766.80000     -9999.6900       321.6300       135.8500         8.8300         8.4300        11.2700      -199.0900      2493.2600         3.5000
     766.90000     -9999.6900       320.9700       141.9400         8.7500         8.1800        10.8400      -199.1100      2473.8201         3.5300
     767.00000     -9999.6900       321.0400       147.5300         8.7300         7.9800        10.3800      -199.1400      2457.3701         3.4700
     767.10000     -9999.6900       322.0300       153.0300         8.7600         7.8700        10.0000      -199.1900      2451.3301         3.3900
     767.20000     -9999.6900       324.1400       158.3900         8.8300         7.8800         9.8100      -199.2300      2459.1899         3.3000
     767.30000     -9999.6900       327.2600       163.0200         8.9100         8.0300         9.8900      -199.2500      2482.4600         3.2300
     767.40000     -9999.6900       330.3400       166.4600         8.9900         8.3100        10.3700      -199.2300      2512.3201         3.1800
     767.50000     -9999.6900       331.3200       167.1300         9.1000         8.7200        11.1700      -199.1500      2533.5701         3.1500
     767.60000     -9999.6900       328.5100       163.1500         9.2300         9.2100        12.1300      -199.0400      2531.7000         3.1500
     767.70000     -9999.6900       323.7300       153.5900         9.4000         9.6900        12.9300      -198.9100      2516.3201         3.1500
     767.80000     -9999.6900       319.3700       141.7600         9.6100        10.1100        13.4400      -198.8100      2503.1299         3.1600
     767.90000     -9999.6900       315.4400       133.4500         9.8500        10.4100        13.6500      -198.7600      2497.9700         3.1900
     768.00000     -9999.6900       311.3700       133.1500        10.1400        10.6000        13.7400      -198.7500      2500.5901         3.2400
     768.10000     -9999.6900       309.0100       139.4200        10.4600        10.7100        13.8100      -198.7800      2501.3899         3.2700
     768.20000     -9999.6900       310.2100       146.3300        10.7800        10.7900        13.8800      -198.8200      2499.3899         3.2700
     768.30000     -9999.6900       312.3600       148.8400        11.0700        10.9000        13.9400      -198.8700      2494.7500         3.2800
     768.40000     -9999.6900       313.4100       148.0600        11.3100        11.0700        14.0000      -198.9100      2489.9199         3.3000
     768.50000     -9999.6900       314.3600       146.6900        11.4900        11.2900        14.1000      -198.9500      2489.0300         3.3400
     768.60000     -9999.6900       315.5300       146.8800        11.6300        11.5700        14.2800      -198.9900      2489.6201         3.3700
     768.70000     -9999.6900       316.7200       148.7800        11.7400        11.8700        14.5400      -199.0100      2491.2800         3.3900
     768.80000     -9999.6900       317.7600       150.3000        11.8100        12.1500        14.9300      -199.0000      2492.3301         3.3900
     768.90000     -9999.6900       319.0000       149.9200        11.8600        12.4000        15.4200      -198.9500      2494.7900         3.3600
     769.00000     -9999.6900       319.2100       146.7900        11.9300        12.5800        15.9600      -198.9200      2498.2300         3.3100
     769.10000     -9999.6900       316.4600       142.9300        12.0000        12.7000        16.4000      -198.9200      2500.6899         3.2300
     769.20000     -9999.6900       311.6700       139.9800        12.0900        12.7500        16.6300      -198.9800      2501.2200         3.1500
     769.30000     -9999.6900       307.1700       139.8700        12.1800        12.7600        16.6200      -199.0400      2495.7800         3.0900
     769.40000     -9999.6900       303.6100       140.4600        12.2600        12.7200        16.4600      -199.0500      2490.9600         3.0500
     769.50000     -9999.6900       301.6300       139.6800        12.3200        12.6800        16.2200      -199.0100      2487.7300         3.0400
     769.60000     -9999.6900       302.5500       139.6800        12.3400        12.6300        16.0200      -198.9400      2486.8501         3.0300
     769.70000     -9999.6900       305.2000       143.4500        12.3200        12.5800        15.9200      -198.8900      2490.2300         3.0300
     769.80000     -9999.6900       306.5300       147.6600        12.2600        12.5000        15.8800      -198.8400      2493.2000         3.0200
     769.90000     -9999.6900       306.7200       148.7400        12.1800        12.4100        15.8000      -198.7900      2495.8401         2.9900
     770.00000     -9999.6900       308.1200       148.6000        12.1000        12.2800        15.5600      -198.7400      2495.5200         2.9700
     770.10000     -9999.6900       310.4500       150.1100        11.9900        12.1400        15.2000      -198.6900      2493.2300         2.9800
     770.20000     -9999.6900       312.3900       152.7900        11.8900        12.0000        14.8800      -198.6700      2487.6001         2.9900
     770.30000     -9999.6900       314.1900       155.7400        11.8100        11.8800        14.7300      -198.6500      2481.2100         2.9900
     770.40000     -9999.6900       316.3800       158.3700        11.7400        11.7900        14.7700      -198.6600      2475.5300         2.9700
     770.50000     -9999.6900       317.3600       159.1800        11.6700        11.7300        14.8900      -198.6600      2472.0901         2.9800
     770.60000     -9999.6900       316.4000       156.4800        11.6100        11.7000        15.0100      -198.6800      2474.1799         2.9900
     770.70000     -9999.6900       314.8900       151.4300        11.5800        11.6800        15.0600      -198.6900      2478.7400         3.0000
     770.80000     -9999.6900       312.3300       147.6100        11.5800        11.6700        15.0400      -198.6900      2484.5200         3.0300
     770.90000     -9999.6900       309.6700       147.6700        11.6100        11.6700        14.9100      -198.7100      2487.8101         3.0800
     771.00000     -9999.6900       309.7900       148.8900        11.6700        11.7000        14.7300      -198.7200      2487.7800         3.1500
     771.10000     -9999.6900       312.2500       149.6400        11.7400        11.7700        14.6500      -198.7200      2486.4199         3.2300
     771.20000     -9999.6900       314.2800       149.9400        11.8200        11.8800        14.7500      -198.6900      2486.0801         3.2800
     771.30000     -9999.6900       315.1600       151.0500        11.9200        12.0200        15.0500      -198.6800      2489.7900         3.2400
     771.40000     -9999.6900       315.7400       151.6200        12.0300        12.1800        15.4100      -198.6600      2494.5000         3.2100
     771.50000     -9999.6900       315.9200       152.2000        12.1500        12.3300        15.6800      -198.6600      2498.7600         3.1800
     771.60000     -9999.6900       315.4500       153.9300        12.2900        12.4700        15.8200      -198.6900      2498.9099         3.1700
     771.70000     -9999.6900       314.6200       155.8000        12.4300        12.5800        15.8800      -198.6900      2495.0100         3.2000
