~Version Information
# Data Copyright 2013 (C) geoLOGIC systems ltd.
 VERS  .     3.00 : LOG ASCII STANDARD -VERSION 3.0
 WRAP  .     NO   : ONE LINE PER DEPTH STEP
 DLM   .    SPACE : DELIMITING CHARACTER BETWEEN DATA COLUMNS
 PROD  .      geoLOGIC systems ltd.          : LAS Producer
 CREA  .      05/02/2025                     : LAS Creation date {MM/DD/YYYY}
~Well
#MNEM  .UNIT        Data                       Description of Mnemonic
#------.------ ----------------------------- : -------------------------
 STRT  .M           5.00000                  : START DEPTH
 STOP  .M        1159.90000                  : STOP DEPTH
 STEP  .M           0.10000                  : STEP DEPTH
 NULL  .           -9999.69                  : NULL VALUE
 COMP  .      KI EXPLORATION INC.            : Company
 WELL  .      KI RETLAW 15-6-13-18           : Well
 FLD   .      RETLAW                         : Field
 LOC   .      100/15-06-013-18W4/00          : Location
 PRVC  .      Alberta                        : Province
 SRVC  .      Tucker Wireline Services       : Service Company
 DATE  .      OCT 10 2009                    : Log Date
 UWI   .      100150601318W400               : Unique Well ID
 LIC   .      0412565                        : Licence Number
 LATI  .                                     : Latitude
 LONG  .                                     : Longitude
 GDAT  .                                     : Geodetic Datum
~Parameter
#MNEM  .UNIT        VALUE                      Description
#------.------ ----------------------------- : -------------------------
 RUN   .            1                        : Run number (100150601318W400_Ki_Retlaw_15-6-13-18_Final_Hires.las,100150601318W400_Ki_Retlaw_15-6-13-18_Final_Mai.las)
 GL    .M           821.809998               : Ground level elevation (100150601318W400_Ki_Retlaw_15-6-13-18_Final_Hires.las,100150601318W400_Ki_Retlaw_15-6-13-18_Final_Mai.las)
 DREF  .            KB                       : Depth reference (100150601318W400_Ki_Retlaw_15-6-13-18_Final_Hires.las,100150601318W400_Ki_Retlaw_15-6-13-18_Final_Mai.las)
 EREF  .M           826.099976               : Elevation of depth reference (100150601318W400_Ki_Retlaw_15-6-13-18_Final_Hires.las,100150601318W400_Ki_Retlaw_15-6-13-18_Final_Mai.las)
 TDL   .M           1157.0                   : Total depth, logger (100150601318W400_Ki_Retlaw_15-6-13-18_Final_Hires.las,100150601318W400_Ki_Retlaw_15-6-13-18_Final_Mai.las)
 TDD   .M           1157.0                   : Total depth, driller (100150601318W400_Ki_Retlaw_15-6-13-18_Final_Hires.las,100150601318W400_Ki_Retlaw_15-6-13-18_Final_Mai.las)
 CSGL  .M           293.0                    : Casing bottom, logger (100150601318W400_Ki_Retlaw_15-6-13-18_Final_Hires.las,100150601318W400_Ki_Retlaw_15-6-13-18_Final_Mai.las)
 CSGD  .M           293.0                    : Casing bottom, driller (100150601318W400_Ki_Retlaw_15-6-13-18_Final_Hires.las,100150601318W400_Ki_Retlaw_15-6-13-18_Final_Mai.las)
 CSGS  .mm          219.10                   : Casing size (100150601318W400_Ki_Retlaw_15-6-13-18_Final_Hires.las,100150601318W400_Ki_Retlaw_15-6-13-18_Final_Mai.las)
 CSGW  .Kg          219.10                   : Casing weight (100150601318W400_Ki_Retlaw_15-6-13-18_Final_Hires.las,100150601318W400_Ki_Retlaw_15-6-13-18_Final_Mai.las)
 BS    .mm          200.00                   : Bit size (100150601318W400_Ki_Retlaw_15-6-13-18_Final_Hires.las,100150601318W400_Ki_Retlaw_15-6-13-18_Final_Mai.las)
 MUD   .            GEL CHEM                 : Mud type (100150601318W400_Ki_Retlaw_15-6-13-18_Final_Hires.las,100150601318W400_Ki_Retlaw_15-6-13-18_Final_Mai.las)
 MUDD  .kg/m3       1230.000                 : Mud density (100150601318W400_Ki_Retlaw_15-6-13-18_Final_Hires.las,100150601318W400_Ki_Retlaw_15-6-13-18_Final_Mai.las)
 MUDV  .sec         81.000                   : Mud viscosity (100150601318W400_Ki_Retlaw_15-6-13-18_Final_Hires.las,100150601318W400_Ki_Retlaw_15-6-13-18_Final_Mai.las)
 FL    .cc          7.500                    : Fluid loss rate (100150601318W400_Ki_Retlaw_15-6-13-18_Final_Hires.las,100150601318W400_Ki_Retlaw_15-6-13-18_Final_Mai.las)
 PH    .            10.000                   : Mud pH (100150601318W400_Ki_Retlaw_15-6-13-18_Final_Hires.las,100150601318W400_Ki_Retlaw_15-6-13-18_Final_Mai.las)
 MUDS  .            FLOW LINE                : Mud source (100150601318W400_Ki_Retlaw_15-6-13-18_Final_Hires.las,100150601318W400_Ki_Retlaw_15-6-13-18_Final_Mai.las)
 RM    .OHMM        2.100                    : Resistivity of mud (100150601318W400_Ki_Retlaw_15-6-13-18_Final_Hires.las,100150601318W400_Ki_Retlaw_15-6-13-18_Final_Mai.las)
 RMT   .C           12.0                     : Temperature of mud (100150601318W400_Ki_Retlaw_15-6-13-18_Final_Hires.las,100150601318W400_Ki_Retlaw_15-6-13-18_Final_Mai.las)
 RMF   .OHMM        2.500                    : Resistivity of mud filtrate (100150601318W400_Ki_Retlaw_15-6-13-18_Final_Hires.las,100150601318W400_Ki_Retlaw_15-6-13-18_Final_Mai.las)
 RMFT  .C           12.0                     : Temperature of mud filtrate (100150601318W400_Ki_Retlaw_15-6-13-18_Final_Hires.las,100150601318W400_Ki_Retlaw_15-6-13-18_Final_Mai.las)
 RMC   .OHMM        1.900                    : Resistivity of mud cake (100150601318W400_Ki_Retlaw_15-6-13-18_Final_Hires.las,100150601318W400_Ki_Retlaw_15-6-13-18_Final_Mai.las)
 RMCT  .C           12.0                     : Temperature of mud cake (100150601318W400_Ki_Retlaw_15-6-13-18_Final_Hires.las,100150601318W400_Ki_Retlaw_15-6-13-18_Final_Mai.las)
 TMAX  .C           32.0                     : Maximum recorded temperature (100150601318W400_Ki_Retlaw_15-6-13-18_Final_Hires.las,100150601318W400_Ki_Retlaw_15-6-13-18_Final_Mai.las)
 TIMC  .DAY/HR      OCT 10 2009 @ 16:00      : Date/Time circulation stopped (100150601318W400_Ki_Retlaw_15-6-13-18_Final_Hires.las,100150601318W400_Ki_Retlaw_15-6-13-18_Final_Mai.las)
 TIMD  .DAY/HR      OCT 10 2009 @ 21:00      : Date/Time logger tagged bottom (100150601318W400_Ki_Retlaw_15-6-13-18_Final_Hires.las,100150601318W400_Ki_Retlaw_15-6-13-18_Final_Mai.las)
 UNIT  .            TRUCK 134                : Logging unit_number (100150601318W400_Ki_Retlaw_15-6-13-18_Final_Hires.las,100150601318W400_Ki_Retlaw_15-6-13-18_Final_Mai.las)
 BASE  .            MEDICINE HAT             : Home base of logging unit (100150601318W400_Ki_Retlaw_15-6-13-18_Final_Hires.las,100150601318W400_Ki_Retlaw_15-6-13-18_Final_Mai.las)
 ENG   .            M. MacNEIL               : Recording Engineer (100150601318W400_Ki_Retlaw_15-6-13-18_Final_Hires.las,100150601318W400_Ki_Retlaw_15-6-13-18_Final_Mai.las)
 WIT   .            R. BABBITT               : Witnessed by (100150601318W400_Ki_Retlaw_15-6-13-18_Final_Hires.las,100150601318W400_Ki_Retlaw_15-6-13-18_Final_Mai.las)
~Curve
#MNEM  .UNIT        API Codes                  Curve description
#----  .----     -------------               : -----------------------
 DEPT  .M                                    : 
 GRX   .GAPI     07 310 01 00                : Gamma Ray (Hires)
 DT    .US/M     60 520 32 00                : Delta Time
 GR    .GAPI     07 310 01 00                : Gamma Ray
 ILD   .OHMM     07 120 45 00                : Deep Induction Resistivity
 ILM   .OHMM     07 120 44 00                : Medium Induction Resistivity
 SFL   .OHMM     07 220 04 00                : Spherically Focused Resistivity
 SP    .MV       07 010 01 00                : Spontaneous Potential
 RHOB  .KG/M3    45 350 02 00                : Bulk Density
 PE    .B/E      45 358 00 00                : Photoelectric Cross Section
~TOPS_Definition
 TOPN.        :  Top Name     {S} 
 TOPT.M       :  Top Depth    {F} 
~TOPS_Data | TOPS_Definition
 Kcolorado            435.6  
 Kmed_hat             487.0  
 K2nd_ws              695.6  
 K2ws_ss              716.9  
 Kbfs                 795.0  
 Kbi_ss               825.3  
 Kbsl_colo            945.5  
 Kmannvl              953.0  
 Kglauc_ss            1057.7  
 Kmannvl_L            1094.9  
~Ascii        DEPT          GRX           DT           GR          ILD          ILM          SFL           SP         RHOB           PE
# ...
     842.00000     -9999.6900       279.7600        71.5600         8.8100         8.9000        12.2700      -225.0500      2366.2900         2.6400
     842.10000     -9999.6900       281.5700        64.2300         8.5500         8.4200        11.9000      -227.9800      2347.2600         2.5500
     842.20000     -9999.6900       283.4400        58.3000         8.2800         8.0300        11.7300      -230.3500      2335.0701         2.4100
     842.30000     -9999.6900       285.0700        56.2600         8.0200         7.7400        11.7100      -231.9600      2331.5701         2.2500
     842.40000     -9999.6900       286.7800        56.3500         7.7900         7.5500        11.7600      -233.0300      2334.5801         2.1400
     842.50000     -9999.6900       288.1800        56.5800         7.6000         7.4300        11.7700      -233.9200      2336.1399         2.0800
     842.60000     -9999.6900       288.6800        55.6300         7.4700         7.3800        11.7400      -234.7100      2335.2500         2.0500
     842.70000     -9999.6900       288.1100        54.8600         7.4000         7.3800        11.6700      -235.4400      2332.4299         2.0400
     842.80000     -9999.6900       287.5000        54.9800         7.4000         7.4000        11.6300      -235.9500      2327.4199         2.0300
     842.90000     -9999.6900       287.9400        55.0400         7.4400         7.4600        11.6500      -236.1600      2323.2500         2.0100
     843.00000     -9999.6900       288.7500        52.6100         7.5200         7.5400        11.7300      -236.1400      2318.0500         2.0000
     843.10000     -9999.6900       288.7700        47.5300         7.6300         7.6600        11.8800      -235.9100      2314.3501         2.0000
     843.20000     -9999.6900       287.8800        42.6300         7.7600         7.8100        12.0600      -235.4700      2314.7900         2.0000
     843.30000     -9999.6900       287.1400        40.8700         7.9000         8.0000        12.2600      -234.7900      2320.4900         2.0100
     843.40000     -9999.6900       286.2100        42.6600         8.0500         8.2400        12.4900      -233.9100      2330.0901         2.0300
     843.50000     -9999.6900       285.2800        46.4900         8.1900         8.5300        12.7800      -232.8400      2339.9600         2.0700
     843.60000     -9999.6900       284.9900        50.7400         8.3400         8.8600        13.1600      -231.6800      2350.6799         2.1100
     843.70000     -9999.6900       284.6000        54.0800         8.5200         9.2300        13.6600      -230.5400      2362.3899         2.1500
     843.80000     -9999.6900       282.8800        56.1400         8.7400         9.6200        14.2100      -229.5400      2375.9600         2.2000
     843.90000     -9999.6900       280.0200        57.5400         9.0200        10.0400        14.7400      -228.8400      2386.3000         2.2700
     844.00000     -9999.6900       277.0000        58.2600         9.3600        10.4800        15.2400      -228.4300      2390.9900         2.3400
     844.10000     -9999.6900       274.9600        58.5400         9.7800        10.9800        16.1200      -228.2400      2393.7300         2.3700
     844.20000     -9999.6900       274.1200        59.0800        10.2800        11.5900        18.8700      -228.1300      2398.5100         2.3500
     844.30000     -9999.6900       273.0800        59.8200        10.8500        12.3900        32.9000      -227.9300      2409.8101         2.3000
     844.40000     -9999.6900       272.4100        58.7800        11.5400        13.5100        76.1800      -227.6300      2427.0801         2.2700
     844.50000     -9999.6900       271.1600        55.3800        12.3500        15.1100       154.4500      -227.1600      2448.8799         2.2700
     844.60000     -9999.6900       263.8600        51.1000        13.2900        17.4600       316.5800      -226.4900      2479.6001         2.3200
     844.70000     -9999.6900       248.9200        47.3300        14.3900        20.9100       580.2500      -225.6100      2521.7300         2.4300
     844.80000     -9999.6900       232.5100        43.8900        15.7300        25.8700       926.5700      -224.6000      2570.6499         2.6400
     844.90000     -9999.6900       218.3200        40.6100        17.4100        33.1300      1277.9399      -223.5600      2615.4900         2.9300
     845.00000     -9999.6900       204.9600        37.3300        19.4300        43.5700      1512.8300      -222.5200      2645.8601         3.2200
     845.10000     -9999.6900       193.2300        35.0800        21.5800        57.7200      1620.7100      -221.4500      2658.9500         3.4100
     845.20000     -9999.6900       187.4700        34.7600        23.7300        74.2400      1635.1899      -220.3900      2661.1001         3.5100
     845.30000     -9999.6900       187.1500        36.4900        25.3600        87.5400      1577.5900      -219.3400      2658.6599         3.6000
     845.40000     -9999.6900       187.6900        38.9300        26.0600        89.6200      1442.2000      -218.3200      2656.0901         3.7100
     845.50000     -9999.6900       188.3000        40.4400        25.4800        78.9500      1200.3300      -217.3100      2654.6799         3.7800
     845.60000     -9999.6900       188.7600        40.6200        24.0900        62.6300       877.9700      -216.2900      2648.2400         3.8700
     845.70000     -9999.6900       188.0200        40.5900        22.2200        47.5600       563.1900      -215.3000      2633.3201         3.9000
     845.80000     -9999.6900       187.5700        43.2100        20.2900        36.0100       319.8700      -214.3000      2606.8401         3.8800
     845.90000     -9999.6900       190.9600        49.2600        18.4300        27.8000       165.4900      -213.3000      2569.7000         3.7600
     846.00000     -9999.6900       199.1500        56.5300        16.8600        22.1200        83.8100      -212.4200      2526.8601         3.5200
     846.10000     -9999.6900       209.7700        61.7500        15.6300        18.1500        41.4000      -211.6800      2481.8401         3.2500
     846.20000     -9999.6900       221.6800        64.8600        14.5700        15.3800        23.3200      -211.1900      2443.9900         2.9800
     846.30000     -9999.6900       235.6200        66.5600        13.5700        13.4600        18.2700      -210.8700      2414.5801         2.7700
     846.40000     -9999.6900       249.0200        66.9200        12.5500        12.1000        16.0600      -210.5400      2395.0400         2.6200
     846.50000     -9999.6900       257.9100        64.8000        11.5100        11.1100        14.7600      -210.0200      2385.2000         2.5000
     846.60000     -9999.6900       264.4400        61.5700        10.4900        10.3300        13.7700      -209.2000      2381.2800         2.4100
     846.70000     -9999.6900       269.7900        59.8000         9.4800         9.6100        12.9400      -208.2900      2382.2500         2.3400
     846.80000     -9999.6900       272.9600        63.3000         8.5300         8.8700        12.1600      -207.3600      2387.6699         2.3000
     846.90000     -9999.6900       274.7000        72.7500         7.7400         8.0800        11.2900      -206.3700      2391.1899         2.3000
     847.00000     -9999.6900       275.8800        85.5600         7.1000         7.2800        10.1600      -205.2200      2391.7400         2.3400
     847.10000     -9999.6900       277.4800        97.3500         6.6000         6.5200         8.8200      -203.7800      2388.4800         2.3900
     847.20000     -9999.6900       280.6300       106.5000         6.2100         5.8600         7.4700      -202.3000      2382.9600         2.4700
     847.30000     -9999.6900       286.7000       112.5500         5.9500         5.3500         6.3300      -201.0100      2385.5400         2.5600
