~Version Information
# Data Copyright 2013 (C) geoLOGIC systems ltd.
 VERS  .     3.00 : LOG ASCII STANDARD -VERSION 3.0
 WRAP  .     NO   : ONE LINE PER DEPTH STEP
 DLM   .    SPACE : DELIMITING CHARACTER BETWEEN DATA COLUMNS
 PROD  .      geoLOGIC systems ltd.          : LAS Producer
 CREA  .      05/02/2025                     : LAS Creation date {MM/DD/YYYY}
~Well
#MNEM  .UNIT        Data                       Description of Mnemonic
#------.------ ----------------------------- : -------------------------
 STRT  .M           5.00000                  : START DEPTH
 STOP  .M        1159.90000                  : STOP DEPTH
 STEP  .M           0.10000                  : STEP DEPTH
 NULL  .           -9999.69                  : NULL VALUE
 COMP  .      KI EXPLORATION INC.            : Company
 WELL  .      KI RETLAW 15-6-13-18           : Well
 FLD   .      RETLAW                         : Field
 LOC   .      100/15-06-013-18W4/00          : Location
 PRVC  .      Alberta                        : Province
 SRVC  .      Tucker Wireline Services       : Service Company
 DATE  .      OCT 10 2009                    : Log Date
 UWI   .      100150601318W400               : Unique Well ID
 LIC   .      0412565                        : Licence Number
 LATI  .                                     : Latitude
 LONG  .                                     : Longitude
 GDAT  .                                     : Geodetic Datum
~Parameter
#MNEM  .UNIT        VALUE                      Description
#------.------ ----------------------------- : -------------------------
 RUN   .            1                        : Run number (100150601318W400_Ki_Retlaw_15-6-13-18_Final_Hires.las,100150601318W400_Ki_Retlaw_15-6-13-18_Final_Mai.las)
 GL    .M           821.809998               : Ground level elevation (100150601318W400_Ki_Retlaw_15-6-13-18_Final_Hires.las,100150601318W400_Ki_Retlaw_15-6-13-18_Final_Mai.las)
 DREF  .            KB                       : Depth reference (100150601318W400_Ki_Retlaw_15-6-13-18_Final_Hires.las,100150601318W400_Ki_Retlaw_15-6-13-18_Final_Mai.las)
 EREF  .M           826.099976               : Elevation of depth reference (100150601318W400_Ki_Retlaw_15-6-13-18_Final_Hires.las,100150601318W400_Ki_Retlaw_15-6-13-18_Final_Mai.las)
 TDL   .M           1157.0                   : Total depth, logger (100150601318W400_Ki_Retlaw_15-6-13-18_Final_Hires.las,100150601318W400_Ki_Retlaw_15-6-13-18_Final_Mai.las)
 TDD   .M           1157.0                   : Total depth, driller (100150601318W400_Ki_Retlaw_15-6-13-18_Final_Hires.las,100150601318W400_Ki_Retlaw_15-6-13-18_Final_Mai.las)
 CSGL  .M           293.0                    : Casing bottom, logger (100150601318W400_Ki_Retlaw_15-6-13-18_Final_Hires.las,100150601318W400_Ki_Retlaw_15-6-13-18_Final_Mai.las)
 CSGD  .M           293.0                    : Casing bottom, driller (100150601318W400_Ki_Retlaw_15-6-13-18_Final_Hires.las,100150601318W400_Ki_Retlaw_15-6-13-18_Final_Mai.las)
 CSGS  .mm          219.10                   : Casing size (100150601318W400_Ki_Retlaw_15-6-13-18_Final_Hires.las,100150601318W400_Ki_Retlaw_15-6-13-18_Final_Mai.las)
 CSGW  .Kg          219.10                   : Casing weight (100150601318W400_Ki_Retlaw_15-6-13-18_Final_Hires.las,100150601318W400_Ki_Retlaw_15-6-13-18_Final_Mai.las)
 BS    .mm          200.00                   : Bit size (100150601318W400_Ki_Retlaw_15-6-13-18_Final_Hires.las,100150601318W400_Ki_Retlaw_15-6-13-18_Final_Mai.las)
 MUD   .            GEL CHEM                 : Mud type (100150601318W400_Ki_Retlaw_15-6-13-18_Final_Hires.las,100150601318W400_Ki_Retlaw_15-6-13-18_Final_Mai.las)
 MUDD  .kg/m3       1230.000                 : Mud density (100150601318W400_Ki_Retlaw_15-6-13-18_Final_Hires.las,100150601318W400_Ki_Retlaw_15-6-13-18_Final_Mai.las)
 MUDV  .sec         81.000                   : Mud viscosity (100150601318W400_Ki_Retlaw_15-6-13-18_Final_Hires.las,100150601318W400_Ki_Retlaw_15-6-13-18_Final_Mai.las)
 FL    .cc          7.500                    : Fluid loss rate (100150601318W400_Ki_Retlaw_15-6-13-18_Final_Hires.las,100150601318W400_Ki_Retlaw_15-6-13-18_Final_Mai.las)
 PH    .            10.000                   : Mud pH (100150601318W400_Ki_Retlaw_15-6-13-18_Final_Hires.las,100150601318W400_Ki_Retlaw_15-6-13-18_Final_Mai.las)
 MUDS  .            FLOW LINE                : Mud source (100150601318W400_Ki_Retlaw_15-6-13-18_Final_Hires.las,100150601318W400_Ki_Retlaw_15-6-13-18_Final_Mai.las)
 RM    .OHMM        2.100                    : Resistivity of mud (100150601318W400_Ki_Retlaw_15-6-13-18_Final_Hires.las,100150601318W400_Ki_Retlaw_15-6-13-18_Final_Mai.las)
 RMT   .C           12.0                     : Temperature of mud (100150601318W400_Ki_Retlaw_15-6-13-18_Final_Hires.las,100150601318W400_Ki_Retlaw_15-6-13-18_Final_Mai.las)
 RMF   .OHMM        2.500                    : Resistivity of mud filtrate (100150601318W400_Ki_Retlaw_15-6-13-18_Final_Hires.las,100150601318W400_Ki_Retlaw_15-6-13-18_Final_Mai.las)
 RMFT  .C           12.0                     : Temperature of mud filtrate (100150601318W400_Ki_Retlaw_15-6-13-18_Final_Hires.las,100150601318W400_Ki_Retlaw_15-6-13-18_Final_Mai.las)
 RMC   .OHMM        1.900                    : Resistivity of mud cake (100150601318W400_Ki_Retlaw_15-6-13-18_Final_Hires.las,100150601318W400_Ki_Retlaw_15-6-13-18_Final_Mai.las)
 RMCT  .C           12.0                     : Temperature of mud cake (100150601318W400_Ki_Retlaw_15-6-13-18_Final_Hires.las,100150601318W400_Ki_Retlaw_15-6-13-18_Final_Mai.las)
 TMAX  .C           32.0                     : Maximum recorded temperature (100150601318W400_Ki_Retlaw_15-6-13-18_Final_Hires.las,100150601318W400_Ki_Retlaw_15-6-13-18_Final_Mai.las)
 TIMC  .DAY/HR      OCT 10 2009 @ 16:00      : Date/Time circulation stopped (100150601318W400_Ki_Retlaw_15-6-13-18_Final_Hires.las,100150601318W400_Ki_Retlaw_15-6-13-18_Final_Mai.las)
 TIMD  .DAY/HR      OCT 10 2009 @ 21:00      : Date/Time logger tagged bottom (100150601318W400_Ki_Retlaw_15-6-13-18_Final_Hires.las,100150601318W400_Ki_Retlaw_15-6-13-18_Final_Mai.las)
 UNIT  .            TRUCK 134                : Logging unit_number (100150601318W400_Ki_Retlaw_15-6-13-18_Final_Hires.las,100150601318W400_Ki_Retlaw_15-6-13-18_Final_Mai.las)
 BASE  .            MEDICINE HAT             : Home base of logging unit (100150601318W400_Ki_Retlaw_15-6-13-18_Final_Hires.las,100150601318W400_Ki_Retlaw_15-6-13-18_Final_Mai.las)
 ENG   .            M. MacNEIL               : Recording Engineer (100150601318W400_Ki_Retlaw_15-6-13-18_Final_Hires.las,100150601318W400_Ki_Retlaw_15-6-13-18_Final_Mai.las)
 WIT   .            R. BABBITT               : Witnessed by (100150601318W400_Ki_Retlaw_15-6-13-18_Final_Hires.las,100150601318W400_Ki_Retlaw_15-6-13-18_Final_Mai.las)
~Curve
#MNEM  .UNIT        API Codes                  Curve description
#----  .----     -------------               : -----------------------
 DEPT  .M                                    : 
 GRX   .GAPI     07 310 01 00                : Gamma Ray (Hires)
 DT    .US/M     60 520 32 00                : Delta Time
 GR    .GAPI     07 310 01 00                : Gamma Ray
 ILD   .OHMM     07 120 45 00                : Deep Induction Resistivity
 ILM   .OHMM     07 120 44 00                : Medium Induction Resistivity
 SFL   .OHMM     07 220 04 00                : Spherically Focused Resistivity
 SP    .MV       07 010 01 00                : Spontaneous Potential
 RHOB  .KG/M3    45 350 02 00                : Bulk Density
 PE    .B/E      45 358 00 00                : Photoelectric Cross Section
~TOPS_Definition
 TOPN.        :  Top Name     {S} 
 TOPT.M       :  Top Depth    {F} 
~TOPS_Data | TOPS_Definition
 Kcolorado            435.6  
 Kmed_hat             487.0  
 K2nd_ws              695.6  
 K2ws_ss              716.9  
 Kbfs                 795.0  
 Kbi_ss               825.3  
 Kbsl_colo            945.5  
 Kmannvl              953.0  
 Kglauc_ss            1057.7  
 Kmannvl_L            1094.9  
~Ascii        DEPT          GRX           DT           GR          ILD          ILM          SFL           SP         RHOB           PE
# ...
     993.20000       107.8600       276.7400       118.6900         9.4700         8.7400         9.3500      -200.3200      2493.0100         2.8100
     993.30000       112.3100       283.1900       119.3300         9.5200         8.7000         9.1200      -200.3800      2507.8999         2.8300
     993.40000       102.9000       287.8800       112.3900         9.5300         8.7500         8.9800      -200.4500      2525.2500         2.8700
     993.50000        98.9100       291.6900       105.0100         9.5600         8.9000         8.9700      -200.5100      2541.9700         2.9000
     993.60000       108.1100       294.8100       102.4200         9.6000         9.1400         9.1900      -200.5300      2559.6599         2.9100
     993.70000       113.8100       294.5700       103.8800         9.6600         9.4700         9.6900      -200.5200      2566.8899         2.8800
     993.80000       118.7500       290.4600       105.0300         9.7600         9.8900        10.4800      -200.4800      2554.5400         2.8300
     993.90000        91.3000       285.5800       105.6000         9.9200        10.3500        11.4100      -200.4700      2535.8101         2.7800
     994.00000       115.5000       280.3100       106.4800        10.1500        10.8300        12.3200      -200.4900      2524.8401         2.7400
     994.10000        99.7400       272.9700       108.3900        10.4800        11.3200        13.0900      -200.5800      2522.3101         2.7300
     994.20000       106.6200       265.5500       110.3600        10.8800        11.7800        13.6900      -200.6700      2527.3601         2.7400
     994.30000       102.4500       260.7800       111.1600        11.3400        12.2100        14.1400      -200.7800      2537.3401         2.7600
     994.40000       117.4400       258.4900       108.3900        11.8600        12.6000        14.4800      -200.9000      2557.2600         2.8300
     994.50000        94.6700       257.2400       102.7700        12.3700        12.9700        14.6700      -201.0500      2587.1599         2.9900
     994.60000        95.2500       256.7700        98.4800        12.7900        13.3200        14.6700      -201.2200      2616.1399         3.2800
     994.70000       111.6400       256.5800        98.9900        13.1300        13.6700        14.5000      -201.3500      2637.4800         3.6000
     994.80000       103.7600       256.1800       103.5600        13.3000        14.0000        14.3000      -201.4500      2641.9800         3.8000
     994.90000       119.7100       256.0400       108.8300        13.3000        14.2700        14.1600      -201.5900      2634.7500         3.8200
     995.00000       117.0000       255.8900       110.3800        13.1000        14.4100        14.2100      -201.8300      2623.8601         3.7600
     995.10000       112.7000       255.1400       107.4000        12.8000        14.3300        14.5100      -202.1400      2613.5200         3.6800
     995.20000        81.6300       253.2700       105.3400        12.4400        13.9800        15.0200      -202.3800      2614.8301         3.5300
     995.30000       109.9500       250.4700       108.3300        12.1000        13.3900        15.4300      -202.4100      2621.3501         3.4900
     995.40000       132.4500       249.7300       112.8600        11.7800        12.6500        15.3000      -202.1700      2620.0601         3.5500
     995.50000       108.4900       253.3200       113.2000        11.4800        11.8900        14.4600      -201.8000      2607.1399         3.5700
     995.60000       116.2400       259.0400       109.7000        11.2100        11.2200        13.2500      -201.4000      2589.6299         3.4500
     995.70000       111.1500       263.7600       106.3900        10.9700        10.7000        12.1600      -201.0700      2575.8501         3.1400
     995.80000       118.0800       268.3900       105.8500        10.7500        10.3400        11.4000      -200.8100      2563.6399         2.9100
     995.90000       104.9700       273.7300       108.6400        10.5400        10.1500        10.9700      -200.6100      2549.4900         2.7900
     996.00000       115.7900       277.6200       112.4100        10.3500        10.1200        10.7500      -200.4900      2535.9700         2.7600
     996.10000       105.9600       279.3500       115.5300        10.2200        10.2400        10.7100      -200.4200      2530.5801         2.7800
     996.20000       108.0800       279.3900       117.4100        10.1600        10.4900        10.9100      -200.4400      2534.2400         2.7900
     996.30000       113.7900       278.2900       117.2500        10.2000        10.8400        11.3200      -200.4300      2536.9299         2.8300
     996.40000       113.2000       277.1200       113.9500        10.3500        11.2500        11.9500      -200.4300      2536.3201         2.8200
     996.50000       100.0400       275.1000       108.5800        10.6200        11.7000        12.6800      -200.4300      2530.5801         2.7800
     996.60000        94.3600       271.0800       104.5700        11.0100        12.1600        13.3800      -200.4300      2524.0901         2.7400
     996.70000       118.3000       266.6500       103.7700        11.5200        12.6300        13.9400      -200.4800      2523.8000         2.7000
     996.80000        94.8100       263.5800       105.7400        12.0800        13.1400        14.3600      -200.5100      2526.7400         2.7200
     996.90000       107.7800       262.0700       110.1500        12.6100        13.7000        14.8100      -200.5000      2538.2400         2.7300
     997.00000       113.5800       261.9600       114.3200        12.9600        14.3300        15.5900      -200.5300      2555.9700         2.7500
     997.10000       111.7100       262.0900       113.2400        13.0100        14.9400        16.9300      -200.6200      2580.0500         2.7800
     997.20000       104.2800       261.8800       105.0300        12.7600        15.3400        18.9400      -200.8000      2615.3601         2.8400
     997.30000        87.8000       260.0700        93.1500        12.2800        15.2600        21.0700      -201.0500      2662.2900         2.9900
     997.40000        77.4700       253.1900        84.5100        11.6700        14.5200        22.2700      -201.2900      2716.8301         3.2600
     997.50000        78.5400       242.3100        83.0500        11.0800        13.2100        21.5700      -201.4800      2757.4299         3.7700
     997.60000        90.1500       234.6900        87.1600        10.5300        11.6600        18.9000      -201.5800      2740.5500         4.2800
     997.70000        89.6700       233.5900        93.3600        10.0200        10.1900        15.4400      -201.6300      2678.0801         4.4300
     997.80000        99.7000       236.2000        98.5200         9.5400         8.9700        12.2700      -201.6900      2604.6699         4.2400
     997.90000        94.2200       242.8600       103.2800         9.0900         8.0700         9.9200      -201.8000      2533.7100         3.8400
     998.00000       103.8100       256.6500       109.8500         8.6300         7.4500         8.4200      -201.9700      2491.8201         3.5200
     998.10000       113.6600       274.2700       116.4300         8.1700         7.0600         7.5100      -202.1400      2468.1699         3.2100
     998.20000       122.2100       288.1100       117.4100         7.7100         6.8300         7.0900      -202.3000      2455.1201         2.9300
     998.30000       111.8500       296.0300       110.3100         7.3000         6.6800         6.9100      -202.4300      2448.2400         2.7600
     998.40000        99.2900       302.2700       101.5700         6.9500         6.5800         6.7900      -202.5200      2442.8000         2.6600
     998.50000       121.7800       308.0300        99.5000         6.6700         6.4500         6.6400      -202.5600      2438.8999         2.6300
