~Version Information
# Data Copyright 2013 (C) geoLOGIC systems ltd.
 VERS  .     3.00 : LOG ASCII STANDARD -VERSION 3.0
 WRAP  .     NO   : ONE LINE PER DEPTH STEP
 DLM   .    SPACE : DELIMITING CHARACTER BETWEEN DATA COLUMNS
 PROD  .      geoLOGIC systems ltd.          : LAS Producer
 CREA  .      05/02/2025                     : LAS Creation date {MM/DD/YYYY}
~Well
#MNEM  .UNIT        Data                       Description of Mnemonic
#------.------ ----------------------------- : -------------------------
 STRT  .M           5.00000                  : START DEPTH
 STOP  .M        1159.90000                  : STOP DEPTH
 STEP  .M           0.10000                  : STEP DEPTH
 NULL  .           -9999.69                  : NULL VALUE
 COMP  .      KI EXPLORATION INC.            : Company
 WELL  .      KI RETLAW 15-6-13-18           : Well
 FLD   .      RETLAW                         : Field
 LOC   .      100/15-06-013-18W4/00          : Location
 PRVC  .      Alberta                        : Province
 SRVC  .      Tucker Wireline Services       : Service Company
 DATE  .      OCT 10 2009                    : Log Date
 UWI   .      100150601318W400               : Unique Well ID
 LIC   .      0412565                        : Licence Number
 LATI  .                                     : Latitude
 LONG  .                                     : Longitude
 GDAT  .                                     : Geodetic Datum
~Parameter
#MNEM  .UNIT        VALUE                      Description
#------.------ ----------------------------- : -------------------------
 RUN   .            1                        : Run number (100150601318W400_Ki_Retlaw_15-6-13-18_Final_Hires.las,100150601318W400_Ki_Retlaw_15-6-13-18_Final_Mai.las)
 GL    .M           821.809998               : Ground level elevation (100150601318W400_Ki_Retlaw_15-6-13-18_Final_Hires.las,100150601318W400_Ki_Retlaw_15-6-13-18_Final_Mai.las)
 DREF  .            KB                       : Depth reference (100150601318W400_Ki_Retlaw_15-6-13-18_Final_Hires.las,100150601318W400_Ki_Retlaw_15-6-13-18_Final_Mai.las)
 EREF  .M           826.099976               : Elevation of depth reference (100150601318W400_Ki_Retlaw_15-6-13-18_Final_Hires.las,100150601318W400_Ki_Retlaw_15-6-13-18_Final_Mai.las)
 TDL   .M           1157.0                   : Total depth, logger (100150601318W400_Ki_Retlaw_15-6-13-18_Final_Hires.las,100150601318W400_Ki_Retlaw_15-6-13-18_Final_Mai.las)
 TDD   .M           1157.0                   : Total depth, driller (100150601318W400_Ki_Retlaw_15-6-13-18_Final_Hires.las,100150601318W400_Ki_Retlaw_15-6-13-18_Final_Mai.las)
 CSGL  .M           293.0                    : Casing bottom, logger (100150601318W400_Ki_Retlaw_15-6-13-18_Final_Hires.las,100150601318W400_Ki_Retlaw_15-6-13-18_Final_Mai.las)
 CSGD  .M           293.0                    : Casing bottom, driller (100150601318W400_Ki_Retlaw_15-6-13-18_Final_Hires.las,100150601318W400_Ki_Retlaw_15-6-13-18_Final_Mai.las)
 CSGS  .mm          219.10                   : Casing size (100150601318W400_Ki_Retlaw_15-6-13-18_Final_Hires.las,100150601318W400_Ki_Retlaw_15-6-13-18_Final_Mai.las)
 CSGW  .Kg          219.10                   : Casing weight (100150601318W400_Ki_Retlaw_15-6-13-18_Final_Hires.las,100150601318W400_Ki_Retlaw_15-6-13-18_Final_Mai.las)
 BS    .mm          200.00                   : Bit size (100150601318W400_Ki_Retlaw_15-6-13-18_Final_Hires.las,100150601318W400_Ki_Retlaw_15-6-13-18_Final_Mai.las)
 MUD   .            GEL CHEM                 : Mud type (100150601318W400_Ki_Retlaw_15-6-13-18_Final_Hires.las,100150601318W400_Ki_Retlaw_15-6-13-18_Final_Mai.las)
 MUDD  .kg/m3       1230.000                 : Mud density (100150601318W400_Ki_Retlaw_15-6-13-18_Final_Hires.las,100150601318W400_Ki_Retlaw_15-6-13-18_Final_Mai.las)
 MUDV  .sec         81.000                   : Mud viscosity (100150601318W400_Ki_Retlaw_15-6-13-18_Final_Hires.las,100150601318W400_Ki_Retlaw_15-6-13-18_Final_Mai.las)
 FL    .cc          7.500                    : Fluid loss rate (100150601318W400_Ki_Retlaw_15-6-13-18_Final_Hires.las,100150601318W400_Ki_Retlaw_15-6-13-18_Final_Mai.las)
 PH    .            10.000                   : Mud pH (100150601318W400_Ki_Retlaw_15-6-13-18_Final_Hires.las,100150601318W400_Ki_Retlaw_15-6-13-18_Final_Mai.las)
 MUDS  .            FLOW LINE                : Mud source (100150601318W400_Ki_Retlaw_15-6-13-18_Final_Hires.las,100150601318W400_Ki_Retlaw_15-6-13-18_Final_Mai.las)
 RM    .OHMM        2.100                    : Resistivity of mud (100150601318W400_Ki_Retlaw_15-6-13-18_Final_Hires.las,100150601318W400_Ki_Retlaw_15-6-13-18_Final_Mai.las)
 RMT   .C           12.0                     : Temperature of mud (100150601318W400_Ki_Retlaw_15-6-13-18_Final_Hires.las,100150601318W400_Ki_Retlaw_15-6-13-18_Final_Mai.las)
 RMF   .OHMM        2.500                    : Resistivity of mud filtrate (100150601318W400_Ki_Retlaw_15-6-13-18_Final_Hires.las,100150601318W400_Ki_Retlaw_15-6-13-18_Final_Mai.las)
 RMFT  .C           12.0                     : Temperature of mud filtrate (100150601318W400_Ki_Retlaw_15-6-13-18_Final_Hires.las,100150601318W400_Ki_Retlaw_15-6-13-18_Final_Mai.las)
 RMC   .OHMM        1.900                    : Resistivity of mud cake (100150601318W400_Ki_Retlaw_15-6-13-18_Final_Hires.las,100150601318W400_Ki_Retlaw_15-6-13-18_Final_Mai.las)
 RMCT  .C           12.0                     : Temperature of mud cake (100150601318W400_Ki_Retlaw_15-6-13-18_Final_Hires.las,100150601318W400_Ki_Retlaw_15-6-13-18_Final_Mai.las)
 TMAX  .C           32.0                     : Maximum recorded temperature (100150601318W400_Ki_Retlaw_15-6-13-18_Final_Hires.las,100150601318W400_Ki_Retlaw_15-6-13-18_Final_Mai.las)
 TIMC  .DAY/HR      OCT 10 2009 @ 16:00      : Date/Time circulation stopped (100150601318W400_Ki_Retlaw_15-6-13-18_Final_Hires.las,100150601318W400_Ki_Retlaw_15-6-13-18_Final_Mai.las)
 TIMD  .DAY/HR      OCT 10 2009 @ 21:00      : Date/Time logger tagged bottom (100150601318W400_Ki_Retlaw_15-6-13-18_Final_Hires.las,100150601318W400_Ki_Retlaw_15-6-13-18_Final_Mai.las)
 UNIT  .            TRUCK 134                : Logging unit_number (100150601318W400_Ki_Retlaw_15-6-13-18_Final_Hires.las,100150601318W400_Ki_Retlaw_15-6-13-18_Final_Mai.las)
 BASE  .            MEDICINE HAT             : Home base of logging unit (100150601318W400_Ki_Retlaw_15-6-13-18_Final_Hires.las,100150601318W400_Ki_Retlaw_15-6-13-18_Final_Mai.las)
 ENG   .            M. MacNEIL               : Recording Engineer (100150601318W400_Ki_Retlaw_15-6-13-18_Final_Hires.las,100150601318W400_Ki_Retlaw_15-6-13-18_Final_Mai.las)
 WIT   .            R. BABBITT               : Witnessed by (100150601318W400_Ki_Retlaw_15-6-13-18_Final_Hires.las,100150601318W400_Ki_Retlaw_15-6-13-18_Final_Mai.las)
~Curve
#MNEM  .UNIT        API Codes                  Curve description
#----  .----     -------------               : -----------------------
 DEPT  .M                                    : 
 GRX   .GAPI     07 310 01 00                : Gamma Ray (Hires)
 DT    .US/M     60 520 32 00                : Delta Time
 GR    .GAPI     07 310 01 00                : Gamma Ray
 ILD   .OHMM     07 120 45 00                : Deep Induction Resistivity
 ILM   .OHMM     07 120 44 00                : Medium Induction Resistivity
 SFL   .OHMM     07 220 04 00                : Spherically Focused Resistivity
 SP    .MV       07 010 01 00                : Spontaneous Potential
 RHOB  .KG/M3    45 350 02 00                : Bulk Density
 PE    .B/E      45 358 00 00                : Photoelectric Cross Section
~TOPS_Definition
 TOPN.        :  Top Name     {S} 
 TOPT.M       :  Top Depth    {F} 
~TOPS_Data | TOPS_Definition
 Kcolorado            435.6  
 Kmed_hat             487.0  
 K2nd_ws              695.6  
 K2ws_ss              716.9  
 Kbfs                 795.0  
 Kbi_ss               825.3  
 Kbsl_colo            945.5  
 Kmannvl              953.0  
 Kglauc_ss            1057.7  
 Kmannvl_L            1094.9  
~Ascii        DEPT          GRX           DT           GR          ILD          ILM          SFL           SP         RHOB           PE
# ...
      15.80000     -9999.6900     -9999.6900        55.9900     -9999.6900     -9999.6900     -9999.6900     -9999.6900      1321.6801         8.5600
      15.90000     -9999.6900     -9999.6900        56.4600     -9999.6900     -9999.6900     -9999.6900     -9999.6900      1299.2800         8.6400
      16.00000     -9999.6900       182.4100        56.3200     -9999.6900     -9999.6900     -9999.6900     -9999.6900      1276.5800         8.7000
      16.10000     -9999.6900       182.4100        58.1400     -9999.6900     -9999.6900     -9999.6900     -9999.6900      1251.9100         8.7800
      16.20000     -9999.6900       182.3500        61.3100     -9999.6900     -9999.6900     -9999.6900     -9999.6900      1223.0000         8.8000
      16.30000     -9999.6900       182.1100        62.8800     -9999.6900     -9999.6900     -9999.6900     -9999.6900      1166.1700         8.8600
      16.40000     -9999.6900       181.9200        61.4500     -9999.6900     -9999.6900     -9999.6900     -9999.6900      1081.2500         8.8300
      16.50000     -9999.6900       181.9800        57.5200     -9999.6900     -9999.6900     -9999.6900     -9999.6900       973.8000         8.9200
      16.60000     -9999.6900       181.7400        52.8000     -9999.6900     -9999.6900     -9999.6900     -9999.6900       874.3600         9.1200
      16.70000     -9999.6900       181.2900        48.7100     -9999.6900     -9999.6900     -9999.6900     -9999.6900       805.4400         9.2700
      16.80000     -9999.6900       181.1400        46.4700     -9999.6900     -9999.6900     -9999.6900     -9999.6900       751.3200         9.4000
      16.90000     -9999.6900       180.8700        47.3500     -9999.6900     -9999.6900     -9999.6900     -9999.6900       717.9800         9.4100
      17.00000     -9999.6900       180.5800        50.3500     -9999.6900     -9999.6900     -9999.6900     -9999.6900       704.2900         9.4200
      17.10000     -9999.6900       180.3300        52.5000     -9999.6900     -9999.6900     -9999.6900     -9999.6900       717.8200         9.3800
      17.20000     -9999.6900       180.3300        53.3800     -9999.6900     -9999.6900     -9999.6900     -9999.6900       743.0900         9.3000
      17.30000     -9999.6900       180.5100        55.1600     -9999.6900     -9999.6900     -9999.6900     -9999.6900       756.1400         9.1200
      17.40000     -9999.6900       180.5600        57.6700     -9999.6900     -9999.6900     -9999.6900     -9999.6900       757.1700         8.8600
      17.50000     -9999.6900       180.5200        59.0800     -9999.6900     -9999.6900     -9999.6900     -9999.6900       741.3800         8.8000
      17.60000     -9999.6900       180.3800        60.2900     -9999.6900     -9999.6900     -9999.6900     -9999.6900       720.2600         8.7500
      17.70000     -9999.6900       180.6200        62.3600     -9999.6900     -9999.6900     -9999.6900     -9999.6900       680.2600         8.8400
      17.80000     -9999.6900       180.8700        63.2000     -9999.6900     -9999.6900     -9999.6900     -9999.6900       637.0900         8.9800
      17.90000     -9999.6900       180.3200        60.5000     -9999.6900     -9999.6900     -9999.6900     -9999.6900       598.3600         9.0300
      18.00000     -9999.6900       179.8400        55.9700     -9999.6900     -9999.6900     -9999.6900     -9999.6900       565.7200         9.1200
      18.10000     -9999.6900       179.8700        52.8500     -9999.6900     -9999.6900     -9999.6900     -9999.6900       545.4100         9.0000
      18.20000     -9999.6900       179.9000        51.9500     -9999.6900     -9999.6900     -9999.6900     -9999.6900       522.3500         8.8400
      18.30000     -9999.6900       180.6100        52.1500     -9999.6900     -9999.6900     -9999.6900     -9999.6900       499.8000         8.7500
      18.40000     -9999.6900       181.3600        53.1500     -9999.6900     -9999.6900     -9999.6900     -9999.6900       464.8800         8.7300
      18.50000     -9999.6900       180.7900        55.2500     -9999.6900     -9999.6900     -9999.6900     -9999.6900       411.8800         9.0000
      18.60000     -9999.6900       179.9700        57.2300     -9999.6900     -9999.6900     -9999.6900     -9999.6900       367.4000         9.2400
      18.70000     -9999.6900       180.0300        57.4500     -9999.6900     -9999.6900     -9999.6900     -9999.6900       343.9900         9.5400
      18.80000     -9999.6900       180.3600        56.3400     -9999.6900     -9999.6900     -9999.6900     -9999.6900       348.0300         9.6600
      18.90000     -9999.6900       180.2500        56.0800        19.4900     -9999.6900     -9999.6900     -9999.6900       361.0700         9.5800
      19.00000     -9999.6900       180.9000        58.0000        19.5500     -9999.6900     -9999.6900     -9999.6900       351.0300         9.6100
      19.10000     -9999.6900       181.4800        60.3500        19.6000     -9999.6900     -9999.6900     -9999.6900       316.0800         9.6500
      19.20000     -9999.6900       180.2400        59.8500        19.6700     10000.0000     -9999.6900     -9999.6900       269.5200         9.8300
      19.30000     -9999.6900       178.8300        56.4700        19.7700     10000.0000     -9999.6900     -9999.6900       243.8500         9.9100
      19.40000     -9999.6900       178.6900        53.5200        19.8700     10000.0000     -9999.6900     -9999.6900       261.2800         9.7900
      19.50000     -9999.6900       179.5900        53.4500        20.0100     10000.0000     -9999.6900     -9999.6900       315.5100         9.5700
      19.60000     -9999.6900       180.1800        55.3200        20.1100     10000.0000     -9999.6900     -9999.6900       384.6700         9.2000
      19.70000     -9999.6900       179.6500        57.2700        20.1700     10000.0000     -9999.6900     -9999.6900       429.6400         9.0000
      19.80000     -9999.6900       179.0500        58.0200        20.2200     10000.0000     -9999.6900     -9999.6900       462.0900         8.8300
      19.90000     -9999.6900       179.5100        56.8100        20.2700     10000.0000     -9999.6900     -9999.6900       495.2000         8.7600
      20.00000     -9999.6900       180.5600        53.6100        20.2800     10000.0000     -9999.6900     -9999.6900       528.2900         8.7500
      20.10000     -9999.6900       181.6500        51.4400        20.2900     10000.0000     -9999.6900     -9999.6900       536.2300         8.7500
      20.20000     -9999.6900       182.1100        54.0500        20.2800     10000.0000     -9999.6900     -9999.6900       482.0700         8.8600
      20.30000     -9999.6900       181.6500        60.7600        20.3200     10000.0000     -9999.6900     -9999.6900       378.1200         8.9600
      20.40000     -9999.6900       180.5500        65.1800        20.3900     10000.0000     -9999.6900     -9999.6900       256.1700         9.0500
      20.50000     -9999.6900       179.4800        63.6900        20.4900     10000.0000     -9999.6900     -9999.6900       172.1700         9.1700
      20.60000     -9999.6900       178.8500        59.3000        20.5800     10000.0000     -9999.6900     -9999.6900       150.6400         9.2000
      20.70000     -9999.6900       178.6300        56.7700        20.6900     10000.0000     -9999.6900     -9999.6900       174.7600         9.2300
      20.80000     -9999.6900       178.1200        55.8700        20.7600     10000.0000     -9999.6900     -9999.6900       216.8300         9.2000
      20.90000     -9999.6900       177.7800        53.7300        20.7700     10000.0000     -9999.6900     -9999.6900       234.4800         9.0500
      21.00000     -9999.6900       178.2500        48.8400        20.7700     10000.0000     -9999.6900     -9999.6900       227.0300         8.8800
      21.10000     -9999.6900       179.3500        43.2300        20.8100     10000.0000     -9999.6900     -9999.6900       216.9400         8.6600
