~Version Information
# Data Copyright 2013 (C) geoLOGIC systems ltd.
 VERS  .     3.00 : LOG ASCII STANDARD -VERSION 3.0
 WRAP  .     NO   : ONE LINE PER DEPTH STEP
 DLM   .    SPACE : DELIMITING CHARACTER BETWEEN DATA COLUMNS
 PROD  .      geoLOGIC systems ltd.          : LAS Producer
 CREA  .      05/02/2025                     : LAS Creation date {MM/DD/YYYY}
~Well
#MNEM  .UNIT        Data                       Description of Mnemonic
#------.------ ----------------------------- : -------------------------
 STRT  .M           5.00000                  : START DEPTH
 STOP  .M        1159.90000                  : STOP DEPTH
 STEP  .M           0.10000                  : STEP DEPTH
 NULL  .           -9999.69                  : NULL VALUE
 COMP  .      KI EXPLORATION INC.            : Company
 WELL  .      KI RETLAW 15-6-13-18           : Well
 FLD   .      RETLAW                         : Field
 LOC   .      100/15-06-013-18W4/00          : Location
 PRVC  .      Alberta                        : Province
 SRVC  .      Tucker Wireline Services       : Service Company
 DATE  .      OCT 10 2009                    : Log Date
 UWI   .      100150601318W400               : Unique Well ID
 LIC   .      0412565                        : Licence Number
 LATI  .                                     : Latitude
 LONG  .                                     : Longitude
 GDAT  .                                     : Geodetic Datum
~Parameter
#MNEM  .UNIT        VALUE                      Description
#------.------ ----------------------------- : -------------------------
 RUN   .            1                        : Run number (100150601318W400_Ki_Retlaw_15-6-13-18_Final_Hires.las,100150601318W400_Ki_Retlaw_15-6-13-18_Final_Mai.las)
 GL    .M           821.809998               : Ground level elevation (100150601318W400_Ki_Retlaw_15-6-13-18_Final_Hires.las,100150601318W400_Ki_Retlaw_15-6-13-18_Final_Mai.las)
 DREF  .            KB                       : Depth reference (100150601318W400_Ki_Retlaw_15-6-13-18_Final_Hires.las,100150601318W400_Ki_Retlaw_15-6-13-18_Final_Mai.las)
 EREF  .M           826.099976               : Elevation of depth reference (100150601318W400_Ki_Retlaw_15-6-13-18_Final_Hires.las,100150601318W400_Ki_Retlaw_15-6-13-18_Final_Mai.las)
 TDL   .M           1157.0                   : Total depth, logger (100150601318W400_Ki_Retlaw_15-6-13-18_Final_Hires.las,100150601318W400_Ki_Retlaw_15-6-13-18_Final_Mai.las)
 TDD   .M           1157.0                   : Total depth, driller (100150601318W400_Ki_Retlaw_15-6-13-18_Final_Hires.las,100150601318W400_Ki_Retlaw_15-6-13-18_Final_Mai.las)
 CSGL  .M           293.0                    : Casing bottom, logger (100150601318W400_Ki_Retlaw_15-6-13-18_Final_Hires.las,100150601318W400_Ki_Retlaw_15-6-13-18_Final_Mai.las)
 CSGD  .M           293.0                    : Casing bottom, driller (100150601318W400_Ki_Retlaw_15-6-13-18_Final_Hires.las,100150601318W400_Ki_Retlaw_15-6-13-18_Final_Mai.las)
 CSGS  .mm          219.10                   : Casing size (100150601318W400_Ki_Retlaw_15-6-13-18_Final_Hires.las,100150601318W400_Ki_Retlaw_15-6-13-18_Final_Mai.las)
 CSGW  .Kg          219.10                   : Casing weight (100150601318W400_Ki_Retlaw_15-6-13-18_Final_Hires.las,100150601318W400_Ki_Retlaw_15-6-13-18_Final_Mai.las)
 BS    .mm          200.00                   : Bit size (100150601318W400_Ki_Retlaw_15-6-13-18_Final_Hires.las,100150601318W400_Ki_Retlaw_15-6-13-18_Final_Mai.las)
 MUD   .            GEL CHEM                 : Mud type (100150601318W400_Ki_Retlaw_15-6-13-18_Final_Hires.las,100150601318W400_Ki_Retlaw_15-6-13-18_Final_Mai.las)
 MUDD  .kg/m3       1230.000                 : Mud density (100150601318W400_Ki_Retlaw_15-6-13-18_Final_Hires.las,100150601318W400_Ki_Retlaw_15-6-13-18_Final_Mai.las)
 MUDV  .sec         81.000                   : Mud viscosity (100150601318W400_Ki_Retlaw_15-6-13-18_Final_Hires.las,100150601318W400_Ki_Retlaw_15-6-13-18_Final_Mai.las)
 FL    .cc          7.500                    : Fluid loss rate (100150601318W400_Ki_Retlaw_15-6-13-18_Final_Hires.las,100150601318W400_Ki_Retlaw_15-6-13-18_Final_Mai.las)
 PH    .            10.000                   : Mud pH (100150601318W400_Ki_Retlaw_15-6-13-18_Final_Hires.las,100150601318W400_Ki_Retlaw_15-6-13-18_Final_Mai.las)
 MUDS  .            FLOW LINE                : Mud source (100150601318W400_Ki_Retlaw_15-6-13-18_Final_Hires.las,100150601318W400_Ki_Retlaw_15-6-13-18_Final_Mai.las)
 RM    .OHMM        2.100                    : Resistivity of mud (100150601318W400_Ki_Retlaw_15-6-13-18_Final_Hires.las,100150601318W400_Ki_Retlaw_15-6-13-18_Final_Mai.las)
 RMT   .C           12.0                     : Temperature of mud (100150601318W400_Ki_Retlaw_15-6-13-18_Final_Hires.las,100150601318W400_Ki_Retlaw_15-6-13-18_Final_Mai.las)
 RMF   .OHMM        2.500                    : Resistivity of mud filtrate (100150601318W400_Ki_Retlaw_15-6-13-18_Final_Hires.las,100150601318W400_Ki_Retlaw_15-6-13-18_Final_Mai.las)
 RMFT  .C           12.0                     : Temperature of mud filtrate (100150601318W400_Ki_Retlaw_15-6-13-18_Final_Hires.las,100150601318W400_Ki_Retlaw_15-6-13-18_Final_Mai.las)
 RMC   .OHMM        1.900                    : Resistivity of mud cake (100150601318W400_Ki_Retlaw_15-6-13-18_Final_Hires.las,100150601318W400_Ki_Retlaw_15-6-13-18_Final_Mai.las)
 RMCT  .C           12.0                     : Temperature of mud cake (100150601318W400_Ki_Retlaw_15-6-13-18_Final_Hires.las,100150601318W400_Ki_Retlaw_15-6-13-18_Final_Mai.las)
 TMAX  .C           32.0                     : Maximum recorded temperature (100150601318W400_Ki_Retlaw_15-6-13-18_Final_Hires.las,100150601318W400_Ki_Retlaw_15-6-13-18_Final_Mai.las)
 TIMC  .DAY/HR      OCT 10 2009 @ 16:00      : Date/Time circulation stopped (100150601318W400_Ki_Retlaw_15-6-13-18_Final_Hires.las,100150601318W400_Ki_Retlaw_15-6-13-18_Final_Mai.las)
 TIMD  .DAY/HR      OCT 10 2009 @ 21:00      : Date/Time logger tagged bottom (100150601318W400_Ki_Retlaw_15-6-13-18_Final_Hires.las,100150601318W400_Ki_Retlaw_15-6-13-18_Final_Mai.las)
 UNIT  .            TRUCK 134                : Logging unit_number (100150601318W400_Ki_Retlaw_15-6-13-18_Final_Hires.las,100150601318W400_Ki_Retlaw_15-6-13-18_Final_Mai.las)
 BASE  .            MEDICINE HAT             : Home base of logging unit (100150601318W400_Ki_Retlaw_15-6-13-18_Final_Hires.las,100150601318W400_Ki_Retlaw_15-6-13-18_Final_Mai.las)
 ENG   .            M. MacNEIL               : Recording Engineer (100150601318W400_Ki_Retlaw_15-6-13-18_Final_Hires.las,100150601318W400_Ki_Retlaw_15-6-13-18_Final_Mai.las)
 WIT   .            R. BABBITT               : Witnessed by (100150601318W400_Ki_Retlaw_15-6-13-18_Final_Hires.las,100150601318W400_Ki_Retlaw_15-6-13-18_Final_Mai.las)
~Curve
#MNEM  .UNIT        API Codes                  Curve description
#----  .----     -------------               : -----------------------
 DEPT  .M                                    : 
 GRX   .GAPI     07 310 01 00                : Gamma Ray (Hires)
 DT    .US/M     60 520 32 00                : Delta Time
 GR    .GAPI     07 310 01 00                : Gamma Ray
 ILD   .OHMM     07 120 45 00                : Deep Induction Resistivity
 ILM   .OHMM     07 120 44 00                : Medium Induction Resistivity
 SFL   .OHMM     07 220 04 00                : Spherically Focused Resistivity
 SP    .MV       07 010 01 00                : Spontaneous Potential
 RHOB  .KG/M3    45 350 02 00                : Bulk Density
 PE    .B/E      45 358 00 00                : Photoelectric Cross Section
~TOPS_Definition
 TOPN.        :  Top Name     {S} 
 TOPT.M       :  Top Depth    {F} 
~TOPS_Data | TOPS_Definition
 Kcolorado            435.6  
 Kmed_hat             487.0  
 K2nd_ws              695.6  
 K2ws_ss              716.9  
 Kbfs                 795.0  
 Kbi_ss               825.3  
 Kbsl_colo            945.5  
 Kmannvl              953.0  
 Kglauc_ss            1057.7  
 Kmannvl_L            1094.9  
~Ascii        DEPT          GRX           DT           GR          ILD          ILM          SFL           SP         RHOB           PE
# ...
     242.60000     -9999.6900       178.2700        62.2100        22.1700     10000.0000         0.0900      -128.1800       419.0100         8.2800
     242.70000     -9999.6900       179.0700        60.6100        22.2500     10000.0000         0.0900      -128.0000       441.5800         8.6500
     242.80000     -9999.6900       179.0800        58.8900        22.3400     10000.0000         0.0900      -127.7500       504.3500         8.8700
     242.90000     -9999.6900       178.3500        57.3600        22.4300     10000.0000         0.0900      -127.5400       585.9500         8.9800
     243.00000     -9999.6900       178.3600        58.0500        22.4800     10000.0000         0.0900      -127.4600       659.4900         9.0200
     243.10000     -9999.6900       179.1000        61.8500        22.5700     10000.0000         0.0900      -127.7100       695.7400         9.0400
     243.20000     -9999.6900       179.2200        65.6300        22.6400     10000.0000         0.0900      -128.1400       704.8500         9.0400
     243.30000     -9999.6900       178.9600        66.7600        22.6300     10000.0000         0.0900      -128.5400       700.5100         8.9900
     243.40000     -9999.6900       179.3500        65.1400        22.6000     10000.0000         0.0900      -128.8300       686.0400         8.9600
     243.50000     -9999.6900       179.8200        61.8800        22.5900     10000.0000         0.0900      -128.7800       687.9600         8.8800
     243.60000     -9999.6900       179.9400        57.7800        22.6100     10000.0000         0.0900      -128.7200       708.8200         8.8300
     243.70000     -9999.6900       179.9500        55.1700        22.6600     10000.0000         0.0900      -128.8100       747.2800         8.8500
     243.80000     -9999.6900       179.9500        54.5900        22.7200     10000.0000         0.0900      -128.9400       781.9200         9.0400
     243.90000     -9999.6900       179.9500        56.1700        22.8000     10000.0000         0.0900      -129.3400       797.5700         9.3000
     244.00000     -9999.6900       179.9500        58.7600        22.8800     10000.0000         0.0900      -129.6200       794.7100         9.4100
     244.10000     -9999.6900       179.9500        62.0600        22.9800     10000.0000         0.0900      -129.7600       788.8100         9.2200
     244.20000     -9999.6900       179.9500        62.1800        23.0800     10000.0000         0.0900      -129.6000       789.7600         8.9800
     244.30000     -9999.6900       179.9500        57.3900        23.2300     10000.0000         0.1000      -129.0500       802.9300         8.8600
     244.40000     -9999.6900       179.9500        50.4200        23.3200     10000.0000         0.1000      -128.5400       843.5700         8.6900
     244.50000     -9999.6900       179.9500        47.1600        23.3000     10000.0000         0.1000      -128.1800       901.1600         8.5100
     244.60000     -9999.6900       179.9500        48.3300        23.2700     10000.0000         0.1000      -128.1100       955.9500         8.3300
     244.70000     -9999.6900       179.9600        51.1100        23.2400     10000.0000         0.1000      -128.2100       998.7600         8.2100
     244.80000     -9999.6900       179.9600        50.9600        23.1900     10000.0000         0.1000      -128.3100      1008.7700         8.0800
     244.90000     -9999.6900       180.0900        46.7500        23.0600     10000.0000         0.1000      -128.4900      1000.3900         7.7600
     245.00000     -9999.6900       180.5600        41.2900        22.9500     10000.0000         0.1000      -128.6000       957.6000         7.5200
     245.10000     -9999.6900       180.9900        38.4900        22.8600     10000.0000         0.1000      -128.7300       908.9800         7.3900
     245.20000     -9999.6900       180.8400        39.8700        22.7500     10000.0000         0.1000      -128.7800       864.9000         7.3800
     245.30000     -9999.6900       180.5500        43.7100        22.7000     10000.0000         0.0900      -128.8000       834.4200         7.3700
     245.40000     -9999.6900       180.1200        46.0900        22.6800     10000.0000         0.0900      -128.7000       825.2300         7.3600
     245.50000     -9999.6900       179.2800        46.0300        22.7000     10000.0000         0.0900      -128.4400       818.8200         7.5200
     245.60000     -9999.6900       178.2400        46.0700        22.7200     10000.0000         0.1000      -128.0300       823.1700         7.7500
     245.70000     -9999.6900       177.6400        47.8200        22.7300     10000.0000         0.0900      -127.5300       818.7100         8.1200
     245.80000     -9999.6900       177.5800        49.6100        22.7600     10000.0000         0.0900      -127.2400       784.0000         8.5000
     245.90000     -9999.6900       177.8000        50.7500        22.7700     10000.0000         0.0900      -127.2400       720.0600         8.8300
     246.00000     -9999.6900       178.1100        52.5100        22.7800     10000.0000         0.0900      -127.4900       654.0100         9.0500
     246.10000     -9999.6900       178.3900        55.5600        22.6900     10000.0000         0.0900      -127.8100       605.7500         9.1500
     246.20000     -9999.6900       178.6700        57.4800        22.6100     10000.0000         0.0900      -127.9900       565.8800         9.2100
     246.30000     -9999.6900       178.6900        57.5300        22.5500     10000.0000         0.0900      -128.1400       543.7800         9.2100
     246.40000     -9999.6900       178.7700        56.5500        22.4500     10000.0000         0.0900      -128.2700       545.2400         9.2400
     246.50000     -9999.6900       178.8500        54.5600        22.3800     10000.0000         0.0900      -128.5100       597.5300         9.2400
     246.60000     -9999.6900       178.3600        50.7300        22.3300     10000.0000         0.0900      -128.7700       668.5000         9.3900
     246.70000     -9999.6900       176.8200        48.3600        22.2800     10000.0000         0.0900      -128.8900       716.5800         9.5500
     246.80000     -9999.6900       176.1100        49.5300        22.2300     10000.0000         0.0900      -128.8900       715.3600         9.5100
     246.90000     -9999.6900       176.7700        52.1300        22.2400     10000.0000         0.0900      -128.6800       644.9800         9.2800
     247.00000     -9999.6900       177.2300        52.4800        22.3000     10000.0000         0.0900      -128.4000       532.6900         8.8600
     247.10000     -9999.6900       176.8500        51.7200        22.3000     10000.0000         0.0900      -128.2000       405.4600         8.4600
     247.20000     -9999.6900       176.3600        52.3100        22.3000     10000.0000         0.0900      -128.2100       288.6000         8.2700
     247.30000     -9999.6900       176.1500        54.1000        22.2700     10000.0000         0.0900      -128.4800       195.7800         8.2600
     247.40000     -9999.6900       175.7000        55.1100        22.2500     10000.0000         0.0900      -128.8600       153.8800         8.3700
     247.50000     -9999.6900       175.4600        54.0300        22.1600     10000.0000         0.0900      -129.2500       209.3200         8.5200
     247.60000     -9999.6900       175.5200        51.7700        22.0800     10000.0000         0.0900      -129.5300       355.6000         8.5200
     247.70000     -9999.6900       175.3300        48.8200        22.0200     10000.0000         0.0900      -129.7500       545.0800         8.3900
     247.80000     -9999.6900       175.0900        47.2200        22.0100     10000.0000         0.0900      -129.9700       703.3300         8.3200
     247.90000     -9999.6900       175.0300        47.8000        21.9600     10000.0000         0.0900      -130.2500       799.5500         8.2800
