~Version Information
 VERS  .     3.00 : LOG ASCII STANDARD -VERSION 3.0
 WRAP  .     NO   : ONE LINE PER DEPTH STEP
 DLM   .    SPACE : DELIMITING CHARACTER BETWEEN DATA COLUMNS
~Well Information Block
#MNEM  .UNIT        Data Type                  Information
#------.------ ----------------------------- : -------------------------
 STRT  .M          1072.900                  : 
 STOP  .M          1159.900                  : 
 STEP  .M             0.100                  : 
 NULL  .          -999.2500                  : 
 COMP  .      KI EXPLORATION INC.            : COMPANY
 WELL  .      KI RETLAW 15-6-13-18           : WELL
 FLD   .      RETLAW                         : FIELD
 LOC   .      100/15-06-013-18W4/00          : LOCATION
 PROV  .      Alberta                        : PROVINCE
 SRVC  .      Tucker Wireline Services       : SERVICE COMPANY
 DATE  .      OCT 10 2009                    : LOG DATE
 UWI   .      100150601318W400               : UNIQUE WELL ID
 LIC   .      0412565                        : LICENCE
~Curve Information Block
#MNEM  .UNIT        API CODE                   Curve Description
#------.------ ----------------------------- : -------------------------
 DEPT  .M        00 000 01 00                : Measured Depth
 DT    .US/M     60 520 32 00                : Delta Time
 GR    .GAPI     07 310 01 00                : Gamma Ray
 ILD   .OHMM     07 120 45 00                : Deep Induction Resistivity
 ILM   .OHMM     07 120 44 00                : Medium Induction Resistivity
 SFL   .OHMM     07 220 04 00                : Spherically Focused Resistivity
 SP    .MV       07 010 01 00                : Spontaneous Potential
 RHOB  .KG/M3    45 350 02 00                : Bulk Density
 PE    .B/E      45 358 00 00                : Photoelectric Cross Section
~Parameter Information Section
#MNEM  .UNIT        Value                      Description
#------.------ ----------------------------- : -------------------------
 RUN   .            1                        : Run number
 GL    .M           821.809998               : Ground level elevation
 DREF  .            KB                       : Depth reference
 EREF  .M           826.099976               : Elevation of depth reference
 TDL   .M           1157.0                   : Total depth, logger
 TDD   .M           1157.0                   : Total depth, driller
 CSGL  .M           293.0                    : Casing bottom, logger
 CSGD  .M           293.0                    : Casing bottom, driller
 CSGS  .mm          219.10                   : Casing size
 CSGW  .Kg          219.10                   : Casing weight
 BS    .mm          200.00                   : Bit size
 MUD   .            GEL CHEM                 : Mud type
 MUDD  .kg/m3       1230.000                 : Mud density
 MUDV  .sec         81.000                   : Mud viscosity
 FL    .cc          7.500                    : Fluid loss rate
 PH    .            10.000                   : Mud pH
 MUDS  .            FLOW LINE                : Mud source
 RM    .OHMM        2.100                    : Resistivity of mud
 RMT   .C           12.0                     : Temperature of mud
 RMF   .OHMM        2.500                    : Resistivity of mud filtrate
 RMFT  .C           12.0                     : Temperature of mud filtrate
 RMC   .OHMM        1.900                    : Resistivity of mud cake
 RMCT  .C           12.0                     : Temperature of mud cake
 TMAX  .C           32.0                     : Maximum recorded temperature
 TIMC  .DAY/HR      OCT 10 2009 @ 16:00      : Date/Time circulation stopped
 TIMD  .DAY/HR      OCT 10 2009 @ 21:00      : Date/Time logger tagged bottom
 UNIT  .            TRUCK 134                : Logging unit_number
 BASE  .            MEDICINE HAT             : Home base of logging unit
 ENG   .            M. MacNEIL               : Recording Engineer
 WIT   .            R. BABBITT               : Witnessed by
~Other Information Section
#Run number  1
RUN #1: GRT / CNT / LDT / CST / PIT
LOGGER'S COMMENTS:
1) CALIPERS ORIENTED IN X-Y AXIS.
2) SFL IS ENVIRONMENTALLY CORRECTED USING AVCAL. 
3) NEUTRON POROSITY IS CALIPER CORRECTED USING NCAL.
4) CALIPERS READINGS VERIFIED IN CASING.
5) MUD RESISTIVITIES RECORDED AS MEASURED.
6) CENTRALIZERS DEPLOYED ON TOP AND BOTTOM OF CST.
7) CEMENT VOLUME CALCULATED USING 139.7mm PRODUCTION CASING
DATE AND TIME ON BOTTOM: OCT 10 2009 @ 21:00
TUCKER OPERATORS:
1) L. KNAUS
THANK YOU FOR USING TUCKER WIRELINE SERVICES CANADA.
#DEPT     DT       CALN     CALD     GR       ILD      ILM      LWTKG    NPDL     NPLS     NPSS     DPDL     DPLS     DPSS     SFL      SP       TT1      TT2      TT3      TT4      DRHO     RHOB     PE       
~TOPS_Definition
 TOPN.        :  Top Name     {S} 
 TOPT.M       :  Top Depth    {F} 
~TOPS_Data | TOPS_Definition
 Kcolorado            435.6  
 Kmed_hat             487.0  
 K2nd_ws              695.6  
 K2ws_ss              716.9  
 Kbfs                 795.0  
 Kbi_ss               825.3  
 Kbsl_colo            945.5  
 Kmannvl              953.0  
 Kglauc_ss            1057.7  
 Kmannvl_L            1094.9  
~Ascii         Log         Data
# ...
      1120.900         281.81          41.97           9.33          10.42          15.73        -253.13        2322.49           1.89
      1121.000         279.15          43.10           9.52          10.81          15.82        -252.96        2332.28           1.88
      1121.100         277.24          45.29           9.77          11.09          15.72        -252.78        2340.49           1.87
      1121.200         274.39          46.68          10.11          11.26          15.49        -252.54        2347.40           1.85
      1121.300         271.98          45.47          10.51          11.39          15.20        -252.29        2352.59           1.84
      1121.400         272.27          42.34          10.93          11.54          15.02        -252.04        2355.85           1.85
      1121.500         274.11          40.60          11.34          11.79          15.24        -251.73        2361.02           1.88
      1121.600         274.53          42.35          11.69          12.17          16.01        -251.42        2369.52           1.93
      1121.700         271.88          46.24          11.99          12.73          17.33        -251.16        2382.81           1.99
      1121.800         268.55          49.10          12.21          13.45          19.04        -251.10        2399.70           2.05
      1121.900         266.58          49.90          12.40          14.31          20.95        -251.27        2414.87           2.11
      1122.000         264.74          49.77          12.61          15.23          22.84        -251.59        2425.71           2.15
      1122.100         261.05          51.19          12.86          16.05          24.31        -251.93        2432.93           2.18
      1122.200         256.79          54.08          13.17          16.64          24.89        -252.17        2431.05           2.20
      1122.300         255.82          56.20          13.52          16.88          24.41        -252.34        2422.06           2.20
      1122.400         257.91          55.12          13.86          16.76          23.19        -252.50        2411.37           2.16
      1122.500         259.34          51.20          14.12          16.40          21.76        -252.64        2402.50           2.10
      1122.600         260.60          46.53          14.20          15.94          20.69        -252.75        2400.76           2.03
      1122.700         264.24          43.47          14.04          15.49          20.33        -252.79        2400.47           1.99
      1122.800         268.53          42.38          13.63          15.07          20.70        -252.78        2399.96           1.97
      1122.900         270.24          42.90          13.04          14.65          21.51        -252.73        2401.90           1.97
      1123.000         268.82          43.61          12.39          14.15          22.17        -252.68        2403.61           1.99
      1123.100         265.80          44.27          11.80          13.49          22.08        -252.66        2407.92           2.03
      1123.200         263.21          44.84          11.31          12.70          20.94        -252.71        2412.13           2.08
      1123.300         260.77          45.22          10.95          11.84          18.91        -252.84        2412.46           2.11
      1123.400         258.98          44.24          10.69          11.04          16.55        -253.05        2405.42           2.11
      1123.500         260.67          41.66          10.48          10.38          14.55        -253.31        2387.15           2.10
      1123.600         266.28          38.29          10.29           9.91          13.33        -253.55        2366.43           2.08
      1123.700         272.13          36.30          10.12           9.63          12.95        -253.70        2352.02           2.01
      1123.800         275.23          36.55           9.94           9.52          13.17        -253.75        2345.69           1.94
      1123.900         276.40          38.38           9.75           9.53          13.64        -253.73        2348.34           1.87
      1124.000         276.16          40.06           9.61           9.63          14.08        -253.68        2352.51           1.83
      1124.100         273.35          40.34           9.51           9.74          14.30        -253.65        2357.04           1.84
      1124.200         269.69          39.23           9.48           9.85          14.27        -253.62        2359.39           1.87
      1124.300         267.99          37.94           9.48           9.93          14.12        -253.64        2355.95           1.91
      1124.400         267.13          37.26           9.51           9.98          13.97        -253.68        2350.26           1.95
      1124.500         266.45          36.73           9.53           9.99          13.84        -253.77        2342.62           1.98
      1124.600         267.34          35.82           9.55           9.96          13.75        -253.89        2338.95           1.97
      1124.700         269.89          34.53           9.54           9.89          13.73        -254.02        2341.76           1.95
      1124.800         272.31          33.80           9.51           9.78          13.78        -254.17        2346.64           1.93
      1124.900         273.58          34.47           9.49           9.62          13.76        -254.30        2353.33           1.92
      1125.000         274.58          36.46           9.48           9.45          13.48        -254.44        2356.93           1.91
      1125.100         275.57          38.98           9.47           9.29          12.95        -254.60        2359.91           1.89
      1125.200         276.05          42.02           9.48           9.20          12.37        -254.80        2363.45           1.89
      1125.300         277.41          45.71           9.48           9.21          12.07        -255.04        2367.68           1.90
      1125.400         279.79          50.12           9.46           9.32          12.27        -255.32        2375.41           1.92
      1125.500         280.25          54.47           9.43           9.53          12.92        -255.66        2387.46           1.95
      1125.600         277.14          56.51           9.39           9.79          13.76        -256.04        2407.01           1.98
      1125.700         272.33          54.16           9.36          10.03          14.42        -256.46        2429.54           2.01
      1125.800         268.26          48.80           9.37          10.20          14.67        -256.85        2448.54           2.07
      1125.900         265.80          44.58           9.44          10.28          14.56        -257.11        2460.83           2.11
      1126.000         263.98          44.97           9.56          10.26          14.27        -257.18        2461.25           2.13
      1126.100         263.12          49.41           9.72          10.20          14.03        -257.05        2455.57           2.12
      1126.200         265.20          53.66           9.88          10.16          13.96        -256.78        2445.71           2.10
      1126.300         269.85          54.88           9.99          10.18          14.13        -256.45        2433.63           2.07
      1126.400         273.30          53.14          10.07          10.28          14.50        -256.14        2424.03           2.04
      1126.500         273.79          49.96          10.10          10.46          15.03        -255.86        2415.41           2.01
      1126.600         273.64          47.00          10.13          10.70          15.62        -255.60        2408.91           2.01
      1126.700         274.41          45.73          10.15          10.93          16.24        -255.35        2401.30           2.01
      1126.800         274.71          45.80          10.19          11.10          16.76        -255.12        2389.45           2.02
