~Version Information
 VERS  .     3.00 : LOG ASCII STANDARD -VERSION 3.0
 WRAP  .     NO   : ONE LINE PER DEPTH STEP
 DLM   .    SPACE : DELIMITING CHARACTER BETWEEN DATA COLUMNS
~Well Information Block
#MNEM  .UNIT        Data Type                  Information
#------.------ ----------------------------- : -------------------------
 STRT  .M          1072.900                  : 
 STOP  .M          1159.900                  : 
 STEP  .M             0.100                  : 
 NULL  .          -999.2500                  : 
 COMP  .      KI EXPLORATION INC.            : COMPANY
 WELL  .      KI RETLAW 15-6-13-18           : WELL
 FLD   .      RETLAW                         : FIELD
 LOC   .      100/15-06-013-18W4/00          : LOCATION
 PROV  .      Alberta                        : PROVINCE
 SRVC  .      Tucker Wireline Services       : SERVICE COMPANY
 DATE  .      OCT 10 2009                    : LOG DATE
 UWI   .      100150601318W400               : UNIQUE WELL ID
 LIC   .      0412565                        : LICENCE
~Curve Information Block
#MNEM  .UNIT        API CODE                   Curve Description
#------.------ ----------------------------- : -------------------------
 DEPT  .M        00 000 01 00                : Measured Depth
 DT    .US/M     60 520 32 00                : Delta Time
 GR    .GAPI     07 310 01 00                : Gamma Ray
 ILD   .OHMM     07 120 45 00                : Deep Induction Resistivity
 ILM   .OHMM     07 120 44 00                : Medium Induction Resistivity
 SFL   .OHMM     07 220 04 00                : Spherically Focused Resistivity
 SP    .MV       07 010 01 00                : Spontaneous Potential
 RHOB  .KG/M3    45 350 02 00                : Bulk Density
 PE    .B/E      45 358 00 00                : Photoelectric Cross Section
~Parameter Information Section
#MNEM  .UNIT        Value                      Description
#------.------ ----------------------------- : -------------------------
 RUN   .            1                        : Run number
 GL    .M           821.809998               : Ground level elevation
 DREF  .            KB                       : Depth reference
 EREF  .M           826.099976               : Elevation of depth reference
 TDL   .M           1157.0                   : Total depth, logger
 TDD   .M           1157.0                   : Total depth, driller
 CSGL  .M           293.0                    : Casing bottom, logger
 CSGD  .M           293.0                    : Casing bottom, driller
 CSGS  .mm          219.10                   : Casing size
 CSGW  .Kg          219.10                   : Casing weight
 BS    .mm          200.00                   : Bit size
 MUD   .            GEL CHEM                 : Mud type
 MUDD  .kg/m3       1230.000                 : Mud density
 MUDV  .sec         81.000                   : Mud viscosity
 FL    .cc          7.500                    : Fluid loss rate
 PH    .            10.000                   : Mud pH
 MUDS  .            FLOW LINE                : Mud source
 RM    .OHMM        2.100                    : Resistivity of mud
 RMT   .C           12.0                     : Temperature of mud
 RMF   .OHMM        2.500                    : Resistivity of mud filtrate
 RMFT  .C           12.0                     : Temperature of mud filtrate
 RMC   .OHMM        1.900                    : Resistivity of mud cake
 RMCT  .C           12.0                     : Temperature of mud cake
 TMAX  .C           32.0                     : Maximum recorded temperature
 TIMC  .DAY/HR      OCT 10 2009 @ 16:00      : Date/Time circulation stopped
 TIMD  .DAY/HR      OCT 10 2009 @ 21:00      : Date/Time logger tagged bottom
 UNIT  .            TRUCK 134                : Logging unit_number
 BASE  .            MEDICINE HAT             : Home base of logging unit
 ENG   .            M. MacNEIL               : Recording Engineer
 WIT   .            R. BABBITT               : Witnessed by
~Other Information Section
#Run number  1
RUN #1: GRT / CNT / LDT / CST / PIT
LOGGER'S COMMENTS:
1) CALIPERS ORIENTED IN X-Y AXIS.
2) SFL IS ENVIRONMENTALLY CORRECTED USING AVCAL. 
3) NEUTRON POROSITY IS CALIPER CORRECTED USING NCAL.
4) CALIPERS READINGS VERIFIED IN CASING.
5) MUD RESISTIVITIES RECORDED AS MEASURED.
6) CENTRALIZERS DEPLOYED ON TOP AND BOTTOM OF CST.
7) CEMENT VOLUME CALCULATED USING 139.7mm PRODUCTION CASING
DATE AND TIME ON BOTTOM: OCT 10 2009 @ 21:00
TUCKER OPERATORS:
1) L. KNAUS
THANK YOU FOR USING TUCKER WIRELINE SERVICES CANADA.
#DEPT     DT       CALN     CALD     GR       ILD      ILM      LWTKG    NPDL     NPLS     NPSS     DPDL     DPLS     DPSS     SFL      SP       TT1      TT2      TT3      TT4      DRHO     RHOB     PE       
~TOPS_Definition
 TOPN.        :  Top Name     {S} 
 TOPT.M       :  Top Depth    {F} 
~TOPS_Data | TOPS_Definition
 Kcolorado            435.6  
 Kmed_hat             487.0  
 K2nd_ws              695.6  
 K2ws_ss              716.9  
 Kbfs                 795.0  
 Kbi_ss               825.3  
 Kbsl_colo            945.5  
 Kmannvl              953.0  
 Kglauc_ss            1057.7  
 Kmannvl_L            1094.9  
~Ascii         Log         Data
# ...
      1108.900         232.72         102.49          17.98          18.29          25.81        -209.58        2608.85           2.81
      1109.000         231.23          98.07          16.70          16.99          24.85        -209.60        2611.99           2.83
      1109.100         229.95          89.83          15.59          15.77          22.89        -209.63        2607.54           2.84
      1109.200         232.18          84.59          14.72          14.65          20.18        -209.56        2597.29           2.86
      1109.300         237.81          85.19          14.06          13.69          17.55        -209.36        2591.51           2.89
      1109.400         244.47          89.09          13.49          12.90          15.51        -209.13        2597.52           2.95
      1109.500         250.50          92.11          12.98          12.29          14.14        -208.97        2612.27           3.01
      1109.600         256.32          93.33          12.53          11.83          13.28        -208.93        2624.71           3.03
      1109.700         262.19          93.45          12.17          11.51          12.76        -208.96        2619.40           2.99
      1109.800         268.78          92.89          11.87          11.29          12.54        -209.02        2598.36           2.91
      1109.900         274.42          92.00          11.69          11.16          12.45        -209.07        2571.83           2.83
      1110.000         276.96          92.12          11.61          11.10          12.41        -209.11        2551.03           2.77
      1110.100         279.13          92.42          11.61          11.13          12.36        -209.12        2545.29           2.73
      1110.200         281.68          92.71          11.68          11.24          12.38        -208.99        2553.93           2.71
      1110.300         283.08          94.26          11.77          11.44          12.62        -208.86        2570.33           2.70
      1110.400         283.42          98.14          11.89          11.75          13.14        -208.80        2583.64           2.74
      1110.500         280.33         100.83          12.03          12.12          13.89        -208.89        2587.53           2.80
      1110.600         272.65          99.28          12.15          12.52          14.67        -209.12        2587.16           2.85
      1110.700         267.30          95.26          12.25          12.87          15.28        -209.37        2588.22           2.83
      1110.800         265.11          94.15          12.37          13.14          15.64        -209.64        2590.06           2.77
      1110.900         262.09          97.96          12.52          13.32          15.75        -209.90        2592.05           2.71
      1111.000         259.28         104.68          12.73          13.42          15.68        -210.17        2590.43           2.72
      1111.100         257.91         112.10          13.03          13.51          15.48        -210.45        2590.13           2.76
      1111.200         257.84         118.48          13.37          13.66          15.30        -210.76        2593.77           2.78
      1111.300         259.50         120.31          13.75          13.95          15.26        -211.18        2601.81           2.83
      1111.400         262.30         115.19          14.16          14.43          15.53        -211.79        2616.44           2.85
      1111.500         264.38         105.64          14.59          15.15          16.36        -212.69        2630.94           2.89
      1111.600         264.40          97.81          15.00          16.14          17.90        -213.91        2640.60           2.97
      1111.700         262.23          94.81          15.39          17.36          20.27        -215.59        2633.89           3.05
      1111.800         258.18          93.47          15.72          18.71          23.39        -217.76        2606.34           3.13
      1111.900         253.96          89.44          15.93          20.00          26.70        -220.33        2568.84           3.08
      1112.000         250.76          80.52          16.07          20.88          29.39        -222.97        2534.28           2.92
      1112.100         247.49          68.92          16.10          21.15          30.36        -225.15        2514.40           2.73
      1112.200         244.56          59.31          16.01          20.71          29.15        -226.79        2505.51           2.53
      1112.300         243.14          55.29          15.82          19.70          26.45        -228.05        2505.50           2.40
      1112.400         242.94          56.19          15.48          18.38          23.34        -229.42        2506.65           2.33
      1112.500         243.20          58.78          15.07          17.01          20.85        -231.45        2506.09           2.30
      1112.600         244.90          59.37          14.59          15.75          19.18        -234.37        2497.50           2.29
      1112.700         249.39          56.62          14.04          14.68          18.14        -237.93        2474.84           2.24
      1112.800         256.30          51.75          13.49          13.80          17.50        -241.30        2444.79           2.16
      1112.900         262.94          47.28          12.97          13.08          17.08        -243.96        2407.56           2.09
      1113.000         268.05          44.46          12.45          12.52          16.77        -245.92        2373.30           2.02
      1113.100         272.96          42.56          11.94          12.07          16.48        -247.32        2344.76           1.99
      1113.200         278.55          41.28          11.47          11.71          16.14        -248.45        2324.13           1.97
      1113.300         283.10          41.25          10.99          11.39          15.76        -249.35        2312.84           1.95
      1113.400         285.44          42.83          10.52          11.07          15.36        -250.06        2305.84           1.96
      1113.500         285.76          45.37          10.07          10.68          14.95        -250.56        2307.49           1.96
      1113.600         284.62          48.11           9.62          10.20          14.41        -250.77        2316.06           1.96
      1113.700         284.13          50.55           9.20           9.60          13.62        -250.97        2330.98           1.95
      1113.800         285.57          51.16           8.82           8.94          12.61        -251.33        2340.18           1.97
      1113.900         286.88          48.84           8.48           8.28          11.54        -251.90        2332.98           1.99
      1114.000         287.33          44.39           8.17           7.68          10.63        -252.53        2316.10           1.98
      1114.100         288.13          39.49           7.86           7.18           9.95        -253.05        2295.64           1.95
      1114.200         290.03          35.85           7.51           6.79           9.49        -253.50        2282.27           1.89
      1114.300         292.10          33.92           7.16           6.48           9.17        -253.81        2278.28           1.85
      1114.400         293.21          33.24           6.83           6.25           8.93        -254.01        2280.27           1.84
      1114.500         293.86          33.17           6.53           6.07           8.70        -254.16        2287.02           1.84
      1114.600         295.17          33.33           6.26           5.92           8.44        -254.26        2290.55           1.86
      1114.700         297.38          33.82           6.07           5.79           8.19        -254.37        2288.66           1.87
      1114.800         299.65          34.68           5.95           5.67           7.95        -254.47        2285.15           1.87
