~Version Information
 VERS  .     3.00 : LOG ASCII STANDARD -VERSION 3.0
 WRAP  .     NO   : ONE LINE PER DEPTH STEP
 DLM   .    SPACE : DELIMITING CHARACTER BETWEEN DATA COLUMNS
~Well Information Block
#MNEM  .UNIT        Data Type                  Information
#------.------ ----------------------------- : -------------------------
 STRT  .M          1072.900                  : 
 STOP  .M          1159.900                  : 
 STEP  .M             0.100                  : 
 NULL  .          -999.2500                  : 
 COMP  .      KI EXPLORATION INC.            : COMPANY
 WELL  .      KI RETLAW 15-6-13-18           : WELL
 FLD   .      RETLAW                         : FIELD
 LOC   .      100/15-06-013-18W4/00          : LOCATION
 PROV  .      Alberta                        : PROVINCE
 SRVC  .      Tucker Wireline Services       : SERVICE COMPANY
 DATE  .      OCT 10 2009                    : LOG DATE
 UWI   .      100150601318W400               : UNIQUE WELL ID
 LIC   .      0412565                        : LICENCE
~Curve Information Block
#MNEM  .UNIT        API CODE                   Curve Description
#------.------ ----------------------------- : -------------------------
 DEPT  .M        00 000 01 00                : Measured Depth
 DT    .US/M     60 520 32 00                : Delta Time
 GR    .GAPI     07 310 01 00                : Gamma Ray
 ILD   .OHMM     07 120 45 00                : Deep Induction Resistivity
 ILM   .OHMM     07 120 44 00                : Medium Induction Resistivity
 SFL   .OHMM     07 220 04 00                : Spherically Focused Resistivity
 SP    .MV       07 010 01 00                : Spontaneous Potential
 RHOB  .KG/M3    45 350 02 00                : Bulk Density
 PE    .B/E      45 358 00 00                : Photoelectric Cross Section
~Parameter Information Section
#MNEM  .UNIT        Value                      Description
#------.------ ----------------------------- : -------------------------
 RUN   .            1                        : Run number
 GL    .M           821.809998               : Ground level elevation
 DREF  .            KB                       : Depth reference
 EREF  .M           826.099976               : Elevation of depth reference
 TDL   .M           1157.0                   : Total depth, logger
 TDD   .M           1157.0                   : Total depth, driller
 CSGL  .M           293.0                    : Casing bottom, logger
 CSGD  .M           293.0                    : Casing bottom, driller
 CSGS  .mm          219.10                   : Casing size
 CSGW  .Kg          219.10                   : Casing weight
 BS    .mm          200.00                   : Bit size
 MUD   .            GEL CHEM                 : Mud type
 MUDD  .kg/m3       1230.000                 : Mud density
 MUDV  .sec         81.000                   : Mud viscosity
 FL    .cc          7.500                    : Fluid loss rate
 PH    .            10.000                   : Mud pH
 MUDS  .            FLOW LINE                : Mud source
 RM    .OHMM        2.100                    : Resistivity of mud
 RMT   .C           12.0                     : Temperature of mud
 RMF   .OHMM        2.500                    : Resistivity of mud filtrate
 RMFT  .C           12.0                     : Temperature of mud filtrate
 RMC   .OHMM        1.900                    : Resistivity of mud cake
 RMCT  .C           12.0                     : Temperature of mud cake
 TMAX  .C           32.0                     : Maximum recorded temperature
 TIMC  .DAY/HR      OCT 10 2009 @ 16:00      : Date/Time circulation stopped
 TIMD  .DAY/HR      OCT 10 2009 @ 21:00      : Date/Time logger tagged bottom
 UNIT  .            TRUCK 134                : Logging unit_number
 BASE  .            MEDICINE HAT             : Home base of logging unit
 ENG   .            M. MacNEIL               : Recording Engineer
 WIT   .            R. BABBITT               : Witnessed by
~Other Information Section
#Run number  1
RUN #1: GRT / CNT / LDT / CST / PIT
LOGGER'S COMMENTS:
1) CALIPERS ORIENTED IN X-Y AXIS.
2) SFL IS ENVIRONMENTALLY CORRECTED USING AVCAL. 
3) NEUTRON POROSITY IS CALIPER CORRECTED USING NCAL.
4) CALIPERS READINGS VERIFIED IN CASING.
5) MUD RESISTIVITIES RECORDED AS MEASURED.
6) CENTRALIZERS DEPLOYED ON TOP AND BOTTOM OF CST.
7) CEMENT VOLUME CALCULATED USING 139.7mm PRODUCTION CASING
DATE AND TIME ON BOTTOM: OCT 10 2009 @ 21:00
TUCKER OPERATORS:
1) L. KNAUS
THANK YOU FOR USING TUCKER WIRELINE SERVICES CANADA.
#DEPT     DT       CALN     CALD     GR       ILD      ILM      LWTKG    NPDL     NPLS     NPSS     DPDL     DPLS     DPSS     SFL      SP       TT1      TT2      TT3      TT4      DRHO     RHOB     PE       
~TOPS_Definition
 TOPN.        :  Top Name     {S} 
 TOPT.M       :  Top Depth    {F} 
~TOPS_Data | TOPS_Definition
 Kcolorado            435.6  
 Kmed_hat             487.0  
 K2nd_ws              695.6  
 K2ws_ss              716.9  
 Kbfs                 795.0  
 Kbi_ss               825.3  
 Kbsl_colo            945.5  
 Kmannvl              953.0  
 Kglauc_ss            1057.7  
 Kmannvl_L            1094.9  
~Ascii         Log         Data
# ...
      1084.900         253.46         101.07        -999.25        -999.25        -999.25        -999.25        2565.87           2.55
      1085.000         252.22          95.46        -999.25        -999.25        -999.25        -999.25        2556.04           2.56
      1085.100         251.63          89.33        -999.25        -999.25        -999.25        -999.25        2543.76           2.49
      1085.200         253.55          83.96        -999.25        -999.25        -999.25        -999.25        2532.01           2.40
      1085.300         256.25          80.83        -999.25        -999.25        -999.25        -999.25        2525.59           2.32
      1085.400         256.71          80.17        -999.25        -999.25        -999.25        -999.25        2525.66           2.28
      1085.500         255.17          81.31        -999.25        -999.25        -999.25        -999.25        2531.56           2.28
      1085.600         253.66          82.69        -999.25        -999.25        -999.25        -999.25        2546.24           2.32
      1085.700         253.37          83.59        -999.25        -999.25        -999.25        -999.25        2568.40           2.41
      1085.800         253.19          83.04        -999.25        -999.25        -999.25        -999.25        2597.89           2.59
      1085.900         250.64          81.39        -999.25        -999.25        -999.25        -999.25        2631.34           2.88
      1086.000         245.55          79.45        -999.25        -999.25        -999.25        -999.25        2656.56           3.25
      1086.100         240.22          79.10        -999.25        -999.25        -999.25        -999.25        2669.02           3.66
      1086.200         235.21          79.86        -999.25        -999.25        -999.25        -999.25        2665.76           3.89
      1086.300         228.70          80.48        -999.25        -999.25        -999.25        -999.25        2652.41           3.90
      1086.400         221.50          79.58        -999.25        -999.25        -999.25        -999.25        2637.86           3.74
      1086.500         217.09          79.18        -999.25        -999.25        -999.25        -999.25        2622.28           3.48
      1086.600         216.30          81.39        -999.25        -999.25        -999.25        -999.25        2612.67           3.32
      1086.700         217.71          85.16        -999.25        -999.25        -999.25        -999.25        2605.45           3.22
      1086.800         219.61          86.62          25.27        -999.25        -999.25        -999.25        2597.60           3.16
      1086.900         221.30          84.85          24.54        -999.25        -999.25        -999.25        2587.54           3.13
      1087.000         223.20          82.43          23.56        -999.25        -999.25        -999.25        2576.47           3.06
      1087.100         226.51          81.49          22.32          22.06        -999.25        -999.25        2567.36           3.03
      1087.200         230.72          82.45          20.92          21.02        -999.25        -999.25        2564.44           3.00
      1087.300         233.91          84.52          19.49          19.85        -999.25        -999.25        2565.72           3.01
      1087.400         236.10          86.76          18.18          18.47        -999.25        -999.25        2569.49           3.05
      1087.500         238.39          88.40          17.11          16.92        -999.25        -999.25        2578.53           3.07
      1087.600         240.40          90.48          16.26          15.37        -999.25        -999.25        2588.50           3.06
      1087.700         242.62          92.37          15.61          14.02        -999.25        -999.25        2606.11           3.03
      1087.800         245.14          92.55          15.15          13.11        -999.25        -999.25        2623.17           3.01
      1087.900         247.11          91.24          15.08          12.78        -999.25        -999.25        2631.82           3.03
      1088.000         248.24          91.02          14.85          12.97        -999.25        -999.25        2630.10           3.07
      1088.100         249.85          92.98          14.77          13.53        -999.25        -999.25        2610.17           3.05
      1088.200         252.13          96.32          14.83          14.25        -999.25        -999.25        2588.48           2.97
      1088.300         252.78          99.81          15.06          15.03        -999.25        -999.25        2568.74           2.82
      1088.400         252.90         103.47          15.49          15.79        -999.25        -999.25        2558.55           2.70
      1088.500         254.50         106.15          16.10          16.56        -999.25        -999.25        2558.85           2.61
      1088.600         257.22         105.16          16.87          17.39        -999.25        -999.25        2558.32           2.52
      1088.700         258.43          99.46          17.83          18.38        -999.25        -999.25        2556.27           2.43
      1088.800         256.38          92.53          18.99          19.59        -999.25        -999.25        2550.81           2.34
      1088.900         252.35          89.01          20.35          21.10        -999.25        -999.25        2546.29           2.28
      1089.000         249.09          88.69          21.92          22.98        -999.25        -999.25        2549.20           2.27
      1089.100         246.15          88.31          23.78          25.35        -999.25        -999.25        2558.02           2.33
      1089.200         242.20          85.38          25.76          28.26        -999.25        -999.25        2569.03           2.46
      1089.300         238.25          79.66          27.95          31.80        -999.25        -999.25        2575.28           2.71
      1089.400         235.44          71.79          30.34          36.00          50.64        -999.25        2571.52           2.99
      1089.500         233.78          62.65          32.55          40.90          55.10        -999.25        2562.06           3.20
      1089.600         234.18          53.74          34.43          46.43          63.05        -999.25        2558.13           3.30
      1089.700         239.74          47.76          35.76          52.02          75.24        -999.25        2547.70           3.25
      1089.800         250.17          46.12          36.40          56.37          90.25        -999.25        2524.68           3.10
      1089.900         259.62          48.20          36.25          57.61         102.93        -999.25        2491.48           2.88
      1090.000         263.54          51.60          35.90          54.78         108.49        -999.25        2461.77           2.66
      1090.100         262.42          55.02          35.57          49.06         102.49        -999.25        2453.85           2.51
      1090.200         258.76          58.92          35.27          42.76          86.20        -999.25        2464.10           2.45
      1090.300         254.85          62.97          34.82          37.53          67.52        -225.48        2486.82           2.42
      1090.400         251.92          65.82          33.90          33.96          52.21        -224.30        2513.07           2.42
      1090.500         249.61          66.22          32.56          31.96          43.62        -222.99        2530.75           2.42
      1090.600         247.48          64.47          30.93          31.24          41.91        -221.72        2550.49           2.46
      1090.700         245.27          62.33          29.04          31.31          44.86        -220.68        2568.24           2.60
      1090.800         240.98          61.32          27.17          31.59          50.36        -219.80        2585.97           2.76
