~Version Information
 VERS  .     3.00 : LOG ASCII STANDARD -VERSION 3.0
 WRAP  .     NO   : ONE LINE PER DEPTH STEP
 DLM   .    SPACE : DELIMITING CHARACTER BETWEEN DATA COLUMNS
~Well Information Block
#MNEM  .UNIT        Data Type                  Information
#------.------ ----------------------------- : -------------------------
 STRT  .M          1072.900                  : 
 STOP  .M          1159.900                  : 
 STEP  .M             0.100                  : 
 NULL  .          -999.2500                  : 
 COMP  .      KI EXPLORATION INC.            : COMPANY
 WELL  .      KI RETLAW 15-6-13-18           : WELL
 FLD   .      RETLAW                         : FIELD
 LOC   .      100/15-06-013-18W4/00          : LOCATION
 PROV  .      Alberta                        : PROVINCE
 SRVC  .      Tucker Wireline Services       : SERVICE COMPANY
 DATE  .      OCT 10 2009                    : LOG DATE
 UWI   .      100150601318W400               : UNIQUE WELL ID
 LIC   .      0412565                        : LICENCE
~Curve Information Block
#MNEM  .UNIT        API CODE                   Curve Description
#------.------ ----------------------------- : -------------------------
 DEPT  .M        00 000 01 00                : Measured Depth
 DT    .US/M     60 520 32 00                : Delta Time
 GR    .GAPI     07 310 01 00                : Gamma Ray
 ILD   .OHMM     07 120 45 00                : Deep Induction Resistivity
 ILM   .OHMM     07 120 44 00                : Medium Induction Resistivity
 SFL   .OHMM     07 220 04 00                : Spherically Focused Resistivity
 SP    .MV       07 010 01 00                : Spontaneous Potential
 RHOB  .KG/M3    45 350 02 00                : Bulk Density
 PE    .B/E      45 358 00 00                : Photoelectric Cross Section
~Parameter Information Section
#MNEM  .UNIT        Value                      Description
#------.------ ----------------------------- : -------------------------
 RUN   .            1                        : Run number
 GL    .M           821.809998               : Ground level elevation
 DREF  .            KB                       : Depth reference
 EREF  .M           826.099976               : Elevation of depth reference
 TDL   .M           1157.0                   : Total depth, logger
 TDD   .M           1157.0                   : Total depth, driller
 CSGL  .M           293.0                    : Casing bottom, logger
 CSGD  .M           293.0                    : Casing bottom, driller
 CSGS  .mm          219.10                   : Casing size
 CSGW  .Kg          219.10                   : Casing weight
 BS    .mm          200.00                   : Bit size
 MUD   .            GEL CHEM                 : Mud type
 MUDD  .kg/m3       1230.000                 : Mud density
 MUDV  .sec         81.000                   : Mud viscosity
 FL    .cc          7.500                    : Fluid loss rate
 PH    .            10.000                   : Mud pH
 MUDS  .            FLOW LINE                : Mud source
 RM    .OHMM        2.100                    : Resistivity of mud
 RMT   .C           12.0                     : Temperature of mud
 RMF   .OHMM        2.500                    : Resistivity of mud filtrate
 RMFT  .C           12.0                     : Temperature of mud filtrate
 RMC   .OHMM        1.900                    : Resistivity of mud cake
 RMCT  .C           12.0                     : Temperature of mud cake
 TMAX  .C           32.0                     : Maximum recorded temperature
 TIMC  .DAY/HR      OCT 10 2009 @ 16:00      : Date/Time circulation stopped
 TIMD  .DAY/HR      OCT 10 2009 @ 21:00      : Date/Time logger tagged bottom
 UNIT  .            TRUCK 134                : Logging unit_number
 BASE  .            MEDICINE HAT             : Home base of logging unit
 ENG   .            M. MacNEIL               : Recording Engineer
 WIT   .            R. BABBITT               : Witnessed by
~Other Information Section
#Run number  1
RUN #1: GRT / CNT / LDT / CST / PIT
LOGGER'S COMMENTS:
1) CALIPERS ORIENTED IN X-Y AXIS.
2) SFL IS ENVIRONMENTALLY CORRECTED USING AVCAL. 
3) NEUTRON POROSITY IS CALIPER CORRECTED USING NCAL.
4) CALIPERS READINGS VERIFIED IN CASING.
5) MUD RESISTIVITIES RECORDED AS MEASURED.
6) CENTRALIZERS DEPLOYED ON TOP AND BOTTOM OF CST.
7) CEMENT VOLUME CALCULATED USING 139.7mm PRODUCTION CASING
DATE AND TIME ON BOTTOM: OCT 10 2009 @ 21:00
TUCKER OPERATORS:
1) L. KNAUS
THANK YOU FOR USING TUCKER WIRELINE SERVICES CANADA.
#DEPT     DT       CALN     CALD     GR       ILD      ILM      LWTKG    NPDL     NPLS     NPSS     DPDL     DPLS     DPSS     SFL      SP       TT1      TT2      TT3      TT4      DRHO     RHOB     PE       
~TOPS_Definition
 TOPN.        :  Top Name     {S} 
 TOPT.M       :  Top Depth    {F} 
~TOPS_Data | TOPS_Definition
 Kcolorado            435.6  
 Kmed_hat             487.0  
 K2nd_ws              695.6  
 K2ws_ss              716.9  
 Kbfs                 795.0  
 Kbi_ss               825.3  
 Kbsl_colo            945.5  
 Kmannvl              953.0  
 Kglauc_ss            1057.7  
 Kmannvl_L            1094.9  
~Ascii         Log         Data
# ...
      1132.900         220.84          23.99          15.06          15.68          20.54        -257.16        2387.59           2.50
      1133.000         225.52          24.13          15.05          14.65          19.08        -257.03        2441.46           2.60
      1133.100         226.13          25.09          15.08          13.92          17.63        -256.96        2471.37           2.72
      1133.200         223.66          26.44          15.13          13.63          17.12        -256.96        2480.09           2.77
      1133.300         221.84          27.67          15.18          13.88          18.20        -257.05        2489.75           2.82
      1133.400         221.81          27.90          15.23          14.65          21.14        -257.20        2493.71           2.85
      1133.500         220.76          27.01          15.27          15.91          25.74        -257.44        2511.36           2.86
      1133.600         218.22          25.72          15.39          17.60          31.39        -257.72        2540.37           2.86
      1133.700         215.60          24.82          15.69          19.50          36.64        -258.02        2573.11           2.82
      1133.800         212.85          24.21          16.21          21.25          40.02        -258.25        2596.37           2.79
      1133.900         209.81          24.54          16.95          22.54          41.22        -258.34        2599.56           2.75
      1134.000         205.41          25.82          17.86          23.20          41.15        -258.36        2595.19           2.73
      1134.100         200.10          27.05          18.88          23.34          40.93        -258.35        2586.55           2.71
      1134.200         198.13          26.96          19.82          23.24          41.39        -258.35        2579.48           2.71
      1134.300         200.99          25.64          20.43          23.19          42.95        -258.36        2567.69           2.76
      1134.400         204.44          24.35          20.69          23.36          45.90        -258.35        2551.96           2.83
      1134.500         206.46          23.71          20.61          23.76          50.08        -258.35        2542.36           2.91
      1134.600         207.06          23.51          20.33          24.29          54.20        -258.35        2542.42           2.96
      1134.700         205.81          23.47          19.91          24.74          56.45        -258.33        2554.92           2.96
      1134.800         203.35          23.84          19.53          24.91          55.43        -258.32        2568.07           2.93
      1134.900         200.67          25.29          19.34          24.73          51.32        -258.33        2575.08           2.87
      1135.000         197.28          27.98          19.30          24.25          45.87        -258.36        2580.77           2.84
      1135.100         194.30          30.68          19.33          23.66          40.90        -258.39        2591.88           2.85
      1135.200         193.85          31.95          19.38          23.16          37.90        -258.35        2609.09           2.88
      1135.300         195.52          31.00          19.37          22.87          37.31        -258.28        2625.45           2.86
      1135.400         196.74          29.34          19.27          22.79          38.58        -258.20        2629.90           2.79
      1135.500         196.57          29.03          19.11          22.97          40.23        -258.10        2627.87           2.70
      1135.600         197.36          30.04          18.94          23.33          40.43        -258.00        2619.69           2.63
      1135.700         200.45          30.72          18.75          23.72          38.71        -257.91        2608.52           2.58
      1135.800         203.12          30.59          18.61          24.08          36.16        -257.81        2599.89           2.55
      1135.900         202.97          30.50          18.43          24.41          34.23        -257.69        2589.89           2.58
      1136.000         201.51          30.70          18.25          24.70          33.59        -257.54        2586.56           2.63
      1136.100         202.15          30.06          18.12          24.93          33.98        -257.39        2585.57           2.73
      1136.200         205.45          28.35          18.03          25.06          34.70        -257.32        2586.89           2.81
      1136.300         206.62          26.41          18.01          25.08          35.20        -257.35        2591.41           2.84
      1136.400         203.54          25.16          18.15          25.05          35.25        -257.42        2591.47           2.83
      1136.500         200.82          24.79          18.40          25.09          34.90        -257.47        2591.53           2.80
      1136.600         201.88          25.09          18.68          25.35          34.53        -257.45        2583.42           2.79
      1136.700         206.22          26.11          18.93          25.95          34.59        -257.37        2570.85           2.79
      1136.800         210.94          27.36          19.10          26.95          35.43        -257.26        2558.65           2.80
      1136.900         214.13          28.17          19.09          28.31          36.89        -257.17        2552.63           2.84
      1137.000         213.79          28.10          18.75          29.76          38.24        -257.08        2563.43           2.86
      1137.100         208.57          27.60          18.02          30.84          38.57        -257.02        2588.29           2.89
      1137.200         201.92          27.05          17.12          30.99          37.46        -256.95        2618.78           2.90
      1137.300         196.36          26.82          16.20          29.92          35.15        -256.85        2644.99           2.87
      1137.400         191.72          27.38          15.60          27.74          32.06        -256.72        2657.35           2.85
      1137.500         189.42          29.70          14.99          24.96          28.52        -256.53        2663.02           2.79
      1137.600         189.47          33.59          14.65          22.11          24.87        -256.33        2665.80           2.74
      1137.700         191.49          37.60          14.64          19.55          21.61        -256.15        2665.18           2.71
      1137.800         195.34          39.50          15.22          17.39          19.24        -256.06        2662.51           2.69
      1137.900         199.22          38.35          16.28          15.72          17.83        -256.09        2649.76           2.72
      1138.000         202.78          35.04          17.37          14.49          16.97        -256.21        2631.68           2.80
      1138.100         207.49          31.97          17.70          13.63          16.14        -256.40        2609.23           2.92
      1138.200         214.37          30.58          16.45          12.96          15.31        -256.60        2583.84           3.06
      1138.300         221.05          31.15          13.89          12.27          14.66        -256.80        2568.14           3.16
      1138.400         225.05          32.34          11.01          11.26          14.24        -256.98        2560.58           3.23
      1138.500         226.17          33.03           8.62           9.75          13.74        -257.12        2565.18           3.28
      1138.600         224.05          32.92           6.93           7.88          12.83        -257.28        2581.88           3.30
      1138.700         220.20          32.78           5.66           6.04          11.64        -257.51        2602.20           3.27
      1138.800         216.51          32.51           4.77           4.54          10.51        -257.84        2624.36           3.22
