~Version Information
 VERS  .     3.00 : LOG ASCII STANDARD -VERSION 3.0
 WRAP  .     NO   : ONE LINE PER DEPTH STEP
 DLM   .    SPACE : DELIMITING CHARACTER BETWEEN DATA COLUMNS
~Well Information Block
#MNEM  .UNIT        Data Type                  Information
#------.------ ----------------------------- : -------------------------
 STRT  .M          1072.900                  : 
 STOP  .M          1159.900                  : 
 STEP  .M             0.100                  : 
 NULL  .          -999.2500                  : 
 COMP  .      KI EXPLORATION INC.            : COMPANY
 WELL  .      KI RETLAW 15-6-13-18           : WELL
 FLD   .      RETLAW                         : FIELD
 LOC   .      100/15-06-013-18W4/00          : LOCATION
 PROV  .      Alberta                        : PROVINCE
 SRVC  .      Tucker Wireline Services       : SERVICE COMPANY
 DATE  .      OCT 10 2009                    : LOG DATE
 UWI   .      100150601318W400               : UNIQUE WELL ID
 LIC   .      0412565                        : LICENCE
~Curve Information Block
#MNEM  .UNIT        API CODE                   Curve Description
#------.------ ----------------------------- : -------------------------
 DEPT  .M        00 000 01 00                : Measured Depth
 DT    .US/M     60 520 32 00                : Delta Time
 GR    .GAPI     07 310 01 00                : Gamma Ray
 ILD   .OHMM     07 120 45 00                : Deep Induction Resistivity
 ILM   .OHMM     07 120 44 00                : Medium Induction Resistivity
 SFL   .OHMM     07 220 04 00                : Spherically Focused Resistivity
 SP    .MV       07 010 01 00                : Spontaneous Potential
 RHOB  .KG/M3    45 350 02 00                : Bulk Density
 PE    .B/E      45 358 00 00                : Photoelectric Cross Section
~Parameter Information Section
#MNEM  .UNIT        Value                      Description
#------.------ ----------------------------- : -------------------------
 RUN   .            1                        : Run number
 GL    .M           821.809998               : Ground level elevation
 DREF  .            KB                       : Depth reference
 EREF  .M           826.099976               : Elevation of depth reference
 TDL   .M           1157.0                   : Total depth, logger
 TDD   .M           1157.0                   : Total depth, driller
 CSGL  .M           293.0                    : Casing bottom, logger
 CSGD  .M           293.0                    : Casing bottom, driller
 CSGS  .mm          219.10                   : Casing size
 CSGW  .Kg          219.10                   : Casing weight
 BS    .mm          200.00                   : Bit size
 MUD   .            GEL CHEM                 : Mud type
 MUDD  .kg/m3       1230.000                 : Mud density
 MUDV  .sec         81.000                   : Mud viscosity
 FL    .cc          7.500                    : Fluid loss rate
 PH    .            10.000                   : Mud pH
 MUDS  .            FLOW LINE                : Mud source
 RM    .OHMM        2.100                    : Resistivity of mud
 RMT   .C           12.0                     : Temperature of mud
 RMF   .OHMM        2.500                    : Resistivity of mud filtrate
 RMFT  .C           12.0                     : Temperature of mud filtrate
 RMC   .OHMM        1.900                    : Resistivity of mud cake
 RMCT  .C           12.0                     : Temperature of mud cake
 TMAX  .C           32.0                     : Maximum recorded temperature
 TIMC  .DAY/HR      OCT 10 2009 @ 16:00      : Date/Time circulation stopped
 TIMD  .DAY/HR      OCT 10 2009 @ 21:00      : Date/Time logger tagged bottom
 UNIT  .            TRUCK 134                : Logging unit_number
 BASE  .            MEDICINE HAT             : Home base of logging unit
 ENG   .            M. MacNEIL               : Recording Engineer
 WIT   .            R. BABBITT               : Witnessed by
~Other Information Section
#Run number  1
RUN #1: GRT / CNT / LDT / CST / PIT
LOGGER'S COMMENTS:
1) CALIPERS ORIENTED IN X-Y AXIS.
2) SFL IS ENVIRONMENTALLY CORRECTED USING AVCAL. 
3) NEUTRON POROSITY IS CALIPER CORRECTED USING NCAL.
4) CALIPERS READINGS VERIFIED IN CASING.
5) MUD RESISTIVITIES RECORDED AS MEASURED.
6) CENTRALIZERS DEPLOYED ON TOP AND BOTTOM OF CST.
7) CEMENT VOLUME CALCULATED USING 139.7mm PRODUCTION CASING
DATE AND TIME ON BOTTOM: OCT 10 2009 @ 21:00
TUCKER OPERATORS:
1) L. KNAUS
THANK YOU FOR USING TUCKER WIRELINE SERVICES CANADA.
#DEPT     DT       CALN     CALD     GR       ILD      ILM      LWTKG    NPDL     NPLS     NPSS     DPDL     DPLS     DPSS     SFL      SP       TT1      TT2      TT3      TT4      DRHO     RHOB     PE       
~TOPS_Definition
 TOPN.        :  Top Name     {S} 
 TOPT.M       :  Top Depth    {F} 
~TOPS_Data | TOPS_Definition
 Kcolorado            435.6  
 Kmed_hat             487.0  
 K2nd_ws              695.6  
 K2ws_ss              716.9  
 Kbfs                 795.0  
 Kbi_ss               825.3  
 Kbsl_colo            945.5  
 Kmannvl              953.0  
 Kglauc_ss            1057.7  
 Kmannvl_L            1094.9  
~Ascii         Log         Data
# ...
      1090.900         233.86          61.66          25.64          31.39          53.99        -219.11        2593.99           2.96
      1091.000         226.52          62.99          24.57          30.32          52.67        -218.57        2588.60           3.06
      1091.100         221.46          65.17          23.83          28.49          46.94        -218.07        2579.00           3.06
      1091.200         220.40          68.13          23.38          26.43          39.33        -217.54        2568.42           3.02
      1091.300         223.62          71.23          23.18          24.60          32.73        -216.91        2569.26           2.98
      1091.400         228.65          74.28          23.10          23.25          28.70        -216.27        2577.56           2.94
      1091.500         232.86          77.99          22.92          22.41          27.10        -215.70        2590.52           2.92
      1091.600         235.64          81.92          22.56          21.98          27.46        -215.27        2602.66           2.89
      1091.700         236.91          85.64          22.09          21.78          28.47        -215.03        2606.30           2.85
      1091.800         236.09          88.22          21.53          21.60          28.90        -214.94        2608.45           2.82
      1091.900         234.46          88.89          20.83          21.31          28.09        -214.99        2608.44           2.79
      1092.000         233.50          88.60          20.06          20.85          26.31        -215.17        2604.97           2.81
      1092.100         232.40          87.81          19.24          20.25          24.41        -215.50        2601.12           2.83
      1092.200         230.51          86.23          18.40          19.52          23.15        -216.06        2595.38           2.85
      1092.300         228.74          83.27          17.53          18.68          22.93        -216.91        2590.35           2.87
      1092.400         228.23          79.62          16.68          17.68          23.32        -218.10        2589.23           2.86
      1092.500         228.33          77.10          15.90          16.53          23.44        -219.62        2588.32           2.85
      1092.600         227.65          76.41          15.33          15.32          22.42        -221.36        2597.50           2.84
      1092.700         226.56          78.25          14.95          14.19          20.00        -223.11        2615.15           2.84
      1092.800         224.63          82.62          14.69          13.30          17.33        -224.48        2643.90           2.88
      1092.900         221.88          88.29          14.49          12.74          15.55        -225.10        2668.21           2.98
      1093.000         221.34          92.85          14.33          12.55          15.15        -224.70        2660.49           3.11
      1093.100         225.11          94.82          14.16          12.72          15.87        -223.26        2626.96           3.16
      1093.200         231.48          94.27          14.05          13.12          16.84        -221.16        2575.41           3.02
      1093.300         237.40          93.43          13.97          13.67          17.68        -218.86        2541.03           2.76
      1093.400         243.78          93.94          13.99          14.23          18.35        -216.70        2528.32           2.57
      1093.500         250.93          98.32          14.14          14.65          18.83        -214.84        2527.67           2.43
      1093.600         255.57         105.77          14.33          14.88          19.15        -213.30        2536.02           2.36
      1093.700         256.48         112.33          14.48          14.91          19.08        -212.12        2539.82           2.34
      1093.800         255.59         113.24          14.49          14.76          18.62        -211.30        2544.56           2.35
      1093.900         255.10         108.43          14.26          14.46          18.12        -210.78        2547.40           2.41
      1094.000         255.53         101.60          13.81          14.03          17.71        -210.45        2547.29           2.49
      1094.100         256.32          97.76          13.19          13.44          17.47        -210.27        2548.73           2.56
      1094.200         256.78         100.15          12.42          12.68          17.25        -210.18        2548.30           2.62
      1094.300         255.52         108.29          11.66          11.79          16.83        -210.16        2550.45           2.64
      1094.400         253.78         115.85          11.11          10.88          16.05        -210.15        2554.17           2.68
      1094.500         255.60         117.99          10.74          10.07          14.74        -210.10        2554.14           2.73
      1094.600         263.20         116.12          10.55           9.44          13.08        -210.10        2553.02           2.76
      1094.700         275.06         114.00          10.52           9.10          11.57        -210.12        2553.52           2.73
      1094.800         287.73         112.67          10.61           9.07          10.69        -210.17        2556.93           2.64
      1094.900         298.10         111.35          10.81           9.40          10.67        -210.23        2562.51           2.56
      1095.000         304.49         109.32          11.13          10.12          11.54        -210.22        2561.76           2.52
      1095.100         304.87         106.02          11.57          11.28          13.24        -210.18        2559.61           2.53
      1095.200         300.62         100.95          12.16          12.94          15.84        -210.13        2559.08           2.61
      1095.300         295.65          95.58          12.97          15.17          19.67        -210.06        2560.20           2.78
      1095.400         291.07          90.07          13.97          17.97          24.81        -209.96        2567.20           3.05
      1095.500         285.01          81.49          15.09          21.18          30.92        -209.79        2581.51           3.38
      1095.600         275.85          69.20          16.36          24.36          36.88        -209.58        2605.25           3.70
      1095.700         264.85          56.69          17.74          26.96          41.17        -209.37        2631.93           3.98
      1095.800         253.08          48.95          19.26          28.43          42.89        -209.16        2649.45           4.20
      1095.900         239.69          46.69          20.66          28.63          41.89        -208.95        2656.06           4.33
      1096.000         225.35          47.28          21.68          27.87          39.01        -208.74        2655.07           4.37
      1096.100         214.40          49.36          22.25          26.73          35.38        -208.53        2653.23           4.32
      1096.200         210.61          55.12          22.28          25.70          31.77        -208.33        2651.99           4.29
      1096.300         213.51          65.59          21.78          25.07          28.86        -208.15        2651.37           4.29
      1096.400         218.30          77.71          20.85          24.93          27.35        -208.01        2652.99           4.30
      1096.500         219.76          84.70          19.72          25.18          27.70        -207.94        2664.38           4.32
      1096.600         218.21          81.69          18.54          25.55          30.15        -207.96        2684.58           4.32
      1096.700         215.58          69.82          17.50          25.59          33.90        -208.03        2705.45           4.35
      1096.800         211.53          55.49          16.67          24.90          37.14        -208.10        2720.17           4.39
