~Version Information
 VERS  .     3.00 : LOG ASCII STANDARD -VERSION 3.0
 WRAP  .     NO   : ONE LINE PER DEPTH STEP
 DLM   .    SPACE : DELIMITING CHARACTER BETWEEN DATA COLUMNS
~Well Information Block
#MNEM  .UNIT        Data Type                  Information
#------.------ ----------------------------- : -------------------------
 STRT  .M          1072.900                  : 
 STOP  .M          1159.900                  : 
 STEP  .M             0.100                  : 
 NULL  .          -999.2500                  : 
 COMP  .      KI EXPLORATION INC.            : COMPANY
 WELL  .      KI RETLAW 15-6-13-18           : WELL
 FLD   .      RETLAW                         : FIELD
 LOC   .      100/15-06-013-18W4/00          : LOCATION
 PROV  .      Alberta                        : PROVINCE
 SRVC  .      Tucker Wireline Services       : SERVICE COMPANY
 DATE  .      OCT 10 2009                    : LOG DATE
 UWI   .      100150601318W400               : UNIQUE WELL ID
 LIC   .      0412565                        : LICENCE
~Curve Information Block
#MNEM  .UNIT        API CODE                   Curve Description
#------.------ ----------------------------- : -------------------------
 DEPT  .M        00 000 01 00                : Measured Depth
 DT    .US/M     60 520 32 00                : Delta Time
 GR    .GAPI     07 310 01 00                : Gamma Ray
 ILD   .OHMM     07 120 45 00                : Deep Induction Resistivity
 ILM   .OHMM     07 120 44 00                : Medium Induction Resistivity
 SFL   .OHMM     07 220 04 00                : Spherically Focused Resistivity
 SP    .MV       07 010 01 00                : Spontaneous Potential
 RHOB  .KG/M3    45 350 02 00                : Bulk Density
 PE    .B/E      45 358 00 00                : Photoelectric Cross Section
~Parameter Information Section
#MNEM  .UNIT        Value                      Description
#------.------ ----------------------------- : -------------------------
 RUN   .            1                        : Run number
 GL    .M           821.809998               : Ground level elevation
 DREF  .            KB                       : Depth reference
 EREF  .M           826.099976               : Elevation of depth reference
 TDL   .M           1157.0                   : Total depth, logger
 TDD   .M           1157.0                   : Total depth, driller
 CSGL  .M           293.0                    : Casing bottom, logger
 CSGD  .M           293.0                    : Casing bottom, driller
 CSGS  .mm          219.10                   : Casing size
 CSGW  .Kg          219.10                   : Casing weight
 BS    .mm          200.00                   : Bit size
 MUD   .            GEL CHEM                 : Mud type
 MUDD  .kg/m3       1230.000                 : Mud density
 MUDV  .sec         81.000                   : Mud viscosity
 FL    .cc          7.500                    : Fluid loss rate
 PH    .            10.000                   : Mud pH
 MUDS  .            FLOW LINE                : Mud source
 RM    .OHMM        2.100                    : Resistivity of mud
 RMT   .C           12.0                     : Temperature of mud
 RMF   .OHMM        2.500                    : Resistivity of mud filtrate
 RMFT  .C           12.0                     : Temperature of mud filtrate
 RMC   .OHMM        1.900                    : Resistivity of mud cake
 RMCT  .C           12.0                     : Temperature of mud cake
 TMAX  .C           32.0                     : Maximum recorded temperature
 TIMC  .DAY/HR      OCT 10 2009 @ 16:00      : Date/Time circulation stopped
 TIMD  .DAY/HR      OCT 10 2009 @ 21:00      : Date/Time logger tagged bottom
 UNIT  .            TRUCK 134                : Logging unit_number
 BASE  .            MEDICINE HAT             : Home base of logging unit
 ENG   .            M. MacNEIL               : Recording Engineer
 WIT   .            R. BABBITT               : Witnessed by
~Other Information Section
#Run number  1
RUN #1: GRT / CNT / LDT / CST / PIT
LOGGER'S COMMENTS:
1) CALIPERS ORIENTED IN X-Y AXIS.
2) SFL IS ENVIRONMENTALLY CORRECTED USING AVCAL. 
3) NEUTRON POROSITY IS CALIPER CORRECTED USING NCAL.
4) CALIPERS READINGS VERIFIED IN CASING.
5) MUD RESISTIVITIES RECORDED AS MEASURED.
6) CENTRALIZERS DEPLOYED ON TOP AND BOTTOM OF CST.
7) CEMENT VOLUME CALCULATED USING 139.7mm PRODUCTION CASING
DATE AND TIME ON BOTTOM: OCT 10 2009 @ 21:00
TUCKER OPERATORS:
1) L. KNAUS
THANK YOU FOR USING TUCKER WIRELINE SERVICES CANADA.
#DEPT     DT       CALN     CALD     GR       ILD      ILM      LWTKG    NPDL     NPLS     NPSS     DPDL     DPLS     DPSS     SFL      SP       TT1      TT2      TT3      TT4      DRHO     RHOB     PE       
~TOPS_Definition
 TOPN.        :  Top Name     {S} 
 TOPT.M       :  Top Depth    {F} 
~TOPS_Data | TOPS_Definition
 Kcolorado            435.6  
 Kmed_hat             487.0  
 K2nd_ws              695.6  
 K2ws_ss              716.9  
 Kbfs                 795.0  
 Kbi_ss               825.3  
 Kbsl_colo            945.5  
 Kmannvl              953.0  
 Kglauc_ss            1057.7  
 Kmannvl_L            1094.9  
~Ascii         Log         Data
# ...
      1102.900         386.95          83.65           4.12           4.01           4.41        -210.02        2376.31           2.53
      1103.000         378.87          87.58           4.13           4.03           4.46        -209.63        2378.43           2.54
      1103.100         373.08          84.81           4.19           4.04           4.47        -209.32        2376.77           2.53
      1103.200         369.45          79.38           4.29           4.07           4.46        -209.08        2374.42           2.51
      1103.300         366.18          75.43           4.42           4.12           4.47        -208.89        2371.88           2.46
      1103.400         367.18          73.30           4.59           4.21           4.55        -208.72        2374.75           2.42
      1103.500         384.69          71.67           4.79           4.37           4.74        -208.53        2381.41           2.40
      1103.600         415.58          71.56           5.03           4.62           5.11        -208.31        2402.40           2.43
      1103.700         432.62          74.47           5.27           4.97           5.73        -208.09        2444.47           2.53
      1103.800         426.83          78.59           5.53           5.42           6.63        -207.92        2493.58           2.68
      1103.900         410.73          80.74           5.83           5.98           7.67        -207.74        2537.29           2.86
      1104.000         391.43          81.64           6.22           6.63           8.63        -207.55        2554.29           3.06
      1104.100         362.44          84.87           6.71           7.32           9.32        -207.39        2549.93           3.15
      1104.200         328.07          93.49           7.26           8.07           9.82        -207.32        2535.73           3.17
      1104.300         307.28         105.62           7.92           8.87          10.54        -207.35        2520.66           3.14
      1104.400         299.73         115.71           8.72           9.76          11.78        -207.38        2519.04           3.08
      1104.500         293.66         117.27           9.57          10.75          13.46        -207.44        2531.60           3.11
      1104.600         287.93         109.79          10.35          11.83          15.07        -207.41        2556.89           3.15
      1104.700         282.43          98.93          11.06          12.93          16.12        -207.29        2578.98           3.21
      1104.800         273.64          91.46          11.75          13.95          16.60        -207.13        2588.57           3.16
      1104.900         261.91          89.21          12.35          14.78          16.78        -206.98        2588.44           2.94
      1105.000         252.33          90.20          12.87          15.40          16.99        -206.95        2583.94           2.76
      1105.100         249.66          90.76          13.32          15.79          17.37        -206.98        2581.64           2.62
      1105.200         251.20          89.60          13.67          16.05          17.85        -207.07        2582.44           2.58
      1105.300         251.33          87.66          13.94          16.22          18.29        -207.24        2583.65           2.60
      1105.400         249.03          86.64          14.11          16.36          18.55        -207.42        2587.44           2.63
      1105.500         246.77          85.93          14.22          16.49          18.61        -207.58        2590.81           2.67
      1105.600         245.38          86.00          14.27          16.60          18.56        -207.68        2592.19           2.63
      1105.700         244.43          87.85          14.25          16.68          18.49        -207.77        2594.88           2.57
      1105.800         243.68          91.25          14.17          16.65          18.45        -207.88        2599.57           2.53
      1105.900         242.69          93.67          14.09          16.47          18.35        -208.04        2610.88           2.54
      1106.000         241.49          95.41          14.04          16.13          18.01        -208.19        2621.66           2.60
      1106.100         240.87          98.77          14.01          15.68          17.31        -208.32        2629.24           2.61
      1106.200         240.98         104.48          14.02          15.21          16.33        -208.47        2629.88           2.59
      1106.300         241.18         108.99          14.04          14.83          15.41        -208.63        2626.31           2.61
      1106.400         242.23         110.18          14.05          14.62          15.07        -208.84        2625.37           2.63
      1106.500         244.23         108.00          14.08          14.64          15.55        -209.10        2625.09           2.71
      1106.600         245.77         104.56          14.14          14.87          16.79        -209.36        2623.45           2.76
      1106.700         245.01         100.57          14.29          15.29          18.30        -209.69        2614.69           2.79
      1106.800         243.31          97.25          14.51          15.86          19.47        -210.01        2600.81           2.79
      1106.900         241.96          95.16          14.91          16.59          20.12        -210.41        2587.31           2.73
      1107.000         240.01          94.19          15.56          17.53          20.52        -210.83        2577.72           2.65
      1107.100         238.02          94.19          16.42          18.81          21.68        -211.22        2572.86           2.59
      1107.200         237.50          95.53          17.43          20.60          24.63        -211.57        2568.82           2.59
      1107.300         238.65          96.62          18.69          23.02          29.71        -211.84        2565.94           2.66
      1107.400         239.31          95.05          20.18          26.22          36.25        -212.09        2567.41           2.81
      1107.500         238.83          91.30          21.69          30.20          42.67        -212.29        2567.90           3.03
      1107.600         239.21          88.40          23.26          34.69          48.19        -212.39        2562.75           3.29
      1107.700         239.77          87.43          24.80          39.19          53.07        -212.35        2554.86           3.49
      1107.800         238.65          85.61          26.16          42.85          58.36        -212.26        2550.41           3.51
      1107.900         237.00          80.75          27.15          44.79          64.03        -212.17        2561.51           3.40
      1108.000         236.23          74.27          27.67          44.39          68.73        -212.08        2582.56           3.35
      1108.100         233.97          69.87          27.70          41.69          69.66        -211.96        2603.11           3.35
      1108.200         228.24          69.84          27.33          37.54          64.87        -211.73        2611.16           3.39
      1108.300         222.14          73.23          26.59          33.06          55.59        -211.41        2603.65           3.39
      1108.400         218.76          76.63          25.47          29.03          44.84        -211.02        2591.64           3.28
      1108.500         217.56          79.24          24.20          25.75          36.06        -210.60        2583.30           3.14
      1108.600         218.83          83.51          22.72          23.23          30.48        -210.23        2584.81           2.97
      1108.700         224.07          91.39          21.09          21.28          27.58        -209.90        2591.47           2.88
      1108.800         230.43          99.62          19.46          19.70          26.44        -209.66        2599.48           2.84
