~Version Information
 VERS  .     3.00 : LOG ASCII STANDARD -VERSION 3.0
 WRAP  .     NO   : ONE LINE PER DEPTH STEP
 DLM   .    SPACE : DELIMITING CHARACTER BETWEEN DATA COLUMNS
~Well Information Block
#MNEM  .UNIT        Data Type                  Information
#------.------ ----------------------------- : -------------------------
 STRT  .M          1072.900                  : 
 STOP  .M          1159.900                  : 
 STEP  .M             0.100                  : 
 NULL  .          -999.2500                  : 
 COMP  .      KI EXPLORATION INC.            : COMPANY
 WELL  .      KI RETLAW 15-6-13-18           : WELL
 FLD   .      RETLAW                         : FIELD
 LOC   .      100/15-06-013-18W4/00          : LOCATION
 PROV  .      Alberta                        : PROVINCE
 SRVC  .      Tucker Wireline Services       : SERVICE COMPANY
 DATE  .      OCT 10 2009                    : LOG DATE
 UWI   .      100150601318W400               : UNIQUE WELL ID
 LIC   .      0412565                        : LICENCE
~Curve Information Block
#MNEM  .UNIT        API CODE                   Curve Description
#------.------ ----------------------------- : -------------------------
 DEPT  .M        00 000 01 00                : Measured Depth
 DT    .US/M     60 520 32 00                : Delta Time
 GR    .GAPI     07 310 01 00                : Gamma Ray
 ILD   .OHMM     07 120 45 00                : Deep Induction Resistivity
 ILM   .OHMM     07 120 44 00                : Medium Induction Resistivity
 SFL   .OHMM     07 220 04 00                : Spherically Focused Resistivity
 SP    .MV       07 010 01 00                : Spontaneous Potential
 RHOB  .KG/M3    45 350 02 00                : Bulk Density
 PE    .B/E      45 358 00 00                : Photoelectric Cross Section
~Parameter Information Section
#MNEM  .UNIT        Value                      Description
#------.------ ----------------------------- : -------------------------
 RUN   .            1                        : Run number
 GL    .M           821.809998               : Ground level elevation
 DREF  .            KB                       : Depth reference
 EREF  .M           826.099976               : Elevation of depth reference
 TDL   .M           1157.0                   : Total depth, logger
 TDD   .M           1157.0                   : Total depth, driller
 CSGL  .M           293.0                    : Casing bottom, logger
 CSGD  .M           293.0                    : Casing bottom, driller
 CSGS  .mm          219.10                   : Casing size
 CSGW  .Kg          219.10                   : Casing weight
 BS    .mm          200.00                   : Bit size
 MUD   .            GEL CHEM                 : Mud type
 MUDD  .kg/m3       1230.000                 : Mud density
 MUDV  .sec         81.000                   : Mud viscosity
 FL    .cc          7.500                    : Fluid loss rate
 PH    .            10.000                   : Mud pH
 MUDS  .            FLOW LINE                : Mud source
 RM    .OHMM        2.100                    : Resistivity of mud
 RMT   .C           12.0                     : Temperature of mud
 RMF   .OHMM        2.500                    : Resistivity of mud filtrate
 RMFT  .C           12.0                     : Temperature of mud filtrate
 RMC   .OHMM        1.900                    : Resistivity of mud cake
 RMCT  .C           12.0                     : Temperature of mud cake
 TMAX  .C           32.0                     : Maximum recorded temperature
 TIMC  .DAY/HR      OCT 10 2009 @ 16:00      : Date/Time circulation stopped
 TIMD  .DAY/HR      OCT 10 2009 @ 21:00      : Date/Time logger tagged bottom
 UNIT  .            TRUCK 134                : Logging unit_number
 BASE  .            MEDICINE HAT             : Home base of logging unit
 ENG   .            M. MacNEIL               : Recording Engineer
 WIT   .            R. BABBITT               : Witnessed by
~Other Information Section
#Run number  1
RUN #1: GRT / CNT / LDT / CST / PIT
LOGGER'S COMMENTS:
1) CALIPERS ORIENTED IN X-Y AXIS.
2) SFL IS ENVIRONMENTALLY CORRECTED USING AVCAL. 
3) NEUTRON POROSITY IS CALIPER CORRECTED USING NCAL.
4) CALIPERS READINGS VERIFIED IN CASING.
5) MUD RESISTIVITIES RECORDED AS MEASURED.
6) CENTRALIZERS DEPLOYED ON TOP AND BOTTOM OF CST.
7) CEMENT VOLUME CALCULATED USING 139.7mm PRODUCTION CASING
DATE AND TIME ON BOTTOM: OCT 10 2009 @ 21:00
TUCKER OPERATORS:
1) L. KNAUS
THANK YOU FOR USING TUCKER WIRELINE SERVICES CANADA.
#DEPT     DT       CALN     CALD     GR       ILD      ILM      LWTKG    NPDL     NPLS     NPSS     DPDL     DPLS     DPSS     SFL      SP       TT1      TT2      TT3      TT4      DRHO     RHOB     PE       
~TOPS_Definition
 TOPN.        :  Top Name     {S} 
 TOPT.M       :  Top Depth    {F} 
~TOPS_Data | TOPS_Definition
 Kcolorado            435.6  
 Kmed_hat             487.0  
 K2nd_ws              695.6  
 K2ws_ss              716.9  
 Kbfs                 795.0  
 Kbi_ss               825.3  
 Kbsl_colo            945.5  
 Kmannvl              953.0  
 Kglauc_ss            1057.7  
 Kmannvl_L            1094.9  
~Ascii         Log         Data
# ...
      1126.900         273.70          46.06          10.25          11.17          16.98        -254.89        2379.12           2.03
      1127.000         272.75          45.53          10.34          11.12          16.69        -254.68        2369.39           2.01
      1127.100         273.05          44.53          10.41          10.97          15.93        -254.47        2363.12           1.98
      1127.200         274.52          43.41          10.41          10.79          15.05        -254.26        2358.51           1.94
      1127.300         276.88          43.00          10.30          10.61          14.53        -254.04        2354.26           1.91
      1127.400         278.83          43.33          10.04          10.43          14.60        -253.78        2354.01           1.89
      1127.500         279.57          43.43           9.68          10.22          15.03        -253.48        2360.02           1.90
      1127.600         278.49          42.56           9.28           9.93          15.26        -253.20        2374.25           1.94
      1127.700         276.32          40.88           8.90           9.51          14.83        -253.10        2387.20           1.98
      1127.800         274.69          39.07           8.59           8.98          13.74        -253.31        2387.88           2.02
      1127.900         273.61          37.77           8.37           8.42          12.36        -253.78        2374.44           2.01
      1128.000         273.70          36.70           8.22           7.90          11.09        -254.37        2352.82           1.96
      1128.100         277.17          35.31           8.10           7.49          10.17        -254.91        2332.95           1.89
      1128.200         284.06          34.38           7.99           7.22           9.65        -255.33        2316.27           1.83
      1128.300         290.89          34.44           7.85           7.09           9.54        -255.59        2306.97           1.81
      1128.400         294.76          35.22           7.70           7.08           9.80        -255.72        2306.27           1.80
      1128.500         295.96          36.04           7.53           7.16          10.33        -255.74        2311.60           1.82
      1128.600         294.35          37.23           7.37           7.27          10.93        -255.71        2320.68           1.84
      1128.700         290.09          38.57           7.25           7.36          11.35        -255.70        2329.84           1.88
      1128.800         285.19          38.36           7.18           7.38          11.39        -255.74        2337.04           1.92
      1128.900         281.76          36.18           7.16           7.30          11.06        -255.81        2340.98           1.95
      1129.000         279.76          34.00           7.19           7.15          10.53        -255.89        2338.29           1.96
      1129.100         278.99          33.49           7.23           6.96          10.01        -255.95        2332.70           1.93
      1129.200         280.53          33.95           7.25           6.79           9.62        -256.00        2327.18           1.90
      1129.300         283.46          34.21           7.23           6.66           9.40        -256.05        2322.14           1.87
      1129.400         285.53          34.23           7.15           6.59           9.42        -256.11        2318.29           1.85
      1129.500         287.12          34.68           7.05           6.57           9.69        -256.16        2316.60           1.83
      1129.600         288.31          35.52           6.95           6.60          10.14        -256.16        2317.51           1.82
      1129.700         288.23          36.39           6.89           6.64          10.57        -256.17        2317.63           1.84
      1129.800         287.54          36.88           6.89           6.68          10.74        -256.21        2311.41           1.89
      1129.900         288.03          36.59           6.98           6.73          10.52        -256.31        2297.04           1.95
      1130.000         290.12          34.54           7.15           6.81          10.03        -256.42        2280.02           1.98
      1130.100         291.84          32.08           7.40           6.94           9.55        -256.48        2267.68           1.96
      1130.200         292.83          32.35           7.70           7.17           9.42        -256.50        2265.50           1.92
      1130.300         294.97          36.08           8.05           7.55           9.97        -256.46        2273.45           1.89
      1130.400         297.12          39.71           8.40           8.09          11.36        -256.36        2286.65           1.88
      1130.500         295.56          40.10           8.74           8.82          13.56        -256.24        2307.59           1.88
      1130.600         288.99          38.41           9.12           9.71          16.27        -256.12        2339.77           1.91
      1130.700         278.98          37.22           9.54          10.68          19.05        -256.09        2389.04           1.97
      1130.800         266.04          37.83          10.01          11.65          21.53        -256.15        2451.29           2.09
      1130.900         250.63          39.80          10.55          12.51          23.26        -256.26        2509.82           2.28
      1131.000         235.59          42.45          11.18          13.22          23.86        -256.37        2549.30           2.54
      1131.100         224.11          44.08          11.89          13.76          23.15        -256.44        2563.98           2.84
      1131.200         216.09          43.12          12.59          14.18          21.51        -256.48        2563.82           3.07
      1131.300         210.76          39.67          13.15          14.54          20.06        -256.52        2561.45           3.24
      1131.400         208.44          35.87          13.57          14.86          19.74        -256.59        2565.67           3.31
      1131.500         208.66          32.84          13.87          15.16          20.59        -256.69        2574.92           3.33
      1131.600         209.09          30.68          14.08          15.43          21.95        -256.81        2581.82           3.31
      1131.700         208.06          29.65          14.23          15.67          23.02        -256.93        2583.78           3.23
      1131.800         205.19          30.71          14.40          15.89          23.99        -257.02        2582.95           3.15
      1131.900         201.12          33.48          14.63          16.16          25.17        -257.10        2579.36           3.07
      1132.000         196.77          35.73          14.89          16.49          26.43        -257.21        2568.86           3.00
      1132.100         193.07          35.46          15.15          16.94          27.14        -257.34        2547.61           2.93
      1132.200         190.93          33.01          15.33          17.47          26.68        -257.47        2508.97           2.80
      1132.300         190.64          30.58          15.45          18.03          25.27        -257.58        2445.84           2.72
      1132.400         193.13          29.80          15.51          18.49          23.38        -257.64        2352.95           2.64
      1132.500         198.48          30.11          15.48          18.70          21.70        -257.63        2271.05           2.57
      1132.600         205.05          29.54          15.38          18.49          20.92        -257.56        2235.26           2.50
      1132.700         210.93          27.43          15.24          17.82          20.90        -257.44        2254.77           2.43
      1132.800         215.62          25.09          15.13          16.81          21.08        -257.30        2320.38           2.43
