~Version Information
 VERS  .     3.00 : LOG ASCII STANDARD -VERSION 3.0
 WRAP  .     NO   : ONE LINE PER DEPTH STEP
 DLM   .    SPACE : DELIMITING CHARACTER BETWEEN DATA COLUMNS
~Well Information Block
#MNEM  .UNIT        Data Type                  Information
#------.------ ----------------------------- : -------------------------
 STRT  .M          1072.900                  : 
 STOP  .M          1159.900                  : 
 STEP  .M             0.100                  : 
 NULL  .          -999.2500                  : 
 COMP  .      KI EXPLORATION INC.            : COMPANY
 WELL  .      KI RETLAW 15-6-13-18           : WELL
 FLD   .      RETLAW                         : FIELD
 LOC   .      100/15-06-013-18W4/00          : LOCATION
 PROV  .      Alberta                        : PROVINCE
 SRVC  .      Tucker Wireline Services       : SERVICE COMPANY
 DATE  .      OCT 10 2009                    : LOG DATE
 UWI   .      100150601318W400               : UNIQUE WELL ID
 LIC   .      0412565                        : LICENCE
~Curve Information Block
#MNEM  .UNIT        API CODE                   Curve Description
#------.------ ----------------------------- : -------------------------
 DEPT  .M        00 000 01 00                : Measured Depth
 DT    .US/M     60 520 32 00                : Delta Time
 GR    .GAPI     07 310 01 00                : Gamma Ray
 ILD   .OHMM     07 120 45 00                : Deep Induction Resistivity
 ILM   .OHMM     07 120 44 00                : Medium Induction Resistivity
 SFL   .OHMM     07 220 04 00                : Spherically Focused Resistivity
 SP    .MV       07 010 01 00                : Spontaneous Potential
 RHOB  .KG/M3    45 350 02 00                : Bulk Density
 PE    .B/E      45 358 00 00                : Photoelectric Cross Section
~Parameter Information Section
#MNEM  .UNIT        Value                      Description
#------.------ ----------------------------- : -------------------------
 RUN   .            1                        : Run number
 GL    .M           821.809998               : Ground level elevation
 DREF  .            KB                       : Depth reference
 EREF  .M           826.099976               : Elevation of depth reference
 TDL   .M           1157.0                   : Total depth, logger
 TDD   .M           1157.0                   : Total depth, driller
 CSGL  .M           293.0                    : Casing bottom, logger
 CSGD  .M           293.0                    : Casing bottom, driller
 CSGS  .mm          219.10                   : Casing size
 CSGW  .Kg          219.10                   : Casing weight
 BS    .mm          200.00                   : Bit size
 MUD   .            GEL CHEM                 : Mud type
 MUDD  .kg/m3       1230.000                 : Mud density
 MUDV  .sec         81.000                   : Mud viscosity
 FL    .cc          7.500                    : Fluid loss rate
 PH    .            10.000                   : Mud pH
 MUDS  .            FLOW LINE                : Mud source
 RM    .OHMM        2.100                    : Resistivity of mud
 RMT   .C           12.0                     : Temperature of mud
 RMF   .OHMM        2.500                    : Resistivity of mud filtrate
 RMFT  .C           12.0                     : Temperature of mud filtrate
 RMC   .OHMM        1.900                    : Resistivity of mud cake
 RMCT  .C           12.0                     : Temperature of mud cake
 TMAX  .C           32.0                     : Maximum recorded temperature
 TIMC  .DAY/HR      OCT 10 2009 @ 16:00      : Date/Time circulation stopped
 TIMD  .DAY/HR      OCT 10 2009 @ 21:00      : Date/Time logger tagged bottom
 UNIT  .            TRUCK 134                : Logging unit_number
 BASE  .            MEDICINE HAT             : Home base of logging unit
 ENG   .            M. MacNEIL               : Recording Engineer
 WIT   .            R. BABBITT               : Witnessed by
~Other Information Section
#Run number  1
RUN #1: GRT / CNT / LDT / CST / PIT
LOGGER'S COMMENTS:
1) CALIPERS ORIENTED IN X-Y AXIS.
2) SFL IS ENVIRONMENTALLY CORRECTED USING AVCAL. 
3) NEUTRON POROSITY IS CALIPER CORRECTED USING NCAL.
4) CALIPERS READINGS VERIFIED IN CASING.
5) MUD RESISTIVITIES RECORDED AS MEASURED.
6) CENTRALIZERS DEPLOYED ON TOP AND BOTTOM OF CST.
7) CEMENT VOLUME CALCULATED USING 139.7mm PRODUCTION CASING
DATE AND TIME ON BOTTOM: OCT 10 2009 @ 21:00
TUCKER OPERATORS:
1) L. KNAUS
THANK YOU FOR USING TUCKER WIRELINE SERVICES CANADA.
#DEPT     DT       CALN     CALD     GR       ILD      ILM      LWTKG    NPDL     NPLS     NPSS     DPDL     DPLS     DPSS     SFL      SP       TT1      TT2      TT3      TT4      DRHO     RHOB     PE       
~TOPS_Definition
 TOPN.        :  Top Name     {S} 
 TOPT.M       :  Top Depth    {F} 
~TOPS_Data | TOPS_Definition
 Kcolorado            435.6  
 Kmed_hat             487.0  
 K2nd_ws              695.6  
 K2ws_ss              716.9  
 Kbfs                 795.0  
 Kbi_ss               825.3  
 Kbsl_colo            945.5  
 Kmannvl              953.0  
 Kglauc_ss            1057.7  
 Kmannvl_L            1094.9  
~Ascii         Log         Data
# ...
      1114.900         301.52          35.58           5.87           5.57           7.76        -254.54        2280.65           1.85
      1115.000         303.83          35.53           5.83           5.51           7.65        -254.66        2278.37           1.83
      1115.100         305.92          34.28           5.85           5.49           7.65        -254.76        2276.70           1.84
      1115.200         306.03          32.94           5.91           5.52           7.76        -254.85        2276.60           1.86
      1115.300         305.21          32.35           6.01           5.62           7.98        -254.89        2278.55           1.89
      1115.400         304.63          33.12           6.15           5.78           8.31        -254.85        2282.45           1.92
      1115.500         302.71          35.58           6.35           6.03           8.82        -254.78        2289.26           1.93
      1115.600         299.24          39.74           6.60           6.38           9.53        -254.66        2295.15           1.93
      1115.700         295.69          44.33           6.91           6.85          10.45        -254.48        2296.68           1.92
      1115.800         292.83          48.20           7.26           7.44          11.52        -254.23        2295.95           1.92
      1115.900         290.24          51.67           7.69           8.16          12.73        -253.89        2298.33           1.93
      1116.000         287.69          56.17           8.18           9.03          14.07        -253.51        2307.22           1.95
      1116.100         285.87          62.35           8.74          10.02          15.52        -253.14        2322.54           1.98
      1116.200         285.67          68.27           9.38          11.05          16.99        -252.83        2338.79           2.01
      1116.300         285.57          71.01          10.09          12.07          18.30        -252.63        2352.19           2.03
      1116.400         284.38          71.18          10.80          12.99          19.33        -252.53        2357.99           2.06
      1116.500         282.94          71.57          11.44          13.74          20.05        -252.54        2356.34           2.09
      1116.600         281.78          72.24          12.00          14.27          20.45        -252.67        2356.19           2.10
      1116.700         281.05          70.92          12.39          14.58          20.59        -252.87        2359.92           2.11
      1116.800         280.44          66.98          12.57          14.69          20.53        -253.13        2368.21           2.11
      1116.900         280.04          62.96          12.51          14.62          20.44        -253.37        2379.18           2.10
      1117.000         280.33          61.76          12.25          14.37          20.38        -253.59        2386.97           2.09
      1117.100         280.38          63.71          11.83          13.93          20.29        -253.74        2395.61           2.09
      1117.200         279.42          66.91          11.32          13.29          19.89        -253.74        2406.38           2.11
      1117.300         276.94          68.03          10.78          12.48          18.90        -253.64        2419.25           2.14
      1117.400         272.26          64.78          10.26          11.58          17.35        -253.52        2431.50           2.17
      1117.500         267.35          57.45           9.77          10.68          15.56        -253.55        2426.74           2.19
      1117.600         265.98          49.52           9.32           9.86          14.02        -253.73        2402.90           2.19
      1117.700         267.75          42.84           8.90           9.15          13.06        -253.96        2368.45           2.13
      1117.800         269.78          37.69           8.56           8.57          12.63        -254.18        2335.51           2.04
      1117.900         272.47          34.21           8.28           8.12          12.50        -254.33        2314.00           1.97
      1118.000         277.14          33.27           8.07           7.78          12.35        -254.47        2301.47           1.95
      1118.100         281.18          33.51           7.92           7.54          12.04        -254.59        2296.35           1.96
      1118.200         281.82          33.07           7.82           7.41          11.63        -254.69        2295.47           2.00
      1118.300         280.99          31.83           7.74           7.37          11.31        -254.73        2298.50           2.02
      1118.400         281.98          32.16           7.65           7.43          11.34        -254.72        2302.11           2.02
      1118.500         285.07          35.17           7.52           7.55          11.81        -254.62        2304.13           2.01
      1118.600         287.15          38.80           7.37           7.67          12.55        -254.47        2308.09           2.00
      1118.700         286.37          40.85           7.23           7.72          13.11        -254.29        2314.91           2.01
      1118.800         284.74          41.50           7.11           7.65          13.10        -254.19        2324.14           2.06
      1118.900         284.04          41.71           7.05           7.45          12.46        -254.24        2326.78           2.11
      1119.000         283.34          40.49           7.02           7.16          11.52        -254.39        2316.38           2.12
      1119.100         283.21          36.88           7.03           6.85          10.65        -254.57        2298.33           2.08
      1119.200         285.22          32.32           7.06           6.59          10.03        -254.66        2278.46           2.02
      1119.300         290.04          29.23           7.09           6.42           9.67        -254.66        2263.56           1.95
      1119.400         295.96          28.45           7.09           6.37           9.56        -254.59        2257.12           1.89
      1119.500         299.38          29.56           7.07           6.45           9.73        -254.46        2257.34           1.86
      1119.600         299.40          31.52           7.03           6.65          10.30        -254.28        2261.60           1.85
      1119.700         297.68          33.22           6.99           6.92          11.27        -254.03        2269.04           1.84
      1119.800         293.83          34.98           6.98           7.23          12.40        -253.71        2281.95           1.83
      1119.900         286.61          37.73           7.04           7.50          13.19        -253.43        2300.91           1.84
      1120.000         278.62          40.99           7.19           7.69          13.19        -253.30        2320.06           1.89
      1120.100         273.67          41.83           7.44           7.80          12.50        -253.42        2327.59           1.97
      1120.200         272.01          39.32           7.77           7.86          11.67        -253.66        2319.48           2.04
      1120.300         272.50          35.76           8.14           7.95          11.25        -253.90        2304.02           2.05
      1120.400         276.43          33.95           8.48           8.13          11.49        -254.02        2292.82           2.01
      1120.500         283.28          34.79           8.74           8.44          12.33        -253.96        2292.77           1.97
      1120.600         288.56          37.41           8.93           8.86          13.45        -253.78        2299.22           1.93
      1120.700         289.16          39.94           9.06           9.38          14.55        -253.55        2307.20           1.91
      1120.800         285.97          41.40           9.18           9.93          15.33        -253.32        2315.17           1.90
