~Version Information
 VERS  .     3.00 : LOG ASCII STANDARD -VERSION 3.0
 WRAP  .     NO   : ONE LINE PER DEPTH STEP
 DLM   .    SPACE : DELIMITING CHARACTER BETWEEN DATA COLUMNS
~Well Information Block
#MNEM  .UNIT        Data Type                  Information
#------.------ ----------------------------- : -------------------------
 STRT  .M          1072.900                  : 
 STOP  .M          1159.900                  : 
 STEP  .M             0.100                  : 
 NULL  .          -999.2500                  : 
 COMP  .      KI EXPLORATION INC.            : COMPANY
 WELL  .      KI RETLAW 15-6-13-18           : WELL
 FLD   .      RETLAW                         : FIELD
 LOC   .      100/15-06-013-18W4/00          : LOCATION
 PROV  .      Alberta                        : PROVINCE
 SRVC  .      Tucker Wireline Services       : SERVICE COMPANY
 DATE  .      OCT 10 2009                    : LOG DATE
 UWI   .      100150601318W400               : UNIQUE WELL ID
 LIC   .      0412565                        : LICENCE
~Curve Information Block
#MNEM  .UNIT        API CODE                   Curve Description
#------.------ ----------------------------- : -------------------------
 DEPT  .M        00 000 01 00                : Measured Depth
 DT    .US/M     60 520 32 00                : Delta Time
 GR    .GAPI     07 310 01 00                : Gamma Ray
 ILD   .OHMM     07 120 45 00                : Deep Induction Resistivity
 ILM   .OHMM     07 120 44 00                : Medium Induction Resistivity
 SFL   .OHMM     07 220 04 00                : Spherically Focused Resistivity
 SP    .MV       07 010 01 00                : Spontaneous Potential
 RHOB  .KG/M3    45 350 02 00                : Bulk Density
 PE    .B/E      45 358 00 00                : Photoelectric Cross Section
~Parameter Information Section
#MNEM  .UNIT        Value                      Description
#------.------ ----------------------------- : -------------------------
 RUN   .            1                        : Run number
 GL    .M           821.809998               : Ground level elevation
 DREF  .            KB                       : Depth reference
 EREF  .M           826.099976               : Elevation of depth reference
 TDL   .M           1157.0                   : Total depth, logger
 TDD   .M           1157.0                   : Total depth, driller
 CSGL  .M           293.0                    : Casing bottom, logger
 CSGD  .M           293.0                    : Casing bottom, driller
 CSGS  .mm          219.10                   : Casing size
 CSGW  .Kg          219.10                   : Casing weight
 BS    .mm          200.00                   : Bit size
 MUD   .            GEL CHEM                 : Mud type
 MUDD  .kg/m3       1230.000                 : Mud density
 MUDV  .sec         81.000                   : Mud viscosity
 FL    .cc          7.500                    : Fluid loss rate
 PH    .            10.000                   : Mud pH
 MUDS  .            FLOW LINE                : Mud source
 RM    .OHMM        2.100                    : Resistivity of mud
 RMT   .C           12.0                     : Temperature of mud
 RMF   .OHMM        2.500                    : Resistivity of mud filtrate
 RMFT  .C           12.0                     : Temperature of mud filtrate
 RMC   .OHMM        1.900                    : Resistivity of mud cake
 RMCT  .C           12.0                     : Temperature of mud cake
 TMAX  .C           32.0                     : Maximum recorded temperature
 TIMC  .DAY/HR      OCT 10 2009 @ 16:00      : Date/Time circulation stopped
 TIMD  .DAY/HR      OCT 10 2009 @ 21:00      : Date/Time logger tagged bottom
 UNIT  .            TRUCK 134                : Logging unit_number
 BASE  .            MEDICINE HAT             : Home base of logging unit
 ENG   .            M. MacNEIL               : Recording Engineer
 WIT   .            R. BABBITT               : Witnessed by
~Other Information Section
#Run number  1
RUN #1: GRT / CNT / LDT / CST / PIT
LOGGER'S COMMENTS:
1) CALIPERS ORIENTED IN X-Y AXIS.
2) SFL IS ENVIRONMENTALLY CORRECTED USING AVCAL. 
3) NEUTRON POROSITY IS CALIPER CORRECTED USING NCAL.
4) CALIPERS READINGS VERIFIED IN CASING.
5) MUD RESISTIVITIES RECORDED AS MEASURED.
6) CENTRALIZERS DEPLOYED ON TOP AND BOTTOM OF CST.
7) CEMENT VOLUME CALCULATED USING 139.7mm PRODUCTION CASING
DATE AND TIME ON BOTTOM: OCT 10 2009 @ 21:00
TUCKER OPERATORS:
1) L. KNAUS
THANK YOU FOR USING TUCKER WIRELINE SERVICES CANADA.
#DEPT     DT       CALN     CALD     GR       ILD      ILM      LWTKG    NPDL     NPLS     NPSS     DPDL     DPLS     DPSS     SFL      SP       TT1      TT2      TT3      TT4      DRHO     RHOB     PE       
~TOPS_Definition
 TOPN.        :  Top Name     {S} 
 TOPT.M       :  Top Depth    {F} 
~TOPS_Data | TOPS_Definition
 Kcolorado            435.6  
 Kmed_hat             487.0  
 K2nd_ws              695.6  
 K2ws_ss              716.9  
 Kbfs                 795.0  
 Kbi_ss               825.3  
 Kbsl_colo            945.5  
 Kmannvl              953.0  
 Kglauc_ss            1057.7  
 Kmannvl_L            1094.9  
~Ascii         Log         Data
# ...
      1096.900         204.71          46.23          16.18          23.45          37.88        -208.06        2717.35           4.38
      1097.000         196.73          45.73          16.06          21.64          34.87        -207.87        2700.75           4.33
      1097.100         195.48          52.04          16.12          20.00          29.44        -207.54        2670.94           4.24
      1097.200         205.60          58.50          16.21          18.83          24.28        -207.12        2639.74           4.10
      1097.300         221.36          58.94          16.27          18.30          21.74        -206.72        2618.71           3.90
      1097.400         234.54          53.35          16.24          18.33          22.63        -206.42        2610.33           3.67
      1097.500         241.74          46.30          16.04          18.72          25.76        -206.24        2613.99           3.52
      1097.600         244.13          42.65          15.62          19.10          29.00        -206.18        2616.50           3.51
      1097.700         242.30          44.77          15.03          19.04          30.19        -206.14        2612.79           3.63
      1097.800         236.00          51.28          14.32          18.27          28.62        -206.12        2603.04           3.71
      1097.900         229.59          58.91          13.42          16.84          25.26        -206.11        2588.15           3.66
      1098.000         229.39          65.17          12.31          15.00          21.52        -206.15        2575.01           3.50
      1098.100         236.95          70.21          11.07          13.04          18.28        -206.28        2555.09           3.35
      1098.200         248.60          75.91           9.83          11.15          15.68        -206.50        2533.12           3.23
      1098.300         257.96          83.23           8.67           9.41          13.58        -206.83        2508.21           3.09
      1098.400         263.82          89.97           7.68           7.89          11.72        -207.17        2476.44           2.95
      1098.500         273.16          95.46           6.89           6.66           9.89        -207.54        2441.63           2.82
      1098.600         291.61         100.78           6.27           5.69           8.10        -207.92        2406.11           2.74
      1098.700         313.72         105.18           5.77           4.99           6.60        -208.28        2378.99           2.69
      1098.800         332.42         103.92           5.37           4.49           5.50        -208.58        2360.53           2.62
      1098.900         349.74          94.02           5.04           4.17           4.86        -208.69        2347.76           2.56
      1099.000         367.58          79.20           4.77           3.99           4.56        -208.69        2344.04           2.50
      1099.100         382.19          66.93           4.53           3.90           4.50        -208.61        2350.61           2.46
      1099.200         389.06          61.82           4.34           3.87           4.56        -208.53        2361.23           2.43
      1099.300         390.29          64.75           4.19           3.89           4.63        -208.47        2370.64           2.40
      1099.400         389.55          71.32           4.08           3.91           4.65        -208.38        2376.86           2.41
      1099.500         387.20          75.08           4.02           3.93           4.63        -208.36        2378.35           2.44
      1099.600         384.45          73.56           4.00           3.93           4.58        -208.37        2380.50           2.49
      1099.700         383.24          69.67           4.01           3.93           4.53        -208.37        2384.10           2.53
      1099.800         383.98          68.14           4.06           3.92           4.48        -208.35        2392.13           2.54
      1099.900         386.02          69.57           4.14           3.93           4.41        -208.24        2403.29           2.55
      1100.000         386.78          71.74           4.25           3.97           4.34        -208.15        2412.42           2.57
      1100.100         388.31          74.34           4.38           4.05           4.29        -208.08        2416.44           2.58
      1100.200         400.21          76.76           4.54           4.19           4.33        -208.06        2419.04           2.61
      1100.300         414.04          78.89           4.71           4.42           4.53        -208.10        2426.76           2.65
      1100.400         409.62          80.09           4.92           4.73           4.93        -208.20        2436.63           2.69
      1100.500         399.35          78.69           5.16           5.15           5.58        -208.33        2454.77           2.72
      1100.600         390.04          73.63           5.44           5.67           6.47        -208.40        2472.19           2.74
      1100.700         378.15          65.73           5.80           6.29           7.47        -208.41        2494.25           2.79
      1100.800         367.99          58.38           6.25           6.96           8.44        -208.33        2527.98           2.95
      1100.900         357.31          55.48           6.76           7.66           9.34        -208.26        2559.90           3.25
      1101.000         339.67          57.75           7.28           8.34          10.19        -208.14        2589.32           3.66
      1101.100         323.21          63.61           7.79           8.93          11.00        -207.92        2604.04           3.94
      1101.200         312.84          69.88           8.22           9.35          11.55        -207.71        2607.25           3.93
      1101.300         297.51          74.56           8.47           9.53          11.64        -207.59        2611.50           3.80
      1101.400         281.08          77.71           8.48           9.40          11.20        -207.59        2604.53           3.69
      1101.500         274.49          80.33           8.26           8.99          10.39        -207.66        2586.50           3.56
      1101.600         274.24          81.77           7.85           8.37           9.46        -207.78        2569.03           3.47
      1101.700         279.51          81.63           7.32           7.63           8.58        -207.93        2557.02           3.34
      1101.800         288.58          81.23           6.77           6.88           7.81        -208.13        2550.71           3.23
      1101.900         297.17          83.04           6.24           6.16           7.09        -208.38        2544.61           3.14
      1102.000         309.50          84.76           5.79           5.52           6.36        -208.69        2517.46           3.08
      1102.100         325.38          84.77           5.42           5.00           5.62        -209.12        2471.36           3.07
      1102.200         335.54          85.15           5.12           4.59           4.95        -209.61        2410.99           3.08
      1102.300         346.74          87.44           4.87           4.29           4.45        -210.11        2352.31           3.03
      1102.400         366.27          87.58           4.66           4.10           4.16        -210.53        2321.57           2.91
      1102.500         386.83          82.29           4.47           4.00           4.05        -210.79        2318.98           2.76
      1102.600         398.67          74.67           4.32           3.96           4.08        -210.89        2335.45           2.63
      1102.700         399.83          71.82           4.21           3.97           4.18        -210.74        2354.84           2.56
      1102.800         395.02          76.06           4.14           3.99           4.30        -210.41        2367.52           2.53
