~Version Information
 VERS  .     3.00 : LOG ASCII STANDARD -VERSION 3.0
 WRAP  .     NO   : ONE LINE PER DEPTH STEP
 DLM   .    SPACE : DELIMITING CHARACTER BETWEEN DATA COLUMNS
~Well Information Block
#MNEM  .UNIT        Data Type                  Information
#------.------ ----------------------------- : -------------------------
 STRT  .M          1072.900                  : 
 STOP  .M          1159.900                  : 
 STEP  .M             0.100                  : 
 NULL  .          -999.2500                  : 
 COMP  .      KI EXPLORATION INC.            : COMPANY
 WELL  .      KI RETLAW 15-6-13-18           : WELL
 FLD   .      RETLAW                         : FIELD
 LOC   .      100/15-06-013-18W4/00          : LOCATION
 PROV  .      Alberta                        : PROVINCE
 SRVC  .      Tucker Wireline Services       : SERVICE COMPANY
 DATE  .      OCT 10 2009                    : LOG DATE
 UWI   .      100150601318W400               : UNIQUE WELL ID
 LIC   .      0412565                        : LICENCE
~Curve Information Block
#MNEM  .UNIT        API CODE                   Curve Description
#------.------ ----------------------------- : -------------------------
 DEPT  .M        00 000 01 00                : Measured Depth
 DT    .US/M     60 520 32 00                : Delta Time
 GR    .GAPI     07 310 01 00                : Gamma Ray
 ILD   .OHMM     07 120 45 00                : Deep Induction Resistivity
 ILM   .OHMM     07 120 44 00                : Medium Induction Resistivity
 SFL   .OHMM     07 220 04 00                : Spherically Focused Resistivity
 SP    .MV       07 010 01 00                : Spontaneous Potential
 RHOB  .KG/M3    45 350 02 00                : Bulk Density
 PE    .B/E      45 358 00 00                : Photoelectric Cross Section
~Parameter Information Section
#MNEM  .UNIT        Value                      Description
#------.------ ----------------------------- : -------------------------
 RUN   .            1                        : Run number
 GL    .M           821.809998               : Ground level elevation
 DREF  .            KB                       : Depth reference
 EREF  .M           826.099976               : Elevation of depth reference
 TDL   .M           1157.0                   : Total depth, logger
 TDD   .M           1157.0                   : Total depth, driller
 CSGL  .M           293.0                    : Casing bottom, logger
 CSGD  .M           293.0                    : Casing bottom, driller
 CSGS  .mm          219.10                   : Casing size
 CSGW  .Kg          219.10                   : Casing weight
 BS    .mm          200.00                   : Bit size
 MUD   .            GEL CHEM                 : Mud type
 MUDD  .kg/m3       1230.000                 : Mud density
 MUDV  .sec         81.000                   : Mud viscosity
 FL    .cc          7.500                    : Fluid loss rate
 PH    .            10.000                   : Mud pH
 MUDS  .            FLOW LINE                : Mud source
 RM    .OHMM        2.100                    : Resistivity of mud
 RMT   .C           12.0                     : Temperature of mud
 RMF   .OHMM        2.500                    : Resistivity of mud filtrate
 RMFT  .C           12.0                     : Temperature of mud filtrate
 RMC   .OHMM        1.900                    : Resistivity of mud cake
 RMCT  .C           12.0                     : Temperature of mud cake
 TMAX  .C           32.0                     : Maximum recorded temperature
 TIMC  .DAY/HR      OCT 10 2009 @ 16:00      : Date/Time circulation stopped
 TIMD  .DAY/HR      OCT 10 2009 @ 21:00      : Date/Time logger tagged bottom
 UNIT  .            TRUCK 134                : Logging unit_number
 BASE  .            MEDICINE HAT             : Home base of logging unit
 ENG   .            M. MacNEIL               : Recording Engineer
 WIT   .            R. BABBITT               : Witnessed by
~Other Information Section
#Run number  1
RUN #1: GRT / CNT / LDT / CST / PIT
LOGGER'S COMMENTS:
1) CALIPERS ORIENTED IN X-Y AXIS.
2) SFL IS ENVIRONMENTALLY CORRECTED USING AVCAL. 
3) NEUTRON POROSITY IS CALIPER CORRECTED USING NCAL.
4) CALIPERS READINGS VERIFIED IN CASING.
5) MUD RESISTIVITIES RECORDED AS MEASURED.
6) CENTRALIZERS DEPLOYED ON TOP AND BOTTOM OF CST.
7) CEMENT VOLUME CALCULATED USING 139.7mm PRODUCTION CASING
DATE AND TIME ON BOTTOM: OCT 10 2009 @ 21:00
TUCKER OPERATORS:
1) L. KNAUS
THANK YOU FOR USING TUCKER WIRELINE SERVICES CANADA.
#DEPT     DT       CALN     CALD     GR       ILD      ILM      LWTKG    NPDL     NPLS     NPSS     DPDL     DPLS     DPSS     SFL      SP       TT1      TT2      TT3      TT4      DRHO     RHOB     PE       
~TOPS_Definition
 TOPN.        :  Top Name     {S} 
 TOPT.M       :  Top Depth    {F} 
~TOPS_Data | TOPS_Definition
 Kcolorado            435.6  
 Kmed_hat             487.0  
 K2nd_ws              695.6  
 K2ws_ss              716.9  
 Kbfs                 795.0  
 Kbi_ss               825.3  
 Kbsl_colo            945.5  
 Kmannvl              953.0  
 Kglauc_ss            1057.7  
 Kmannvl_L            1094.9  
~Ascii         Log         Data
# ...
      1144.900         240.80        -999.25           8.00          10.62          26.41        -257.92        2576.13           3.38
      1145.000         230.11        -999.25           9.37          13.99          31.63        -257.62        2550.96           3.28
      1145.100         215.19        -999.25          11.49          18.46          35.43        -257.33        2533.82           3.22
      1145.200         202.50        -999.25          14.71          23.35          38.52        -257.05        2527.07           3.18
      1145.300         195.20        -999.25          19.16          27.55          42.58        -256.86        2528.41           3.14
      1145.400         192.60        -999.25          24.45          30.44          49.15        -256.83        2526.65           3.15
      1145.500         192.21        -999.25          29.82          32.42          58.80        -256.91        2526.92           3.11
      1145.600         191.67        -999.25          33.01          34.02          70.61        -257.08        2527.93           3.08
      1145.700         190.11        -999.25          32.45          35.56          82.83        -257.30        2528.03           3.04
      1145.800         187.55        -999.25          29.05          36.84          94.19        -257.56        2527.72           3.01
      1145.900         185.68        -999.25          24.79          36.82         103.89        -257.85        2523.89           3.01
      1146.000         185.29        -999.25          21.11          34.28         110.32        -258.14        2522.03           3.01
      1146.100         185.27        -999.25          18.16          29.28         109.55        -258.45        2521.98           3.01
      1146.200         184.59        -999.25          15.94          23.42          98.68        -258.78        2522.48           3.00
      1146.300         183.99        -999.25          14.67          18.32          78.54        -259.18        2521.15           3.00
      1146.400         184.33        -999.25          14.09          14.63          55.26        -259.67        2517.93           3.00
      1146.500         185.17        -999.25          13.88          12.34          38.08        -260.17        2515.73           3.03
      1146.600         186.82        -999.25          13.89          11.15          34.80        -260.61        2514.38           3.10
      1146.700         188.61        -999.25          14.09          10.87          57.82        -260.92        2516.51           3.14
      1146.800         188.66        -999.25          14.41          11.46         112.01        -261.07        2519.51           3.16
      1146.900         187.88        -999.25          14.79          13.06         213.79        -261.11        2524.48           3.14
      1147.000         186.57        -999.25          15.24          16.07         376.56        -261.05        2531.65           3.09
      1147.100         183.89        -999.25          15.87          21.16         573.86        -260.90        2537.33           3.03
      1147.200         179.82        -999.25          16.97          29.04         748.36        -260.71        2543.10           2.97
      1147.300         175.35        -999.25          18.95          39.82         822.92        -260.49        2545.53           2.94
      1147.400         172.08        -999.25          21.69          49.96         779.63        -260.26        2546.42           2.92
      1147.500         171.19        -999.25          24.91          52.08         663.24        -260.04        2544.62           2.91
      1147.600         172.05        -999.25          28.19          45.01         523.78        -259.78        2539.39           2.92
      1147.700         173.24        -999.25          30.66          35.83         377.55        -259.53        2533.36           2.96
      1147.800         173.58        -999.25          30.80          28.43         239.67        -259.27        2529.98           3.00
      1147.900         172.22        -999.25          28.25          23.28         137.97        -259.06        2529.57           3.03
      1148.000         170.99        -999.25          24.25          19.82          80.31        -258.95        2528.64           3.05
      1148.100         171.29        -999.25          20.26          17.34          59.04        -258.99        2527.72           3.05
      1148.200         171.72        -999.25          17.00          15.40          55.85        -259.21        2526.47           3.03
      1148.300         171.65        -999.25          14.75          13.70          54.12        -259.52        2525.42           3.04
      1148.400         173.45        -999.25          13.32          12.19          48.73        -259.87        -999.25        -999.25
      1148.500         176.04        -999.25          12.66          10.94          38.51        -260.16        -999.25        -999.25
      1148.600         177.25        -999.25          12.56          10.07          28.18        -260.35        -999.25        -999.25
      1148.700         177.44        -999.25          12.80           9.66          22.18        -260.39        -999.25        -999.25
      1148.800         177.48        -999.25          13.19           9.80          21.78        -260.31        -999.25        -999.25
      1148.900         177.49        -999.25          13.74          10.58          27.73        -260.19        -999.25        -999.25
      1149.000         177.49        -999.25          14.39          12.19          39.98        -260.08        -999.25        -999.25
      1149.100         177.49        -999.25          15.21          14.92          55.30        -260.04        -999.25        -999.25
      1149.200         177.49        -999.25          16.31          19.20          68.58        -260.07        -999.25        -999.25
      1149.300         177.49        -999.25          17.83          25.18          73.36        -260.18        -999.25        -999.25
      1149.400         177.55        -999.25          20.18          32.69          71.28        -260.31        -999.25        -999.25
      1149.500         177.79        -999.25          23.84          40.69          67.51        -260.49        -999.25        -999.25
      1149.600         177.98        -999.25          29.36          47.89          68.22        -260.72        -999.25        -999.25
      1149.700         177.79        -999.25          37.09          54.14          81.23        -261.03        -999.25        -999.25
      1149.800         177.55        -999.25          47.52          60.71         108.19        -261.47        -999.25        -999.25
      1149.900        -999.25        -999.25          60.72          69.61         149.45        -262.06        -999.25        -999.25
      1150.000        -999.25        -999.25          74.25          83.05         201.49        -262.82        -999.25        -999.25
      1150.100        -999.25        -999.25          84.52         102.99         256.43        -263.69        -999.25        -999.25
      1150.200        -999.25        -999.25          88.09         130.79         310.45        -264.60        -999.25        -999.25
      1150.300        -999.25        -999.25          87.10         163.60         353.46        -265.48        -999.25        -999.25
      1150.400        -999.25        -999.25          84.84         190.40         379.57        -266.24        -999.25        -999.25
      1150.500        -999.25        -999.25          82.57         198.43         394.40        -266.88        -999.25        -999.25
      1150.600        -999.25        -999.25          81.46         189.20         402.73        -267.39        -999.25        -999.25
      1150.700        -999.25        -999.25          82.53         173.70         402.97        -267.76        -999.25        -999.25
      1150.800        -999.25        -999.25          85.26         160.30         390.51        -268.02        -999.25        -999.25
