~Version Information
 VERS  .     3.00 : LOG ASCII STANDARD -VERSION 3.0
 WRAP  .     NO   : ONE LINE PER DEPTH STEP
 DLM   .    SPACE : DELIMITING CHARACTER BETWEEN DATA COLUMNS
~Well Information Block
#MNEM  .UNIT        Data Type                  Information
#------.------ ----------------------------- : -------------------------
 STRT  .M          1072.900                  : 
 STOP  .M          1159.900                  : 
 STEP  .M             0.100                  : 
 NULL  .          -999.2500                  : 
 COMP  .      KI EXPLORATION INC.            : COMPANY
 WELL  .      KI RETLAW 15-6-13-18           : WELL
 FLD   .      RETLAW                         : FIELD
 LOC   .      100/15-06-013-18W4/00          : LOCATION
 PROV  .      Alberta                        : PROVINCE
 SRVC  .      Tucker Wireline Services       : SERVICE COMPANY
 DATE  .      OCT 10 2009                    : LOG DATE
 UWI   .      100150601318W400               : UNIQUE WELL ID
 LIC   .      0412565                        : LICENCE
~Curve Information Block
#MNEM  .UNIT        API CODE                   Curve Description
#------.------ ----------------------------- : -------------------------
 DEPT  .M        00 000 01 00                : Measured Depth
 DT    .US/M     60 520 32 00                : Delta Time
 GR    .GAPI     07 310 01 00                : Gamma Ray
 ILD   .OHMM     07 120 45 00                : Deep Induction Resistivity
 ILM   .OHMM     07 120 44 00                : Medium Induction Resistivity
 SFL   .OHMM     07 220 04 00                : Spherically Focused Resistivity
 SP    .MV       07 010 01 00                : Spontaneous Potential
 RHOB  .KG/M3    45 350 02 00                : Bulk Density
 PE    .B/E      45 358 00 00                : Photoelectric Cross Section
~Parameter Information Section
#MNEM  .UNIT        Value                      Description
#------.------ ----------------------------- : -------------------------
 RUN   .            1                        : Run number
 GL    .M           821.809998               : Ground level elevation
 DREF  .            KB                       : Depth reference
 EREF  .M           826.099976               : Elevation of depth reference
 TDL   .M           1157.0                   : Total depth, logger
 TDD   .M           1157.0                   : Total depth, driller
 CSGL  .M           293.0                    : Casing bottom, logger
 CSGD  .M           293.0                    : Casing bottom, driller
 CSGS  .mm          219.10                   : Casing size
 CSGW  .Kg          219.10                   : Casing weight
 BS    .mm          200.00                   : Bit size
 MUD   .            GEL CHEM                 : Mud type
 MUDD  .kg/m3       1230.000                 : Mud density
 MUDV  .sec         81.000                   : Mud viscosity
 FL    .cc          7.500                    : Fluid loss rate
 PH    .            10.000                   : Mud pH
 MUDS  .            FLOW LINE                : Mud source
 RM    .OHMM        2.100                    : Resistivity of mud
 RMT   .C           12.0                     : Temperature of mud
 RMF   .OHMM        2.500                    : Resistivity of mud filtrate
 RMFT  .C           12.0                     : Temperature of mud filtrate
 RMC   .OHMM        1.900                    : Resistivity of mud cake
 RMCT  .C           12.0                     : Temperature of mud cake
 TMAX  .C           32.0                     : Maximum recorded temperature
 TIMC  .DAY/HR      OCT 10 2009 @ 16:00      : Date/Time circulation stopped
 TIMD  .DAY/HR      OCT 10 2009 @ 21:00      : Date/Time logger tagged bottom
 UNIT  .            TRUCK 134                : Logging unit_number
 BASE  .            MEDICINE HAT             : Home base of logging unit
 ENG   .            M. MacNEIL               : Recording Engineer
 WIT   .            R. BABBITT               : Witnessed by
~Other Information Section
#Run number  1
RUN #1: GRT / CNT / LDT / CST / PIT
LOGGER'S COMMENTS:
1) CALIPERS ORIENTED IN X-Y AXIS.
2) SFL IS ENVIRONMENTALLY CORRECTED USING AVCAL. 
3) NEUTRON POROSITY IS CALIPER CORRECTED USING NCAL.
4) CALIPERS READINGS VERIFIED IN CASING.
5) MUD RESISTIVITIES RECORDED AS MEASURED.
6) CENTRALIZERS DEPLOYED ON TOP AND BOTTOM OF CST.
7) CEMENT VOLUME CALCULATED USING 139.7mm PRODUCTION CASING
DATE AND TIME ON BOTTOM: OCT 10 2009 @ 21:00
TUCKER OPERATORS:
1) L. KNAUS
THANK YOU FOR USING TUCKER WIRELINE SERVICES CANADA.
#DEPT     DT       CALN     CALD     GR       ILD      ILM      LWTKG    NPDL     NPLS     NPSS     DPDL     DPLS     DPSS     SFL      SP       TT1      TT2      TT3      TT4      DRHO     RHOB     PE       
~TOPS_Definition
 TOPN.        :  Top Name     {S} 
 TOPT.M       :  Top Depth    {F} 
~TOPS_Data | TOPS_Definition
 Kcolorado            435.6  
 Kmed_hat             487.0  
 K2nd_ws              695.6  
 K2ws_ss              716.9  
 Kbfs                 795.0  
 Kbi_ss               825.3  
 Kbsl_colo            945.5  
 Kmannvl              953.0  
 Kglauc_ss            1057.7  
 Kmannvl_L            1094.9  
~Ascii         Log         Data
# ...
      1138.900         215.26          31.93           4.20           3.46           9.48        -258.20        2632.38           3.19
      1139.000         216.92          30.98           3.87           2.74           8.25        -258.53        2632.14           3.22
      1139.100         217.71          30.71           3.68           2.31           6.59        -258.83        2632.74           3.27
      1139.200         214.49          30.69           3.50           2.07           4.84        -259.01        2645.60           3.31
      1139.300         214.24          30.70           3.33           2.00           3.48        -259.00        2677.94           3.36
      1139.400         218.86          30.91           3.17           2.06           2.78        -258.66        2722.04           3.47
      1139.500         224.46          31.65           3.06           2.27           2.65        -257.98        2775.77           3.71
      1139.600         228.03          32.69           3.00           2.60           2.96        -257.18        2814.24           4.04
      1139.700         228.75          34.30           3.00           3.06           3.64        -256.54        2823.36           4.31
      1139.800         227.66          36.77           3.08           3.58           4.70        -256.24        2799.92           4.41
      1139.900         225.05          39.83           3.24           4.08           6.00        -256.38        2755.92           4.24
      1140.000         219.96          41.81           3.50           4.45           7.23        -256.79        2721.21           3.95
      1140.100         213.72          41.41           3.82           4.67           8.03        -257.19        2705.87           3.67
      1140.200         208.87          39.56           4.17           4.73           8.25        -257.54        2705.77           3.48
      1140.300         205.06          37.72           4.49           4.67           8.08        -257.84        2708.66           3.42
      1140.400         201.77          36.70           4.63           4.50           7.76        -258.04        2713.23           3.44
      1140.500         199.37          35.93           4.51           4.23           7.41        -258.17        2718.13           3.59
      1140.600         197.92          35.26           4.16           3.90           6.99        -258.05        2724.96           3.81
      1140.700         196.85          34.44           3.62           3.52           6.39        -257.61        2730.37           3.99
      1140.800         195.75          34.05           3.06           3.12           5.65        -256.92        2731.60           4.03
      1140.900         195.86          34.33           2.60           2.72           4.86        -256.03        2728.64           3.92
      1141.000         196.56          35.01           2.28           2.35           4.11        -255.04        2728.61           3.77
      1141.100         197.34          35.61           2.06           2.04           3.48        -254.04        2738.23           3.73
      1141.200         198.42          36.61           1.94           1.79           3.01        -253.18        2756.46           3.86
      1141.300         199.45          37.89           1.90           1.61           2.64        -252.79        2772.19           4.08
      1141.400         199.64          38.86           1.91           1.50           2.33        -252.95        2773.62           4.28
      1141.500         200.10          39.35           1.96           1.48           2.15        -253.55        2765.05           4.37
      1141.600         205.03          40.16           2.04           1.54           2.26        -254.36        2765.76           4.38
      1141.700         215.17          40.48           2.16           1.71           2.69        -255.15        2775.95           4.42
      1141.800         224.76          39.70           2.30           2.01           3.47        -255.83        2785.13           4.49
      1141.900         229.88          38.04           2.48           2.49           4.54        -256.33        2782.80           4.44
      1142.000         231.63          36.54           2.69           3.19           5.77        -256.65        2769.04           4.36
      1142.100         230.76          35.34           2.99           4.10           6.87        -256.84        2759.37           4.23
      1142.200         225.65          34.28           3.43           5.07           7.44        -256.94        2758.85           4.12
      1142.300         216.90          34.00           4.00           5.79           7.59        -256.97        2762.25           4.20
      1142.400         207.77          35.23           4.80           6.10           7.77        -256.96        2764.24           4.34
      1142.500         199.91          37.44           5.79           6.11           8.34        -256.90        2762.13           4.55
      1142.600         193.06          39.37           6.92           6.06           9.17        -256.76        2755.51           4.69
      1142.700         189.01          39.93           7.97           6.13           9.86        -256.57        2748.11           4.65
      1142.800         189.26          39.26           8.80           6.40          10.27        -256.39        2735.79           4.51
      1142.900         191.92          37.78           9.25           6.91          10.68        -256.28        2721.98           4.24
      1143.000         194.67        -999.25           9.21           7.61          11.26        -256.20        2713.86           4.01
      1143.100         197.45        -999.25           8.84           8.41          11.81        -256.03        2712.93           3.89
      1143.200         199.32        -999.25           8.38           9.08          11.91        -255.75        2720.30           3.92
      1143.300         198.86        -999.25           7.95           9.38          11.37        -255.34        2730.04           4.13
      1143.400         195.44        -999.25           7.59           9.17          10.40        -254.91        2734.23           4.39
      1143.500         189.56        -999.25           7.29           8.55           9.34        -254.54        2732.82           4.65
      1143.600         186.48        -999.25           7.04           7.74           8.44        -254.35        2718.80           4.78
      1143.700         189.67        -999.25           6.76           6.93           7.83        -254.45        2691.33           4.59
      1143.800         197.12        -999.25           6.48           6.21           7.63        -254.81        2656.78           4.25
      1143.900         207.04        -999.25           6.24           5.61           7.83        -255.33        2614.81           3.91
      1144.000         217.99        -999.25           6.07           5.15           8.09        -255.93        2579.71           3.73
      1144.100         225.19        -999.25           5.95           4.82           8.00        -256.47        2558.20           3.68
      1144.200         227.81        -999.25           5.87           4.63           7.37        -256.94        2554.69           3.59
      1144.300         228.54        -999.25           5.83           4.58           6.60        -257.40        2572.14           3.47
      1144.400         229.51        -999.25           5.83           4.72           6.41        -257.85        2591.72           3.39
      1144.500         231.37        -999.25           5.90           5.06           7.48        -258.26        2610.82           3.35
      1144.600         234.35        -999.25           6.08           5.68          10.20        -258.48        2619.75           3.41
      1144.700         239.67        -999.25           6.45           6.70          14.67        -258.44        2617.24           3.45
      1144.800         243.56        -999.25           7.07           8.26          20.41        -258.22        2604.18           3.42
